     3.05           OBSERVATION DATA    M                   RINEX VERSION / TYPE
GnssLogger          samsung 16          20260421 140346 UTC PGM / RUN BY / DATE
Google GnssLogger                                           MARKER NAME
Unknown                                                     MARKER NUMBER
Unknown             Unknown                                 OBSERVER / AGENCY
Unknown             GnssLogger          v3.1.1.2            REC # / TYPE / VERS
Unknown             Unknown                                 ANT # / TYPE
        0.0000        0.0000        0.0000                  ANTENNA: DELTA H/E/N
G    8 C1C L1C D1C S1C C5Q L5Q D5Q S5Q                      SYS / # / OBS TYPES
R    4 C1C L1C D1C S1C                                      SYS / # / OBS TYPES
C    8 C1P L1P D1P S1P C5P L5P D5P S5P                      SYS / # / OBS TYPES
E    8 C1C L1C D1C S1C C5Q L5Q D5Q S5Q                      SYS / # / OBS TYPES
  2026    04    21    14    03   46.0000000     GPS         TIME OF FIRST OBS
 9 R01  1 R02 -4 R08  6 R14 -7 R15  0 R16 -1 R17  4 R23  3  GLONASS SLOT / FRQ #
   R24  2                                                   GLONASS SLOT / FRQ #
samsung SM-S921B (Android 16) HW Year: 2021 HW Model:       COMMENT
S.LSI,K43E1,SPOTNAV_4.17.16_27_E_275468                     COMMENT
                                                            END OF HEADER
> 2026 04 21 14 03 46.9999999  0 34                      
G14  23212878.97526    -38703.92826       866.36826        40.60026  23212883.17215     37909.20315       646.40515        31.50015
G02  20552064.71806     14215.13506        91.16506        39.60006                                                                
G01  21309636.06306    -84489.86906      2151.23006        39.10006  21309643.25806      3416.70506      1605.01006        36.70006
G10  23000776.71006    130291.42906     -2791.34706        38.90006  23000805.79005    162854.98005     -2083.80705        35.30005
G22  24231207.10126    -71185.09826      1618.98226        36.30026                                                                
G08  21072182.74806     98308.57006     -2290.32606        35.90006  21072178.85125    140774.03425     -1712.67225        31.00025
G32  22417109.87415     41571.67115      1020.14715        35.00015  22417099.38214     25110.96514       764.51314        27.80014
G17  25517430.66705    -60204.95105      3384.78905        33.90005                                                                
G27  23380929.73625    167368.04425     -3642.56325        35.00025  23380926.73806    189797.41906     -2721.16606        36.20006
G03  23664221.91724   -104965.04124      3789.46024        24.10024                                                                
R17  21260261.44407   4375494.19807      3072.24907        42.10007
E10  24650131.08606     16280.02206      1615.07906        40.50006  24650131.98506     36351.39006      1205.80406        36.70006
C30  24717466.57126    -42996.95226      2928.45126        40.20026  24717471.96705     -9808.67305      2187.54305        31.50005
C36  25860748.19306    111501.23706     -1057.05206        40.40006  25860755.98806    101056.74206      -790.88606        35.80006
C27  21417159.92506     -3871.58606       508.46706        39.10006  21417164.12205     64308.41405       380.73005        32.50005
R15  22263325.93726   2467970.68926     -2188.08826        38.20026
R08  20985511.84906   4301015.32306     -2164.41806        39.00006
E25  25925417.92306    -33945.33006       771.25506        36.10006  25925424.81824     70276.66624       583.12224        29.30024
R24  19402718.89405   2993326.08505      -212.81905        35.30005
E16  25231679.58825     86067.42525     -1783.25525        35.40025  25231682.88625    476297.29225     -1333.03825        32.40025
C41  22987383.48225    -93179.27325      2137.35225        34.60025  22987390.97725     -3846.28825      1586.88925        29.60025
E07  27778045.67625    158666.36225     -1683.82925        34.60025  27778055.56924    480721.08224     -1262.29524        29.40024
E12  23417933.11925     62693.35025       542.92625        34.30025  23417937.01615     40148.63415       407.76415        29.90015
R01  19963763.69105   2491405.07105      2080.58105        34.10005
C28  22429085.68425     90873.13325     -1885.35125        34.50025  22429089.58114    132034.07214     -1391.54614        25.10014
C33  23065459.93126     51044.48526      -973.56626        35.60026  23065482.71524    101683.25224      -727.81124        28.40024
E29  25959292.37215    -18552.95315       840.63615        34.70015  25959307.06215     52685.41915       633.09815        31.70015
E33  24870993.58625     79996.94525     -1848.69725        33.10025  24870990.28814    124494.25914     -1365.96014        26.30014
R16  22849091.62027   -108447.20227      1437.27327        41.80027
C42  26871589.00315    135585.50615     -3210.62815        30.60015  26871594.99814    173718.97714     -2392.37914        26.50014
R23  23144588.05224   3643903.97924     -3428.63624        29.40024
R02  23018609.56524  -6000380.57624      4553.21024        28.40024
R14  24169895.34623  -2031128.56023     -4103.24023        21.30023
E19  25782526.64524     93664.03024      2830.35024        26.50024  25782521.24924    -28190.87624      2113.88224        24.40024
> 2026 04 21 14 03 47.9999984  0 34                      
G14  23212722.48326    -39572.19426       869.03126        40.50026  23212725.781 5     37259.808 5       658.440 5        31.400 5
G02  20552059.32206     14123.60206        91.98306        39.90006                                                                
G01  21309236.73906    -86642.22106      2153.59606        39.40006  21309241.53626      1809.48226      1607.18826        36.00026
G22  24230906.40916    -72805.46916      1621.35916        37.00016                                                                
G08  21072622.24406    100600.73506     -2293.23606        36.00006  21072621.344 5    142487.035 5     -1716.191 5        30.900 5
G32  22416922.20415     40549.64015      1012.03515        34.90015  22416916.80814     24350.65414       753.97214        27.70014
G17  25516791.21015    -63593.57215      3389.43415        34.00015                                                                
G27  23381633.94815    171009.90715     -3639.66215        34.80015  23381628.55206    192521.36806     -2725.16106        36.20006
G03  23663540.18924   -108751.82424      3786.67724        24.00024                                                                
G10  23001318.43506    133084.49906     -2792.87106        39.00006  23001314.23825    164938.04525     -2083.73225        34.70025
R17  21259707.12807   4372421.43607      3074.51107        42.00007
E10  24649830.39426     14664.00826      1617.30126        40.40026  24649833.69226     35145.00426      1207.13326        36.70026
C30  24716926.94426    -45927.08226      2933.19526        40.20026  24716921.84825    -11997.68625      2194.03225        31.30025
C36  25860954.45006    112558.19306     -1054.20506        40.30006  25860965.24306    101845.47406      -787.20806        35.90006
C27  21417074.18506     -4378.03606       506.55406        39.30006  21417075.98325     63930.81625       375.06225        32.20025
R08  20985913.87106   4303181.09506     -2166.43906        38.80006
R15  22263743.54816   2470158.00216     -2182.70516        38.20016
E25  25925283.31626    -34722.76126       776.00426        36.30026  25925288.11324     69700.44924       578.79824        29.00024
R24  19402760.26506   2993539.27706      -213.13006        35.90006
R16  22848796.92426   -109887.22826      1440.67526        41.10026
E16  25232029.44605     87851.29205     -1783.20705        35.30005  25232030.645 5    477630.674 5     -1331.672 5        32.300 5
C41  22986977.56325    -95310.04525      2126.82625        34.60025  22986992.25314     -5436.64414      1590.31714        29.40014
E12  23417837.48505     62150.01405       542.99005        34.20005  23417842.58214     39746.37414       399.02614        29.30014
E07  27778388.63805    160345.63805     -1678.52005        34.50005  27778384.74104    481975.30404     -1254.13404        29.30004
R01  19963385.95215   2489325.12715      2079.72015        34.00015
C28  22429462.52315     92760.96215     -1888.25415        34.30015  22429458.02614    133436.85914     -1400.66514        24.90014
C33  23065649.70025     52020.43325      -978.93825        35.00025  23065677.58024    102410.48024      -714.32824        28.50024
E33  24871350.63915     81845.72015     -1846.13015        32.90015  24871351.83824    125877.10624     -1392.78224        26.50024
E29  25959128.08605    -19387.60305       831.18305        34.20005  25959153.569 5     52059.481 5       639.960 5        31.700 5
C42  26872211.37225    138795.02825     -3210.99825        30.50025  26872219.16614    176120.96214     -2401.32414        26.00014
R23  23145238.60124   3647334.19324     -3430.90924        29.40024
E19  25781979.22424     90840.61024      2828.42424        26.30024  25781995.11314    -30298.89614      2110.24814        24.50014
R02  23017772.24424  -6004933.10424      4550.28224        27.80024
R14  24170712.88023  -2027026.93723     -4104.14223        21.20023
> 2026 04 21 14 03 48.9999968  0 35                      
G02  20552036.83806     14031.07906        92.26806        40.30006                                                                
G14  23212552.50126    -40441.78026       869.74626        40.50026  23212552.80115     36602.90015       680.66515        31.30015
G01  21308822.12606    -88795.37206      2154.30406        39.70006  21308827.222 5       201.641 5      1602.652 5        35.200 5
G10  23001840.67406    135877.10106     -2792.62306        39.30006  23001844.87105    167023.31105     -2085.87005        34.30005
G22  24230593.72626    -74426.73326      1621.21526        37.10026                                                                
G08  21073053.04606    102894.16606     -2296.06706        36.10006  21073055.14425    144200.07025     -1712.05525        31.70025
G17  25516145.45705    -66985.75205      3394.46605        34.60005                                                                
G32  22416716.24715     39528.00015      1025.19715        34.80015  22416722.24314     23590.00114       756.32514        27.50014
G27  23382317.47515    174651.00415     -3634.47115        34.60015  23382319.27416    195242.45416     -2725.66016        35.60016
G03  23662780.81424   -112537.61124      3785.79624        23.80024                                                                
R17  21259121.33307   4369347.47807      3073.06107        41.90007
E10  24649524.90606     13046.89006      1616.17406        40.30006  24649521.908 6     33937.334 6      1208.314 6        36.700 6
C30  24716349.24406    -48858.94306      2933.73206        40.10006  24716359.43705    -14188.66005      2190.95905        31.50005
C36  25861149.61506    113613.21506     -1054.55606        40.20006  25861162.50606    102633.23006      -787.26906        36.70006
C27  21416968.65806     -4884.89606       507.06606        39.50006  21416975.55305     63553.32105       376.44405        32.10005
R08  20986317.39106   4305346.54806     -2164.54806        38.60006
R15  22264158.46026   2472344.36926     -2187.14926        38.00026
E25  25925132.82106    -35500.41506       780.76706        36.30006  25925131.92124     69119.29524       586.62424        28.70024
R24  19402806.13306   2993750.73106      -209.83506        36.10006
R16  22848525.01216   -111328.58416      1444.52416        40.20016
E16  25232361.61625     89636.14925     -1786.85425        35.30025  25232365.51325    478963.06125     -1332.39325        32.30025
C41  22986577.94025    -97441.19125      2134.83725        34.60025  22986584.23514     -7028.52814      1586.65214        29.30014
E12  23417728.96005     61607.14005       543.14505        34.30005  23417732.25814     39338.65314       407.95214        28.90014
R01  19962997.42105   2487249.34305      2072.95605        34.00005
E07  27778695.02615    162025.84915     -1677.18215        34.50015  27778698.92414    483227.80314     -1252.13914        28.90014
C28  22429809.08315     94649.51315     -1888.91615        34.10015  22429815.07924    134848.53624     -1414.12424        25.20024
C33  23065831.67425     52997.93325      -977.27925        34.50025  23065860.15405    103141.40005      -735.26705        29.50005
E29  25958981.18815    -20227.45815       842.95815        33.70015  25958971.29515     51430.74515       634.13515        31.00015
E33  24871701.39625     83694.30725     -1847.49625        32.60025  24871699.29714    127258.32714     -1383.91114        26.90014
C42  26872814.85425    142002.45625     -3205.38725        30.40025  26872825.64714    178517.91814     -2397.44714        25.70014
R23  23145883.75524   3650765.12324     -3432.79324        29.40024
E11  25093853.60324    173540.78124      2391.97924        24.90024                                                                
E19  25781447.69224     88014.24824      2826.83924        26.20024  25781454.88714    -32409.18314      2105.42314        24.50014
R02  23016832.69524  -6009482.80924      4547.55124        27.30024
R14  24171504.63223  -2022927.36523     -4102.05423        21.10023
> 2026 04 21 14 03 49.9999952  0 35                      
G14  23212381.02026    -41312.79826       871.98626        40.50026  23212384.31715     35949.57315       665.03815        31.10015
G02  20552016.15206     13937.45306        93.67906        40.30006                                                                
G01  21308413.80906    -90949.84106      2154.13006        39.80006  21308413.50905     -1407.44605      1611.71305        35.20005
G10  23002375.20406    138665.56306     -2785.64606        39.40006  23002372.20625    169105.43725     -2082.05825        34.10025
G22  24230284.93926    -76049.10426      1622.42626        37.30026                                                                
G08  21073484.74706    105185.01806     -2288.81606        36.10006  21073488.04425    145910.73425     -1700.48125        31.70025
G17  25515488.91105    -70379.55805      3393.87505        35.20005                                                                
G32  22416530.67515     38508.57615      1017.56815        34.70015  22416529.47614     22827.20714       764.36514        27.40014
G27  23383004.00015    178291.29215     -3640.63915        34.40015  23383009.99605    197964.64605     -2723.74905        34.80005
G03  23662047.52224   -116324.93524      3786.34924        23.70024                                                                
R17  21258546.93107   4366271.86107      3076.95107        41.80007
E10  24649211.92226     11428.75226      1619.14926        40.30026  24649211.02306     32728.77906      1209.00006        36.60006
C27  21416873.62426     -5393.25026       506.10226        39.50026  21416873.92325     63173.74225       384.12225        31.90025
C30  24715805.42126    -51790.60526      2934.06726        40.10026  24715798.22625    -16378.95825      2191.46325        32.00025
C36  25861357.07226    114669.91226     -1057.53626        40.10026  25861357.97106    103420.06406      -786.37306        36.70006
R08  20986712.21806   4307510.56306     -2164.29906        38.50006
R16  22848243.807 6   -112772.875 6      1445.011 6        39.600 6
E25  25924976.62926    -36279.58726       779.43226        37.10026  25924983.22424     68540.12924       576.67424        28.60024
R15  22264529.90316   2474529.03016     -2181.56116        37.90016
R24  19402836.71206   2993961.19206      -213.96506        36.10006
E16  25232699.18205     91420.12405     -1784.53805        35.20005  25232703.67915    480295.54915     -1329.54015        31.50015
C41  22986166.92415    -99572.49115      2130.38015        34.60015  22986179.81514     -8618.84814      1579.54014        29.20014
E12  23417627.33105     61061.57105       545.41605        34.30005  23417627.33114     38929.07514       411.50814        28.50014
R01  19962588.20415   2485169.40615      2080.01715        34.00015
C28  22430170.33325     96537.64725     -1887.92725        34.00025  22430172.43114    136257.34314     -1411.87514        25.70014
E29  25958813.00415    -21067.78415       833.06215        33.40015  25958824.99615     50805.24415       616.38515        30.10015
E33  24872049.75515     85535.93915     -1841.65815        32.40015  24872050.05514    128632.60614     -1366.31014        26.90014
C42  26873445.61725    145208.09425     -3207.74925        30.30025  26873433.62614    180915.43814     -2404.80514        25.60014
R23  23146519.61524   3654193.10024     -3425.25724        29.30024
E11  25093400.31724    171148.62224      2394.82624        27.10024  25093396.42013    240001.71913      1789.43313        22.80013
E07  27779028.09605    163703.64705     -1682.09405        34.00005  27779015.50414    484479.66914     -1255.55214        28.40014
E19  25780898.77224     85190.95724      2825.75924        26.10024  25780909.86424    -34518.15624      2106.82024        24.40024
R02  23016006.46724  -6014031.23224      4552.78924        26.90024
R14  24172271.20123  -2018839.12623     -4092.32723        21.10023
C33  23066019.04425     53973.18425      -975.62725        34.20025  23066044.22615    103866.55815      -724.27815        29.50015
> 2026 04 21 14 03 50.9999936  0 35                      
G17  25514842.85807    -73773.25607      3393.89907        42.70007                                                                
G02  20551995.16606     13844.57106        92.00906        40.40006                                                                
G14  23212215.53426    -42180.09826       866.19226        40.40026  23212217.33325     35299.37425       644.63625        33.70025
G10  23002906.13606    141456.60706     -2792.59006        39.40006  23002900.44005    171188.97605     -2079.25005        33.90005
G22  24229970.15726    -77671.06226      1623.50526        37.30026                                                                
G08  21073918.24706    107479.20306     -2295.10506        36.30006  21073920.64525    147623.39125     -1713.65625        31.60025
G32  22416328.91515     37481.17415      1032.39215        34.50015  22416331.61304     22063.39604       763.32104        27.30004
G27  23383706.71315    181933.82415     -3647.16015        34.20015  23383701.31725    200687.43625     -2720.59225        34.20025
G03  23661318.12724   -120111.27224      3783.34924        23.50024                                                                
G01  21307995.29806    -93103.92906      2155.65206        40.00006  21308000.39525     -3016.07225      1603.89725        35.20025
E25  25924826.13306    -37058.37006       778.58906        40.20006  25924829.73024     67958.57324       593.25224        28.80024
R17  21257969.83007   4363196.58707      3075.10807        41.70007
E10  24648904.93506      9809.66506      1619.56506        40.20006  24648901.03726     31521.04926      1198.31926        36.50026
C27  21416769.89506     -5901.06106       510.03906        39.50006  21416773.79305     62795.69905       383.77505        31.70005
C30  24715230.41926    -54725.02226      2936.29926        40.00026  24715236.41405    -18571.03705      2192.47305        32.80005
C36  25861558.83226    115726.46326     -1053.48026        40.00026  25861556.43406    104207.41706      -787.61506        37.20006
R16  22847975.19306   -114215.09806      1441.19106        39.20006
R08  20987121.13506   4309676.03806     -2164.45906        38.40006
R15  22264949.91326   2476714.28626     -2184.80726        37.70026
R24  19402862.49406   2994173.24306      -212.34706        36.10006
C41  22985753.51125   -101701.80925      2125.33125        34.60025  22985768.50014    -10210.55314      1591.90014        29.10014
E12  23417521.80405     60517.39705       545.47905        34.30005  23417520.00524     38520.85324       406.04524        28.20024
R01  19962206.86815   2483093.39015      2072.55915        34.00015
C33  23066206.71425     54947.80925      -973.81325        33.90025  23066229.79814    104593.34914      -722.60914        29.30014
E29  25958641.52315    -21907.19315       841.45315        33.10015  25958665.20714     50180.83514       616.36414        29.40014
E33  24872402.91025     87382.47725     -1843.49525        32.20025  24872397.21414    130004.28514     -1354.88314        26.80014
E11  25092934.14025    168755.00025      2393.62625        29.60025  25092935.33914    238217.11214      1786.08514        24.30014
C42  26874033.51015    148413.45715     -3202.73015        30.20015  26874042.80414    183312.84214     -2412.84914        25.60014
R23  23147182.45624   3657615.49424     -3416.85824        29.30024
E07  27779336.58205    165379.54705     -1674.95305        33.10005  27779329.38704    485730.68604     -1246.09404        28.00004
E16  25233040.04615     93205.24715     -1786.69915        34.70015  25233037.04915    481627.84215     -1328.69815        30.40015
E19  25780391.22324     82362.98924      2828.81224        26.00024  25780372.03614    -36630.93014      2112.67814        24.40014
R02  23015152.65824  -6018589.69824      4560.49424        26.40024
R14  24172991.00323  -2014746.13223     -4090.12923        21.10023
C28  22430528.28525     98427.24325     -1888.83125        33.90025  22430527.985 4    137668.593 4     -1411.474 4        26.000 4
> 2026 04 21 14 03 51.9999920  0 35                      
G17  25514195.00707    -77166.08707      3392.40307        42.70007                                                                
G08  21074353.24506    109774.25406     -2295.73706        37.30006  21074354.14526    149338.05826     -1716.67526        38.90026
G02  20551975.98006     13752.91806        91.28906        40.70006                                                                
G01  21307588.18006    -95256.82506      2151.80306        40.10006  21307589.37905     -4621.73005      1604.17705        34.80005
G14  23212045.25226    -43046.83826       866.21126        40.40026  23212046.151 5     34650.805 5       648.255 5        34.300 5
G10  23003427.47506    144249.11706     -2793.24706        39.40006  23003428.67425    173274.95925     -2088.70725        33.80025
G22  24229660.47226    -79289.53126      1614.72626        37.30026                                                                
G32  22416139.74605     36456.13405      1025.11205        34.50005  22416137.04814     21302.66714       753.68914        27.30014
G27  23384399.53415    185575.05515     -3641.08615        34.00015  23384392.63805    203410.02105     -2719.98705        33.80005
G03  23660601.02323   -123895.34923      3783.95423        23.40023                                                                
E25  25924671.44007    -37836.07307       777.16507        42.20007  25924678.03524     67378.20624       579.27324        28.80024
R17  21257391.53107   4360122.19307      3073.95907        41.80007
C27  21416671.56306     -6407.29806       504.95206        39.70006  21416675.76015     62416.84015       372.26915        31.20015
E10  24648586.25526      8192.95726      1617.02226        40.10026  24648590.15306     30312.41506      1206.08806        36.20006
C30  24714672.80526    -57658.90826      2933.12626        39.80026  24714674.00405    -20762.02905      2190.45205        33.30005
C36  25861745.00326    116782.49726     -1056.77826        39.80026  25861753.99706    104995.64206      -788.66106        37.90006
R16  22847700.58306   -115656.05206      1441.07106        39.10006
R08  20987519.85906   4311842.41806     -2165.83606        38.30006
R15  22265362.42726   2478901.58226     -2190.31926        37.60026
R24  19402911.66006   2994385.85706      -210.39506        36.10006
C41  22985341.89625   -103830.80125      2129.83225        34.70025  22985360.18314    -11800.70714      1589.38214        29.00014
E12  23417413.57905     59974.48605       540.27905        34.30005  23417411.48014     38116.86514       403.87114        27.90014
R01  19961832.42815   2481011.05115      2088.50315        34.00015
C28  22430877.84325    100316.16625     -1892.08825        33.80025  22430883.53914    139073.60114     -1403.38914        26.00014
C33  23066390.48715     55923.65515      -979.45815        33.70015  23066409.07414    105324.14514      -734.29914        29.20014
E11  25092485.650 5    166363.397 5      2390.598 5        31.700 5  25092479.65414    236432.24814      1786.86714        25.00014
E29  25958498.52215    -22743.70115       832.05915        32.90015  25958500.92014     49556.19614       623.25414        28.90014
E33  24872740.77615     89229.81115     -1850.73415        32.00015  24872745.27314    131374.63114     -1349.68114        26.50014
C42  26874650.78325    151619.53425     -3211.43925        30.10025  26874653.78114    185710.52814     -2417.33114        25.50014
E07  27779647.46725    167056.25225     -1673.61025        32.50025  27779646.26814    486982.54014     -1254.77514        27.70014
E16  25233394.40105     94990.46805     -1783.27305        33.80005  25233376.11415    482959.36815     -1328.14415        29.50015
R23  23147798.82924   3661040.95624     -3427.25124        29.30024
E19  25779826.11424     79531.33224      2833.50524        25.90024  25779831.51114    -38738.10314      2112.87714        24.40014
R02  23014289.85524  -6023146.64224      4557.44024        26.00024
R14  24173741.98323  -2010651.70123     -4091.90623        21.10023
> 2026 04 21 14 03 52.9999904  0 35                      
G08  21074784.64707    112069.06707     -2294.69907        44.00007  21074787.64506    151051.26206     -1712.47606        38.90006
G17  25513544.75707    -80559.86107      3393.50107        42.50007                                                                
G02  20551957.39306     13658.81306        93.83006        40.70006                                                                
G14  23211872.27226    -43916.32226       870.85826        40.30026  23211879.46705     34001.38805       649.34105        34.80005
G10  23003951.81206    147038.55906     -2789.41306        39.40006  23003960.80615    175357.30415     -2088.03015        33.70015
G22  24229349.28716    -80909.76916      1623.87616        37.20016                                                                
G32  22415946.97915     35430.94315      1021.01715        34.40015  22415931.69014     20550.51314       740.86814        27.20014
G27  23385095.95215    189220.92715     -3654.44815        33.80015  23385084.85915    206131.40815     -2724.79215        33.10015
G03  23659885.11923   -127682.47923      3784.16223        23.20023  23659863.83412    525266.13412      2813.15512        16.70012
G01  21307173.86706    -97411.17706      2154.33506        40.10006  21307175.06625     -6231.06025      1617.66925        34.20025
E25  25924524.24207    -38614.74407       779.15507        42.60007  25924526.64025     66798.05825       580.53925        30.20025
R17  21256813.23107   4357046.63807      3076.14207        42.20007
C27  21416573.53126     -6915.00026       508.43526        39.70026  21416578.62815     62044.69715       362.78515        30.30015
E10  24648273.57206      6574.47606      1618.86906        40.00006  24648275.97016     29104.11616      1204.13316        35.70016
C30  24714108.59506    -60593.12406      2934.38506        39.70006  24714112.19305    -22953.87205      2192.27205        34.10005
C36  25861947.36326    117837.00126     -1055.24026        39.70026  25861951.26006    105783.23806      -787.28306        38.80006
R16  22847432.56806   -117095.89106      1442.03506        39.00006
R15  22265768.64626   2481087.66126     -2184.97526        37.60026
R08  20987911.68816   4314007.16416     -2162.18316        38.20016
R24  19402935.34406   2994598.34706      -213.92806        36.10006
C41  22984935.97725   -105963.17225      2132.56425        35.00025  22984947.06924    -13391.18124      1591.13624        29.10024
R01  19961427.10815   2478931.28015      2079.99115        34.10015
E12  23417307.15225     59429.41225       545.15825        34.30025  23417310.45014     37719.67714       384.28914        27.40014
C28  22431231.89815    102201.00615     -1884.80315        33.70015  22431240.592 4    140484.665 4     -1401.595 4        26.500 4
C33  23066577.55725     56899.97325      -975.55625        33.50025  23066588.94914    106053.53714      -730.19014        29.20014
E11  25092021.57225    163972.42525      2386.16025        31.70025  25092015.57624    234644.63024      1787.99824        25.60024
E29  25958322.84415    -23584.58815       838.07615        32.70015  25958331.53814     48932.95514       628.54314        28.60014
E33  24873095.73125     91078.49925     -1850.36825        31.90025  24873095.43114    132744.55614     -1355.71714        26.00014
E07  27779971.54205    168734.12405     -1679.45705        32.00005  27779962.24904    488234.43504     -1251.41804        27.80004
C42  26875246.17115    154826.08315     -3206.79015        30.00015  26875278.54814    188126.16714     -2419.12014        25.10014
E16  25233714.28025     96774.39725     -1785.28625        33.10025  25233712.18114    484292.90014     -1328.53714        28.70014
R23  23148454.47524   3664469.45224     -3429.52024        29.30024
E19  25779293.68324     76696.30824      2833.71224        25.70024  25779290.98514    -40851.65314      2108.24114        24.30014
R02  23013440.84324  -6027696.88324      4546.64724        25.70024
R14  24174485.76823  -2006561.75223     -4091.96423        21.10023
> 2026 04 21 14 03 53.9999889  0 35                      
G08  21075245.42807    114362.96007     -2293.43607        44.30007  21075249.92506    152764.28706     -1712.93706        38.80006
G17  25512924.78607    -83954.08107      3396.19707        42.30007                                                                
G02  20551964.28806     13564.85906        96.62906        40.70006                                                                
G14  23211734.96726    -44786.46026       870.46626        40.40026  23211739.76405     33351.82505       649.63705        34.80005
G01  21306787.13506    -99566.07306      2155.42006        40.20006  21306791.03205     -7839.00805      1611.25905        33.80005
G10  23004513.02406    149826.35206     -2784.22306        39.40006  23004516.02225    177441.24225     -2077.73725        33.60025
G22  24229053.69226    -82532.02726      1623.27026        37.20026                                                                
G27  23385818.75115    192859.83415     -3639.93015        33.60015  23385802.86215    208849.08315     -2711.82315        32.50015
G03  23659177.60923   -131466.52723      3787.01223        23.10023  23659172.81213    522443.11113      2826.01813        17.90013
G32  22415767.10415     34408.86115      1022.53015        34.40015  22415765.30514     19790.04914       766.12114        27.60014
R17  21256263.41207   4353970.36607      3076.63407        42.50007
E25  25924397.43007    -39393.81807       779.27707        42.60007  25924405.52425     66218.08125       582.39225        30.20025
C27  21416503.97926     -7423.36726       511.70126        39.70026  21416501.58115     61666.02415       375.43815        29.50015
E10  24647990.26826      4955.29326      1621.03726        40.00026  24647995.66405     27896.87805      1210.21005        35.00005
C30  24713577.66306    -63529.55906      2937.54906        39.60006  24713580.06105    -25146.43105      2192.92005        35.20005
R16  22847179.84306   -118538.13106      1442.44206        38.90006
C36  25862165.91226    118892.21226     -1056.56726        39.50026  25862178.50306    106570.32406      -786.83306        39.50006
R15  22266198.24826   2483272.40326     -2184.07726        37.90026
R08  20988353.58206   4316172.73006     -2165.23006        38.10006
R24  19403011.19106   2994811.33606      -208.48806        36.10006
C41  22984556.43925   -108093.78025      2130.23025        35.40025  22984568.73115    -14983.83115      1595.23915        30.20015
R01  19961072.45405   2476854.45205      2079.11005        34.20005
E12  23417231.90405     58883.85105       546.30505        34.20005  23417230.70514     37316.12914       403.72914        27.00014
C33  23066783.81415     57876.63615      -976.83615        33.40015  23066800.60325    106784.57025      -726.85525        29.50025
E11  25091580.877 5    161577.645 5      2398.187 5        32.200 5  25091587.47214    232856.82814      1790.89714        25.70014
E29  25958190.93505    -24421.74005       844.78605        32.50005  25958205.62504     48306.48904       628.07904        28.30004
E33  24873480.06505     92925.27405     -1848.32205        31.80005  24873473.16914    134124.86514     -1369.00314        25.80014
E07  27780305.81125    170411.56725     -1674.23225        31.70025  27780305.81114    489491.40414     -1247.50714        27.80014
C42  26875878.43315    158031.84715     -3201.87715        29.90015  26875916.80714    190526.39014     -2393.01814        24.30014
E16  25234072.83115     98557.56215     -1777.78615        32.50015  25234079.12714    485626.26814     -1331.28814        28.00014
R23  23149111.02124   3667894.80724     -3425.53824        29.30024
E19  25778778.04024     73864.13024      2840.75924        25.60024  25778779.53914    -42964.49514      2114.49214        24.50014
R02  23012666.77924  -6032249.66624      4556.31124        25.40024
R14  24175250.53923  -2002472.19523     -4087.61723        21.10023
C28  22431626.72525    104086.21425     -1884.39525        33.70025  22431625.52524    141891.71824     -1415.04824        27.30024
> 2026 04 21 14 03 54.9999873  0 34                      
G08  21075680.72607    116658.65407     -2296.59807        44.30007  21075683.12526    154479.40426     -1714.66626        38.10026
G14  23211566.18426    -45653.44926       863.91726        40.60026  23211572.77925     32705.07925       639.33925        34.80025
G02  20551938.20606     13474.13106        89.11606        40.60006                                                                
G17  25512269.14007    -87346.41007      3391.64007        42.00007                                                                
G01  21306372.52206   -101717.78906      2148.62906        40.20006  21306378.51825     -9446.68725      1607.04825        33.60025
G10  23005046.65416    152617.00116     -2793.58216        39.30016  23005047.25415    179523.66815     -2078.67315        32.90015
G22  24228750.60226    -84150.21826      1616.66026        37.20026                                                                
G32  22415575.53715     33387.57715      1022.13715        34.40015  22415567.14214     19032.87114       756.03514        27.80014
G03  23658453.61023   -135256.99423      3788.93223        23.00023  23658448.81313    519606.33813      2833.77813        17.90013
G27  23386501.97815    196498.96015     -3637.74215        33.40015  23386493.28425    211574.10225     -2728.19725        32.00025
R17  21255685.41207   4350895.75307      3073.78907        42.80007
E25  25924250.23207    -40170.61207       772.65507        42.60007  25924255.62825     65640.81325       567.41525        30.40025
C27  21416393.95626     -7929.41826       503.89426        39.70026  21416405.34824     61289.10924       379.03824        29.10024
R16  22846912.12806   -119977.33406      1436.93806        38.90006
E10  24647675.18606      3338.52106      1613.56906        39.90006  24647684.77925     26689.17025      1205.94525        34.40025
C30  24713010.45526    -66464.01526      2931.97126        39.50026  24713018.85015    -27336.60515      2187.48515        35.20015
R15  22266617.05806   2485461.53506     -2190.58006        38.20006
C36  25862367.07226    119950.95826     -1057.01626        39.30026  25862375.76606    107359.56306      -790.31606        39.50006
R08  20988738.51506   4318339.44406     -2167.04106        38.00006
C41  22984147.52226   -110222.66726      2126.53026        35.70026  22984159.21425    -16572.74825      1585.05425        30.50025
R24  19403034.27506   2995024.54406      -214.06906        36.10006
R01  19960666.83405   2474782.59705      2064.87205        34.30005
E12  23417118.88315     58341.02015       541.46615        34.20015  23417121.58124     36911.86924       408.11624        27.20024
C28  22431984.97715    105973.85515     -1888.85915        33.60015  22431981.37914    143303.54314     -1415.21514        27.90014
E11  25091132.387 5    159185.966 5      2388.633 5        32.600 5  25091130.88814    231072.76914      1788.69114        25.80014
C33  23066973.58315     58858.21415      -984.03815        33.30015  23066987.37415    107517.93215      -733.02815        29.50015
E29  25958043.73725    -25254.16625       827.56425        32.40025  25958033.54414     47685.54014       616.19214        28.10014
E33  24873833.82015     94777.30515     -1846.16215        31.70015  24873821.22814    135505.64714     -1371.02014        25.80014
E07  27780631.68515    172090.19315     -1677.22015        31.60015  27780628.68814    490746.18114     -1256.18314        27.60014
E16  25234408.29925    100342.95825     -1786.51425        32.00025  25234411.89714    486958.22814     -1332.75814        27.40014
C42  26876480.11715    161240.93015     -3217.74815        29.80015  26876513.09414    192923.33914     -2394.81714        23.60014
R23  23149754.97524   3671322.46424     -3428.31524        29.30024
E19  25778241.11224     71040.62324      2825.17724        25.60024  25778239.31314    -45073.99614      2109.33314        24.50014
R14  24176000.91923  -1998384.32523     -4088.03423        21.00023
> 2026 04 21 14 03 55.9999857  0 34                      
G08  21076098.03807    118953.67907     -2294.69507        44.10007  21076098.93706    156192.98306     -1713.31306        37.20006
G14  23211380.61226    -46521.60026       869.23326        41.20026  23211388.40715     32063.75515       646.61315        34.40015
G02  20551898.93306     13381.83006        92.83906        40.70006                                                                
G01  21305954.31116   -103868.41116      2150.57916        40.10016  21305947.41615    -11051.91015      1606.49615        33.40015
G17  25511605.10007    -90739.90707      3394.58607        41.70007                                                                
G10  23005558.70006    155408.41906     -2789.30606        39.30006  23005556.30115    181606.45015     -2081.46315        31.90015
G22  24228415.73326    -85771.94226      1623.24426        37.40026                                                                
G32  22415365.38215     32363.50015      1022.72415        34.40015  22415355.18914     18276.35614       760.68514        27.80014
G27  23387179.50925    200137.00425     -3639.50825        33.20025  23387165.41905    214297.66805     -2723.34305        31.70005
G03  23657726.31323   -139048.93923      3790.94023        22.90023  23657708.62613    516779.02813      2824.08213        18.00013
R16  22846616.83307   -121417.42607      1440.78807        44.30007
R17  21255091.22307   4347820.29907      3075.87907        43.00007
E25  25924081.74807    -40947.91007       778.55107        42.60007  25924085.64625     65066.44625       575.41825        30.40025
E16  25234721.88205    102128.06105     -1785.45905        34.30005  25234730.27605    488290.54805     -1334.00205        33.60005
C27  21416286.63026     -8435.62726       506.28926        39.70026  21416287.52914     60912.56714       371.85514        28.80014
E10  24647359.20516      1721.23516      1615.04616        39.80016  24647355.00805     25482.96505      1205.95505        34.10005
C30  24712432.45606    -69399.03506      2934.30706        39.40006  24712438.15205    -29527.50805      2188.77105        35.10005
E11  25090652.41906    156792.20006      2395.31206        38.40006  25090654.81804    229285.16504      1786.87904        26.50004
C36  25862546.34806    121006.50506     -1054.94906        39.10006  25862554.44306    108147.74406      -787.65306        39.70006
R15  22266988.80106   2487650.38706     -2185.96706        38.30006
R08  20989140.23706   4320507.72106     -2169.31106        37.90006
C41  22983731.71026   -112351.55026      2127.88526        36.00026  22983733.80905    -18161.77305      1586.58105        31.70005
R24  19403066.05306   2995238.45306      -215.26006        36.00006
E12  23416998.36605     57796.24905       544.24305        34.30005  23416996.86714     36508.49214       403.93614        27.20014
R01  19960275.90515   2472708.51315      2076.20015        34.30015
C28  22432330.63715    107855.20515     -1873.70815        33.60015  22432322.54314    144715.68714     -1411.30514        27.90014
C33  23067135.17115     59835.55915      -972.23015        33.20015  23067152.55914    108253.48014      -740.64314        29.00014
E29  25957835.08115    -26092.92715       840.43015        32.30015  25957864.16114     47062.82714       619.59714        27.90014
E07  27780918.88725    173770.56925     -1679.25325        31.50025  27780941.07114    491998.07114     -1244.94814        26.80014
E33  24874142.60605     96625.34205     -1851.54305        31.70005                                                                
R23  23150381.84124   3674744.78224     -3420.40424        29.30024
C42  26877074.90515    164450.79015     -3205.25215        29.80015  26877103.08513    195323.61413     -2400.44113        23.20013
E19  25777683.79724     68215.40124      2817.08324        25.50024  25777678.70124    -47182.55524      2110.59124        24.40024
R14  24176818.75323  -1994298.73623     -4086.45423        21.00023
> 2026 04 21 14 03 56.9999842  0 34                      
G08  21076558.81907    121249.92807     -2296.86307        43.90007  21076561.51726    157907.76426     -1715.38426        36.70026
G14  23211243.60727    -47388.32627       866.01527        41.90027  23211245.70625     31417.45325       645.29325        34.00025
G02  20551910.32506     13290.33206        91.84606        41.00006                                                                
G01  21305564.58106   -106019.48706      2149.80606        40.10006  21305563.68225    -12658.95625      1590.46125        33.40025
G17  25510988.42706    -94133.76506      3393.79406        41.40006                                                                
G22  24228134.82826    -87392.32526      1619.71526        37.90026                                                                
G32  22415202.59505     31340.79705      1022.76805        34.40005  22415193.00115     17519.84015       758.01715        29.60015
G27  23387896.31325    203771.28225     -3629.40125        33.00025  23387886.72025    217019.95625     -2721.65425        31.40025
G03  23657021.80123   -142840.63223      3792.57223        22.90023  23657006.51213    513952.42713      2826.25013        18.90013
G10  23006112.41606    158199.09806     -2791.06406        39.20006  23006109.11925    183691.12925     -2088.13125        31.40025
C36  25862769.09407    122063.33707     -1057.47507        42.40007  25862782.58506    108936.91706      -789.67106        41.00006
R16  22846377.29907   -122856.14507      1438.03407        45.10007
R17  21254545.30107   4344745.43607      3075.32307        43.10007
E25  25923961.23207    -41724.70507       776.54507        42.60007  25923963.63025     64486.99525       587.99325        30.90025
E16  25235093.02526    103913.13726     -1785.06626        40.60026  25235095.72306    489623.78306     -1333.19406        37.20006
C27  21416216.17906     -8941.68906       505.98906        40.10006  21416215.27924     60535.76324       375.43624        28.60024
C30  24711903.32206    -72333.72706      2935.03206        39.40006  24711906.02005    -31719.12605      2192.98005        35.30005
E10  24647075.00206       103.80006      1617.01206        39.70006  24647073.50325     24274.64225      1212.38425        33.90025
E11  25090224.31606    154399.31606      2392.44706        38.60006  25090224.01624    227498.13524      1789.74524        27.10024
R15  22267431.29506   2489843.04606     -2194.06506        38.30006
R08  20989561.14606   4322676.86506     -2169.58106        37.80006
C41  22983347.37606   -114479.46806      2127.93906        36.30006  22983353.67215    -19750.40515      1589.43815        31.70015
R24  19403133.80706   2995453.00006      -215.36606        36.10006
E12  23416922.81805     57252.52505       543.70005        34.80005  23416920.72024     36102.83424       404.79924        27.60024
R01  19959900.26515   2470634.63615      2076.77815        34.30015
C33  23067334.83325     60809.85425      -979.77125        33.10025  23067366.61114    108984.14914      -728.73014        28.40014
E29  25957725.95725    -26927.83825       836.48825        32.20025  25957731.95314     46441.73614       623.28114        27.90014
E33  24874537.43325     98475.08425     -1848.09825        31.60025  24874552.12214   3907151.37114     -1383.49514        23.90014
E07  27781260.65005    175452.47505     -1683.67405        31.40005  27781286.73214    493247.24414     -1239.31714        25.70014
R23  23151010.50624   3678165.30724     -3419.38424        29.30024
C42  26877713.76315    167663.14415     -3210.10615        29.70015  26877742.24313    197723.47513     -2395.65913        22.90013
E19  25777177.14824     65390.82524      2821.75724        25.50024  25777169.65324    -49291.98224      2107.36424        24.30024
R14  24177638.68623  -1990209.09023     -4088.68123        21.10023
C28  22432710.77415    109741.75115     -1884.64615        33.50015  22432707.77614    146124.94714     -1413.82114        27.60014
> 2026 04 21 14 03 57.9999826  0 34                      
G08  21076971.93307    123543.78407     -2292.66507        43.80007  21076976.729 6    159620.787 6     -1716.648 6        36.400 6
G14  23211055.33727    -48254.81527       868.62227        42.00027  23211058.93506     30768.62906       650.58606        37.60006
G02  20551871.05206     13195.44906        96.32606        41.20006                                                                
G01  21305134.37906   -108174.29606      2158.67906        40.00006  21305131.38105    -14268.90105      1612.39605        34.70005
G17  25510321.08906    -97529.30006      3397.12806        41.00006                                                                
G10  23006617.86606    160987.73306     -2786.86806        39.10006  23006618.46605    185773.47805     -2082.18705        31.30005
G22  24227802.35826    -89013.68926      1622.60626        38.00026                                                                
G32  22414985.84515     30314.33715      1030.58915        34.40015  22414977.45125     16754.21425       772.18325        29.50025
G27  23388570.24625    207400.72625     -3631.53225        32.80025  23388558.55425    219740.56325     -2710.77025        31.00025
G03  23656266.02423   -146631.57123      3792.06923        23.10023  23656260.02913    511129.60613      2823.93713        19.30013
R16  22846082.60307   -124297.30407      1442.38207        45.40007
R17  21253940.91907   4341668.07907      3077.60807        43.10007
C36  25862951.96807    123117.62207     -1053.01307        43.50007  25862961.56106    109724.19606      -786.33306        41.10006
E25  25923790.65027    -42503.45527       778.22927        42.50027  25923792.74805     63905.95705       579.83205        31.90005
E16  25235406.30806    105696.32906     -1782.25306        40.70006  25235412.60406    490955.34706     -1330.73106        38.60006
C27  21416094.16306     -9450.15406       509.66706        40.30006  21416096.861 4     60156.201 4       380.442 4        29.000 4
E10  24646740.13306     -1515.54906      1620.80906        39.60006  24646743.13105     23065.46005      1210.11305        34.60005
R15  22267819.82606   2492029.46506     -2183.80306        38.50006
C30  24711320.22626    -75271.12526      2935.75526        39.30026  24711325.62206    -33912.70406      2194.56106        36.70006
E11  25089754.24106    152003.31406      2399.06406        38.50006  25089745.84704    225709.30704      1791.72904        27.80004
R08  20989946.97906   4324843.21906     -2163.46306        37.70006
C41  22982917.47406   -116610.08506      2131.96906        36.50006  22982925.56815    -21340.78615      1598.75815        31.70015
R24  19403151.19506   2995664.29306      -210.91606        36.50006
E12  23416798.10505     56706.20205       546.12505        35.00005  23416790.91014     35694.81514       408.20114        27.80014
R01  19959497.64415   2468560.71515      2072.19615        34.20015
C33  23067510.81125     61780.70525      -964.13225        33.10025  23067530.29824    109715.28624      -730.87324        28.80024
C28  22433042.34515    111620.62115     -1884.53615        33.40015  22433040.54614    147533.15714     -1416.18614        27.10014
E29  25957529.59305    -27775.25705       845.17305        32.00005  25957550.57814     45815.85914       626.27014        27.90014
E07  27781557.74425    177127.89925     -1676.68525        31.40025  27781560.44314    494495.93114     -1236.94514        25.00014
R23  23151656.25825   3681581.21325     -3418.10325        29.50025
C42  26878320.84215    170871.90815     -3206.97415        29.50015  26878323.54013    200113.76913     -2391.51413        22.60013
E19  25776614.43824     62562.24924      2824.58124        25.40024  25776609.34114    -51402.92814      2110.70914        24.20014
R14  24178276.34423  -1986119.13623     -4088.61623        21.10023
E33  24874867.20405    100318.46605     -1834.70505        31.50005  24874872.00113   3908530.31513     -1377.99313        23.40013
> 2026 04 21 14 03 58.9999812  0 34                      
G08  21077436.61107    125866.80407     -2337.60407        43.70007  21077439.30906    161355.93806     -1744.71706        36.30006
G14  23210913.83527    -49094.77927       826.70127        42.00027  23210919.83106     30140.43806       617.87406        38.70006
G02  20551877.34806     13129.46506        51.53406        41.40006                                                                
G01  21304744.94906   -110299.21406      2110.22606        39.90006  21304746.74725    -15857.56425      1579.52525        35.40025
G22  24227522.35226    -90608.68526      1583.81526        38.00026                                                                
G32  22414810.76615     29316.71015       983.96315        34.40015  22414805.37014     16004.30514       760.55114        29.20014
G17  25509704.41606   -100895.80506      3350.99506        40.50006                                                                
G27  23389268.76325    211061.17325     -3670.95325        32.50025  23389278.35625    222479.77825     -2757.52425        30.30025
G03  23655580.09924   -150393.73624      3751.03324        23.80024  23655563.61116    508322.88916      2803.66816        38.00016
G10  23007171.88306    163799.47306     -2823.54506        39.00006  23007172.18315    187875.29515     -2111.05415        31.30015
R16  22845841.86907   -125710.74607      1400.33407        45.60007
E07  27781902.50606    178827.86106     -1712.23506        37.20006  27781906.70316    495764.80416     -1277.96916        39.60016
R17  21253398.59507   4338620.34507      3034.67707        43.10007
E25  25923665.33707    -43253.49007       736.17707        42.40007  25923668.03525     63344.60825       551.50625        31.90025
C36  25863173.81427    124202.79027     -1097.61127        43.40027  25863187.30506    110532.56006      -818.90806        41.10006
C27  21416028.80806     -9930.10106       465.68906        40.40006  21416025.81005     59797.74905       348.39605        29.80005
E16  25235776.25206    107510.88706     -1830.24306        40.70006  25235778.05106    492310.32806     -1366.69006        38.30006
E10  24646457.72906     -3105.94306      1577.41806        39.50006  24646459.82805     21876.62005      1178.17105        35.00005
R15  22268257.82206   2494246.82506     -2232.83406        39.00006
C30  24710786.59526    -78180.74526      2895.23626        39.20026  24710792.29106    -36085.29006      2162.09306        36.90006
R08  20990374.78306   4327034.15606     -2203.73206        37.60006
E11  25089315.04526    149638.02026      2347.94326        38.40026  25089317.44424    223943.29924      1750.60124        29.10024
R24  19403216.54906   2995903.96706      -253.36506        36.70006
C41  22982546.63116   -118713.72416      2088.65416        36.60016  22982546.93025    -22912.33425      1558.13325        31.60025
E12  23416717.16125     56188.33425       504.14025        35.10025  23416715.06224     35306.80224       372.51024        28.50024
R01  19959141.79005   2466510.54105      2036.30205        34.20005
C33  23067716.76925     62781.33125     -1013.51425        33.00025  23067741.35214    110465.61014      -759.91814        29.10014
C28  22433429.67615    113526.29315     -1916.57415        33.20015  22433426.07914    148965.05014     -1449.23614        26.60014
E29  25957401.28225    -28590.25725       804.29325        32.00025  25957415.67214     45213.12414       591.66514        28.80014
E33  24875232.95125    102188.20925     -1881.92725        31.40025  24875240.14614   3909929.82314     -1398.50914        24.60014
R23  23152328.69325   3685030.94925     -3462.90425        29.70025
C42  26878922.22614    174103.58714     -3242.14114        29.40014  26878955.50313    202522.51713     -2414.97813        22.40013
R14  24179007.53823  -1982013.50523     -4122.47323        21.40023
E19                                                                  25776097.29614    -53493.37214      2080.69714        23.70014
> 2026 04 21 14 03 59.9999797  0 33                      
G32  22414605.10806     28321.80606       994.54306        40.60006  22414606.00824     15261.58224       735.63124        29.00024
G08  21077871.61017    128185.41417     -2321.65917        43.50017  21077871.01006    163090.69006     -1734.55506        36.20006
G14  23210745.95227    -49927.70527       829.90827        42.00027  23210749.24906     29517.23706       620.70706        38.90006
G02  20551856.06307     13063.82707        65.46507        41.60007                                                                
G10  23007694.72106    166606.25706     -2803.56206        39.90006  23007694.72105    189971.14305     -2097.36605        33.00005
G01  21304330.03606   -112419.61906      2117.90106        39.90006  21304332.73425    -17441.57925      1590.69225        35.40025
G22  24227212.66626    -92198.07926      1585.84526        38.10026                                                                
G17  25509063.75926   -104257.14926      3359.76826        39.50026                                                                
G27  23389980.17025    214721.76125     -3664.16425        32.30025  23389966.68015    225217.57915     -2732.09815        29.60015
G03  23654842.31025   -154148.05025      3750.64425        31.30025  23654839.91206    505520.46506      2798.28306        38.00006
R16  22845563.96207   -127121.00407      1409.16907        45.50007
E29  25957229.20106    -29408.28306       814.04006        38.60006  25957229.50114     44605.48114       605.59814        28.80014
R24  19403250.12606   2996142.35706      -237.74906        39.10006
R17  21252819.99507   4335577.45107      3039.22807        43.10007
E25  25923522.33607    -43998.14507       743.46807        42.30007  25923517.23905     62788.95705       555.80205        32.50005
C33  23067886.45106     63780.61706      -999.61806        41.10006  23067918.52906    111211.89406      -744.26506        39.80006
E33  24875583.10906    104055.09406     -1866.45806        36.20006  24875579.21124   3911325.03124     -1396.56124        26.30024
C27  21415919.68406    -10409.17206       478.63406        40.50006  21415925.38025     59441.50025       352.14925        29.90025
C36  25863375.57427    125292.06627     -1093.83227        43.10027  25863384.86826    111346.37326      -816.53926        40.30026
E16  25236115.91706    109330.78506     -1821.07106        40.60006  25236113.81906    493669.43806     -1361.17806        38.10006
E10  24646148.34306     -4691.45206      1582.56906        39.40006  24646150.14215     20691.41415      1181.89015        33.50015
E07  27782218.18726    180524.83326     -1696.47826        41.40026  27782220.28606    497031.90306     -1268.21306        39.60006
R15  22268663.74116   2496470.27016     -2224.99016        39.20016
R08  20990768.41006   4329222.65306     -2185.77906        37.60006
E11  25088857.86206    147279.71106      2353.82106        38.20006  25088858.46105    222182.80405      1757.24005        31.00005
C41  22982128.42026   -120819.42426      2107.23326        36.60026  22982138.31305    -24482.60805      1568.64005        31.60005
E12  23416601.74105     55671.49905       516.32105        35.10005  23416608.63604     34920.30204       380.24504        28.50004
R01  19958736.77115   2464462.01915      2045.45115        34.10015
C28  22433780.73315    115436.47615     -1910.94315        33.10015  22433785.83014    150394.87514     -1434.79514        26.10014
R23  23152951.06225   3688480.64225     -3450.42825        29.90025
C42  26879534.70214    177335.41814     -3230.91314        29.30014  26879557.48613    204931.68213     -2405.37813        22.20013
R14  24179767.81223  -1977908.55323     -4101.86923        22.20023
C30  24710231.37926    -81082.32626      2901.06426        39.20026  24710229.58126    -38252.57826      2164.64326        36.50026
> 2026 04 21 14 04 00.9999781  0 33                      
G10  23008238.54508    169413.69608     -2808.01908        48.60008  23008237.34505    192067.40605     -2094.97505        34.20005
G32  22414420.43607     27326.76607       993.86007        43.20007  22414423.734 5     14518.832 5       741.766 5        30.600 5
G02  20551851.26607     13000.59707        62.77507        41.90007                                                                
G14  23210599.35327    -50755.62927       825.92627        41.90027  23210600.85206     28898.90606       615.89806        39.50006
G22  24226917.37126    -93782.55326      1582.01726        38.30026                                                                
G08  21078315.30307    130508.09107     -2323.71407        43.00007  21078322.19826    164825.81226     -1735.30926        36.20026
G17  25508429.99826   -107617.60426      3362.01626        38.40026                                                                
G03  23654135.10025   -157899.22825      3746.86425        31.80025  23654134.50006    502720.62506      2798.55206        37.90006
G27  23390690.67825    218385.11625     -3661.74425        32.10025  23390672.99114    227956.45114     -2732.91214        29.00014
G01  21303939.40606   -114535.61906      2112.30006        39.90006  21303940.00625    -19021.78625      1575.30625        35.30025
R24  19403299.29207   2996382.60207      -241.17207        44.20007
C28  22434150.67705    117346.42905     -1910.34005        35.00005  22434153.07626    151821.50926     -1422.04026        35.60026
R17  21252262.08207   4332539.81607      3034.51107        43.10007
E25  25923383.83127    -44736.52227       736.23927        42.20027  25923385.03105     62237.26205       548.71805        33.50005
C27  21415840.53906    -10885.48306       474.93206        40.70006  21415842.93705     59085.39505       355.53205        30.90005
E33  24875944.05906    105921.69106     -1867.95606        40.80006  24875944.35924   3912720.46724     -1394.55124        27.60024
E29  25957079.00526    -30227.03726       820.61926        41.20026  25957078.10514     43996.86914       616.59914        28.70014
C33  23068090.91026     64779.88026      -999.25326        41.10026  23068118.19106    111958.41206      -746.63706        40.40006
R23  23153599.21326   3691927.76826     -3445.84726        40.80026
C36  25863589.62627    126387.66627     -1099.76327        42.70027  25863602.21716    112164.65516      -822.01716        39.10016
E16  25236468.17326    111154.04226     -1825.44026        40.50026  25236469.97206    495031.77306     -1363.94906        38.10006
E10  24645853.64706     -6274.20106      1579.87206        39.40006  24645856.34505     19511.02105      1179.98905        32.00005
R15  22269079.25406   2498697.73606     -2232.22906        39.20006
C30  24709684.25826    -83978.96426      2894.67226        39.10026  24709688.15526    -40415.61326      2154.91126        35.70026
E07  27782549.75806    182224.74406     -1702.38406        41.20006  27782551.85606    498300.58706     -1269.47806        40.00006
R16  22845317.53207   -128524.58907      1400.75107        45.10007
R08  20991189.01906   4331412.06406     -2191.87106        37.70006
E11  25088424.36216    144926.64416      2353.94916        38.00016  25088418.06625    220426.31325      1754.99325        31.60025
C41  22981730.89516   -122923.88916      2097.85116        36.60016  22981746.78425    -26054.55725      1573.28925        31.60025
E12  23416518.69825     55157.92425       510.44425        35.10025  23416516.30014     34525.61214       414.78614        28.10014
R01  19958361.73015   2462414.49115      2048.78415        34.10015
R14  24180573.95424  -1973802.85524     -4103.82724        28.50024
C42  26880173.56014    180570.13314     -3238.16114        29.10014  26880170.26213    207333.79313     -2401.58713        21.90013
> 2026 04 21 14 04 01.9999766  0 33                      
G10  23008750.59008    172222.75008     -2809.86808        48.50008  23008750.29007    194165.12007     -2098.44207        41.60007
G32  22414207.28407     26331.17907       995.36307        43.30007  22414212.38015     13777.76315       741.72915        30.60015
G02  20551816.79007     12939.44307        59.86707        42.00007                                                                
G14  23210422.17627    -51581.73027       822.68927        41.90027  23210421.57606     28283.84106       613.43206        39.50006
G01  21303525.69316   -116652.82316      2123.56116        39.90016  21303514.00125    -20598.05225      1572.79825        35.20025
G22  24226594.19426    -95362.87026      1578.24126        38.60026                                                                
G08  21078750.30107    132829.92707     -2321.17007        42.10007  21078742.20706    166561.34006     -1737.23406        35.80006
G17  25507779.14926   -110977.29326      3359.31126        37.40026                                                                
G03  23653390.11525   -161654.90225      3753.42925        31.70025  23653398.51006    499921.60506      2798.61406        37.70006
G27  23391359.21625    222051.90025     -3670.00525        31.80025  23391351.72114    230692.35314     -2744.42214        28.60014
C28  22434491.24107    119257.34107     -1911.39407        43.70007  22434494.53905    153248.24505     -1426.78805        35.40005
R24  19403326.57307   2996624.78807      -243.90807        44.20007
R17  21251674.18907   4329505.47307      3032.95107        43.10007
E33  24876272.03207    107789.24707     -1867.53807        41.50007  24876278.32724   3914118.72724     -1405.67524        27.60024
C33  23068259.99306     65780.90006     -1001.89906        41.30006  23068286.07406    112705.97306      -748.08306        40.30006
R23  23154213.48826   3695375.59226     -3448.17826        41.30026
E25  25923221.34407    -45471.38507       732.60807        42.00007  25923224.04205     61688.41205       547.43005        34.00005
C27  21415732.61326    -11359.83326       474.86926        40.80026  21415730.51505     58731.31405       353.57005        31.50005
E29  25956903.32606    -31044.11806       817.74506        41.10006  25956903.92605     43385.74305       616.38305        29.50005
E07  27782848.35106    183926.51306     -1702.20106        40.80006  27782854.34706    499571.32306     -1271.76506        40.60006
E16  25236796.14606    112977.12006     -1827.49006        40.30006  25236794.94706    496395.85206     -1364.95306        37.20006
E10  24645528.67226     -7853.38626      1582.40526        39.40026  24645532.27015     18332.28315      1175.91215        31.90015
C30  24709101.16226    -86872.31526      2891.21226        39.00026  24709114.65205    -42575.96605      2161.01605        35.10005
R15  22269497.46416   2500926.60816     -2231.82916        39.10016
R08  20991591.04106   4333604.12406     -2192.13806        37.80006
R16  22845030.33107   -129927.02307      1402.36007        44.10007
C41  22981322.87816   -125030.53316      2108.23716        36.50016  22981325.27605    -27624.08905      1571.32605        31.50005
E12  23416398.48105     54646.49405       510.86005        35.20005  23416393.68514     34143.08914       401.94014        27.50014
R01  19957953.41305   2460367.44005      2048.06505        34.00005
C36  25863782.39327    127486.34127     -1102.71627        41.50027  25863788.68826    112986.54626      -827.69726        38.10026
E11  25087960.58306    142575.72206      2353.35406        37.10006  25087947.392 5    218671.118 5      1748.549 5        31.600 5
R14  24181278.76624  -1969695.88124     -4106.86924        28.90024
C42  26880752.75914    183805.07214     -3240.55714        28.90014  26880757.55513    209746.05713     -2412.34413        21.70013
> 2026 04 21 14 04 02.9999751  0 34                      
G10  23009290.51608    175035.59008     -2814.73608        48.30008  23009294.41407    196265.64307     -2101.93207        41.60007
G32  22414027.40807     25340.36107       988.68507        44.10007  22414030.106 5     13037.664 5       737.615 5        30.600 5
G02  20551812.59307     12882.54007        54.77807        42.10007                                                                
G14  23210273.17927    -52402.03627       818.16027        41.80027  23210272.57906     27671.75006       610.60406        39.10006
G01  21303119.77406   -118762.69206      2105.95406        39.80006  21303121.57206    -22173.72006      1574.37206        35.60006
G22  24226301.29726    -96939.27926      1574.45626        39.10026                                                                
G08  21079190.99606    135158.52606     -2330.48406        41.10006  21079192.19605    168300.66305     -1740.72405        35.30005
G17  25507146.88626   -114333.71826      3358.29926        36.50026                                                                
G27  23392061.62925    225722.02025     -3670.79525        31.60025  23392057.73214    233428.77514     -2726.68514        28.10014
G03  23652696.09625   -165406.91925      3756.44525        31.40025  23652694.89706    497125.54206      2794.58806        37.10006
C28  22434862.68407    121172.44407     -1917.20207        44.10007  22434867.18125    154678.13025     -1431.46325        35.00025
R17  21251109.68007   4326475.17607      3028.27807        43.30007
R24  19403384.13307   2996869.84507      -247.74307        44.00007
E33  24876637.17907    109660.72207     -1873.43707        42.30007  24876642.27624   3915516.58824     -1395.66324        28.90024
C33  23068456.05707     66786.36607     -1007.69107        42.20007  23068486.03626    113457.70526      -753.82026        40.00026
E25  25923088.23607    -46202.42907       729.13407        41.90007  25923093.33305     61142.70505       544.13505        34.50005
C27  21415651.66906    -11829.72806       468.67006        40.80006  21415648.97105     58380.29305       349.49105        32.30005
E07  27783183.21906    185632.04106     -1707.40906        40.60006  27783186.81706    500844.85806     -1274.93506        40.60006
R23  23154870.333 6   3698829.134 6     -3454.156 6        41.200 6
E29  25956754.03026    -31855.20026       810.58326        40.90026  25956755.52906     42778.26906       603.65006        36.20006
E10  24645235.17506     -9428.62506      1571.76806        39.40006  24645241.77105     17156.36505      1175.01005        33.60005
C30  24708566.03226    -89762.86326      2889.15226        39.00026  24708572.92805    -44733.82605      2156.61605        34.80005
R15  22269923.17006   2503161.82806     -2238.14606        39.10006
R16  22844779.40507   -131324.51507      1394.02407        43.00007
R08  20992001.75606   4335799.99106     -2198.02406        37.80006
C41  22980927.75126   -127130.58526      2104.75826        36.40026  22980935.24615    -29189.54515      1568.42015        31.40015
E12  23416307.64405     54139.02405       505.49005        35.40005  23416302.84714     33761.03814       406.31514        27.20014
R01  19957585.26805   2458326.59605      2037.24405        34.40005
E16  25237168.48826    153920.26526     -1826.74026        39.30026  25237152.30016    497759.13116     -1359.88116        35.70016
E11  25087521.98716    140227.34616      2345.60516        36.00016  25087509.99505    216919.19505      1752.28905        32.40005
C42  26881376.32714    187045.34914     -3240.95114        28.80014  26881377.82613    212156.39613     -2412.38013        21.40013
R14  24182136.47224  -1965580.57124     -4123.73424        28.80024
R02  23005024.76923-102392826.28723      4528.09923        22.80023
C36  25863998.24326    128587.56226     -1099.99426        39.90026  25864006.33806    113810.68406      -825.26406        37.40006
> 2026 04 21 14 04 03.9999736  0 35                      
G10  23009819.05008    177848.83008     -2813.44508        48.00008  23009819.95007    198366.49207     -2101.01407        41.70007
G32  22413829.24507     24350.15007       989.90807        44.60007  22413830.14525     12298.88025       740.12825        31.00025
G02  20551790.40807     12826.19107        56.07107        42.20007                                                                
G14  23210107.99327    -53221.29127       818.73027        41.70027  23210107.69326     27059.81126       614.86526        38.50026
G01  21302709.05806   -120871.92706      2107.67206        40.00006  21302710.55706    -23748.34006      1574.59806        35.80006
G22  24225991.31226    -98514.99026      1575.36426        39.60026                                                                
G08  21079622.39816    137488.02116     -2331.19716        40.30016  21079626.29505    170040.42305     -1739.98205        34.90005
G17  25506496.63626   -117685.58726      3349.09426        35.80026                                                                
G03  23651983.48925   -169154.08625      3743.24725        31.10025  23651971.79726    494327.18926      2798.00326        36.40026
G27  23392744.55725    229396.92125     -3677.54625        31.40025  23392745.75614    236166.47114     -2727.33814        27.70014
C28  22435217.33907    123087.81107     -1915.50207        44.10007  22435220.33705    156108.72205     -1430.94605        34.80005
R17  21250535.27707   4323445.03107      3030.07407        43.50007
R24  19403412.91307   2997116.91807      -247.58007        43.90007
E33  24876983.14007    111533.24607     -1871.55207        42.40007  24876986.13724   3916914.72524     -1395.27824        29.10024
C33  23068635.33307     67792.32807     -1006.21107        42.30007  23068667.111 6    114208.914 6      -753.948 6        39.800 6
E25  25922944.03607    -46932.84707       730.10707        41.80007  25922944.33625     60597.61725       544.77925        34.50025
C27  21415542.24506    -12299.16606       468.71006        40.90006  21415548.84105     58029.73905       350.32105        32.50005
R23  23155507.69206   3702281.02706     -3452.57406        41.00006
E07  27783493.50426    187337.99626     -1706.17126        40.50026  27783501.59906    502118.94006     -1274.35806        40.50006
E10  24644929.38706    -11002.43306      1574.59506        39.30006  24644932.08505     15980.64205      1175.62705        34.40005
R16  22844502.69607   -132719.62407      1394.16907        42.30007
R15  22270327.29016   2505398.93816     -2239.30916        39.00016
E29  25956594.54016    -32662.47816       801.37816        40.60016  25956591.84206     42171.25206       606.79006        36.20006
R08  20992391.78606   4337997.04906     -2196.15706        38.00006
E12  23416201.21806     53631.78506       507.12506        35.60006  23416193.72314     33379.04414       403.46514        27.00014
R01  19957189.54205   2456286.41305      2039.85605        34.90005
C36  25864211.39626    129691.39326     -1108.64026        38.60026  25864208.09826    114636.18426      -828.68126        36.80026
E11  25087053.41105    137880.00205      2348.33205        35.20005  25087053.41105    215167.28705      1751.90405        32.80005
E16  25237501.25826    155742.85226     -1822.27526        37.80026  25237491.96405    499126.56505     -1367.51405        34.60005
C41  22980513.43816   -129228.64716      2093.07216        36.00016  22980523.33115    -30755.48515      1573.18515        31.30015
C42  26881972.01514    190282.43114     -3238.48914        28.60014  26881983.40713    214569.90413     -2408.59713        21.20013
R14  24182909.33724  -1961465.85224     -4119.92924        28.50024
E19  25773405.15923    182601.03723      2797.74623        23.20023                                                                
R02  23004174.55823-102397358.45123      4529.77223        22.80023
C30  24708015.01416    -92655.17416      2888.69716        38.90016  24708011.11605    -46891.31205      2157.30305        34.60005
> 2026 04 21 14 04 04.9999721  0 35                      
G10  23010362.57408    180663.40808     -2815.25008        47.80008  23010363.77307    200468.27307     -2102.25107        41.90007
G32  22413648.77007     23361.94507       987.20307        44.80007  22413650.569 5     11561.353 5       740.899 5        31.000 5
G02  20551790.40807     12770.94907        54.68907        42.30007                                                                
G01  21302315.13106   -122979.50406      2107.00006        40.30006  21302315.73006    -25322.06606      1573.28206        36.00006
G22  24225704.41026   -100089.72426      1574.24826        40.00026                                                                
G08  21080073.58506    139818.15006     -2332.44906        39.70006  21080076.88305    171781.65405     -1741.96905        34.60005
G17  25505863.77525   -121037.12825      3350.38325        35.20025                                                                
G27  23393443.37325    233071.74625     -3676.29225        31.30025  23393452.36704    238910.06404     -2745.04504        27.60004
G03  23651283.47425   -172908.92825      3753.43525        30.90025  23651267.58506    491532.80306      2800.40706        35.60006
G14  23209953.30027    -54039.58127       817.06027        41.70027  23209960.79506     26449.01606       609.22306        38.00006
C28  22435591.18007    125004.90307     -1917.95707        44.10007  22435593.87805    157540.28005     -1432.04305        34.50005
R17  21249974.36507   4320415.69507      3028.93507        43.70007
R24  19403474.97007   2997365.57907      -249.45607        43.70007
E33  24877352.78427    113406.34827     -1873.89327        42.40027  24877348.28724   3918312.68524     -1398.87324        29.10024
C33  23068837.09327     68800.28927     -1010.46327        42.30027  23068866.47306    114961.57006      -752.38106        39.20006
E25  25922808.53007    -47662.12607       728.71007        41.70007  25922813.92605     60052.68805       544.85105        34.40005
C27  21415467.59706    -12767.36406       467.57906        41.00006  21415467.89705     57680.06805       349.23005        32.70005
R01  19956816.30006   2454248.12706      2037.34006        40.00006
E07  27783835.26806    189045.64206     -1706.99406        40.30006  27783834.96806    503393.82106     -1275.28206        40.00006
E10  24644642.48606    -12575.85506      1572.73206        39.30006  24644640.38705     14805.71405      1174.53305        35.20005
R16  22844250.87107   -134113.45107      1393.18907        41.80007
R23  23156163.63806   3705735.92906     -3454.66206        40.80006
R15  22270744.00116   2507633.93516     -2231.94416        38.90016
E29  25956446.14326    -33473.58426       809.52026        40.30026  25956446.14306     41565.63406       604.91906        36.10006
R08  20992820.48906   4340196.08506     -2197.52706        38.00006
E12  23416120.27406     53125.79606       505.36406        35.60006  23416105.88414     32989.22814       402.22914        26.70014
C41  22980124.30805   -131324.25905      2094.88905        35.40005  22980131.50325    -32320.82725      1562.04525        31.30025
C36  25864402.36326    130794.59826     -1103.39326        37.60026  25864426.34706    115462.21106      -834.29306        36.40006
E11  25086636.10015    135530.99115      2346.34815        34.60015  25086616.01405    213416.17505      1750.71705        34.20005
E16  25237854.11426    157568.23026     -1831.76326        36.60026  25237847.81825    500495.43625     -1367.59225        33.70025
C30  24707469.69116    -95547.52716      2890.87816        38.50016  24707470.89005    -49048.31205      2156.75905        34.90005
E19  25772873.32824    179801.49424      2801.51924        25.80024                                                                
R14  24183665.41324  -1957345.34724     -4112.90524        28.20024
R02  23003297.66523-102401880.25023      4525.30623        22.90023
C42  26882595.88314    193520.65114     -3239.29414        28.40014  26882605.47613    216979.10513     -2412.05013        21.00013
> 2026 04 21 14 04 05.9999707  0 35                      
G10  23010919.58808    183480.12508     -2817.79008        47.60008  23010919.88807    202571.60907     -2104.11607        42.10007
G32  22413479.38807     22376.31707       985.09107        44.80007  22413483.58525     10826.84025       734.50825        30.90025
G02  20551800.30107     12718.03807        51.74607        42.40007                                                                
G14  23209824.68927    -54855.39427       814.82527        41.60027  23209822.89126     25839.97126       609.67226        37.60026
G22  24225420.80726   -101662.40626      1571.65926        40.30026                                                                
G08  21080537.66406    142151.05506     -2331.29606        39.20006  21080542.46105    173524.77005     -1744.06105        34.40005
G17  25505235.41025   -124388.18225      3351.06425        34.60025                                                                
G27  23394174.56725    236749.49025     -3675.70925        31.20025  23394170.96924    241655.97024     -2749.06624        28.90024
G01  21301935.89306   -125085.60306      2104.61306        40.60006  21301935.29406    -26894.41006      1571.65406        36.10006
G03  23650598.14825   -176662.36925      3755.24625        30.60025  23650576.86315    488737.73015      2789.92115        35.00015
R17  21249432.34107   4317388.29707      3026.43307        43.80007
C28  22435976.11427    126924.09927     -1920.25127        44.00027  22435978.81205    158973.76805     -1434.45605        34.30005
R24  19403537.92707   2997616.94107      -252.71407        43.50007
E33  24877723.32707    115281.55707     -1876.26707        42.30007  24877727.82425   3919711.58725     -1393.37625        30.00025
C33  23069050.24507     69810.61907     -1011.01507        42.30007  23069079.32506    115715.99606      -755.31306        38.50006
C27  21415396.54606    -13233.27906       464.77306        41.10006  21415398.94405     57332.13505       347.06405        33.10005
E25  25922691.91007    -48389.38207       726.24607        41.60007  25922692.81015     59509.40315       545.46515        34.00015
R16  22844012.53606   -135505.13006      1390.60606        41.40006
R01  19956460.14706   2452213.02906      2033.50706        40.00006
E10  24644357.38326    -14147.42426      1570.64426        39.30026  24644361.28006     13632.18706      1172.82706        35.70006
E07  27784173.73306    190754.89406     -1710.55706        40.20006  27784179.72906    504670.29806     -1277.27806        39.30006
R23  23156830.67606   3709192.71606     -3456.73306        40.50006
E29  25956317.53206    -34282.26706       808.97306        40.00006  25956312.43506     40961.85106       602.86706        36.00006
R15  22271183.79716   2509874.86516     -2245.14916        38.80016
R08  20993263.28306   4342399.58906     -2208.99206        37.90006
E12  23416040.22906     52621.93106       502.80506        35.90006  23416030.93614     32606.12514       394.24614        26.40014
C36  25864651.49126    131900.70526     -1107.05826        36.80026  25864656.28806    116289.35706      -824.70506        36.10006
C30  24706939.05926    -98436.70726      2885.59726        37.70026  24706941.45706    -51204.24606      2155.40506        35.50006
E11  25086189.10915    133187.90115      2342.63215        34.20015  25086190.00905    211666.21205      1749.39005        35.40005
E16  25238225.55716    159396.51816     -1830.29016        35.70016  25238213.56505    501865.07505     -1369.52405        33.00005
C42  26883232.94214    196763.34314     -3239.93214        28.20014  26883236.23913    219392.79613     -2408.94013        20.80013
R14  24184448.47124  -1953217.00524     -4135.01624        27.80024
R02  23002492.72223-102406397.06523      4517.07923        23.20023
C41  22979739.97425   -133416.92925      2097.20225        34.90025  22979753.76405    -33883.56505      1564.43805        31.30005
E19  25772360.38324    177002.14124      2799.35724        29.30024                                                                
> 2026 04 21 14 04 06.9999692  0 35                      
G10  23011431.03407    186300.09507     -2821.60207        47.40007  23011428.03607    204677.44707     -2107.09207        42.20007
G32  22413265.63607     21394.21407       980.09207        44.90007  22413268.034 5     10092.752 5       732.876 5        31.600 5
G02  20551764.32607     12667.45607        49.41707        42.50007                                                                
G14  23209644.21427    -55668.73427       812.10527        41.50027  23209641.21606     25232.40006       606.33506        37.20006
G01  21301502.99306   -127190.78206      2104.22206        40.60006  21301506.59026    -28465.66326      1570.71026        36.30026
G22  24225093.43326   -103232.67826      1569.06926        40.30026                                                                
G08  21080954.97506    144487.07206     -2339.07806        38.80006  21080959.17225    175270.01025     -1747.80525        34.30025
G17  25504580.06325   -127735.37625      3345.26925        34.20025                                                                
G27  23394839.50625    240427.59425     -3680.04125        31.10025  23394841.60525    244403.39725     -2752.69225        29.80025
G03  23649849.86625   -180408.05625      3746.06525        30.40025  23649837.57505    485945.19405      2789.27205        34.50005
R17  21248840.25107   4314362.71907      3024.67407        43.90007
C28  22436313.38007    128846.80307     -1924.46207        44.00007  22436316.37805    160409.15005     -1436.33105        34.20005
R24  19403556.51407   2997871.01207      -254.67507        43.40007
E33  24878062.69207    117159.67907     -1878.08107        42.30007  24878057.59615   3921113.75215     -1405.79815        30.00015
C33  23069221.42727     70823.82427     -1013.14627        42.20027  23069241.51326    116472.43826      -745.45026        37.90026
C27  21415277.52806    -13696.81706       462.35006        41.10006  21415282.02525     56985.87025       351.43225        33.40025
E25  25922525.82507    -49114.59207       724.18807        41.50007  25922527.62405     58968.03605       540.90805        33.60005
R16  22843716.04106   -136893.31206      1387.18506        41.10006
R01  19956056.32606   2450180.61306      2032.57806        39.90006
E10  24644030.60906    -15716.72006      1568.16206        39.30006  24644032.40826     12459.72826      1179.42726        36.00026
E07  27784467.53006    192467.96706     -1713.48606        40.00006  27784477.42306    505949.31806     -1280.29306        38.70006
R23  23157449.74806   3712652.41006     -3464.65306        40.20006
E29  25956124.46626    -35087.14526       802.97826        39.70026  25956131.36106     40360.57306       600.02606        35.90006
R15  22271591.81406   2512115.56406     -2241.83806        38.60006
R08  20993645.21806   4344606.73006     -2206.71306        37.80006
E12  23415916.71506     52120.13106       503.76706        36.00006  23415912.21824     32231.37624       380.07324        26.30024
C41  22979319.96425   -135507.84225      2088.03725        34.70025  22979325.66025    -35445.68725      1559.31725        31.40025
C36  25864840.96026    133009.88726     -1112.22326        36.10026  25864840.36026    117117.81626      -830.61826        35.80026
C30  24706364.05726   -101321.68926      2883.88826        36.80026  24706363.75706    -53358.82106      2153.89806        35.50006
E11  25085723.83125    130846.03625      2339.25625        33.90025  25085716.33706    209917.29006      1748.40406        36.30006
E16  25238543.03725    161232.42325     -1834.21725        34.90025  25238534.04305    503236.44305     -1372.73505        32.50005
E19  25771803.968 5    174205.701 5      2790.489 5        29.700 5                                                                
C42  26883843.91914    200007.41314     -3247.76414        28.00014  26883823.23313    221802.67713     -2411.47913        20.60013
R14  24185217.43924  -1949090.32124     -4136.36124        27.50024
R02  23001599.04124-102410915.14724      4517.97324        23.60024
> 2026 04 21 14 04 07.9999678  0 34                      
G10  23011964.66507    189120.56507     -2819.97407        47.20007  23011965.26507    206783.60307     -2106.31807        42.20007
G02  20551755.93207     12616.67507        52.38007        42.50007                                                                
G14  23209486.22427    -56484.31827       815.20727        41.50027  23209488.62226     24624.21026       607.00026        36.90026
G01  21301103.37006   -129295.29806      2104.43806        40.80006  21301107.86606    -30036.95106      1571.30806        36.30006
G22  24224798.43826   -104803.64826      1572.07026        40.30026                                                                
G08  21081402.26606    146821.88606     -2335.46406        38.50006  21081403.76405    177014.42605     -1748.00605        34.20005
G27  23395544.01925    244106.05325     -3679.14025        34.70025  23395542.81905    247150.58905     -2745.57805        30.40005
G17  25503950.79925   -131086.16825      3350.34625        33.90025                                                                
G03  23649133.96225   -184152.70925      3743.39125        30.20025  23649124.06925    483151.24825      2794.15425        34.10025
G32  22413083.96107     20412.79307       980.33207        45.10007  22413083.36225      9359.96525       732.13725        31.80025
R17  21248276.64107   4311336.56207      3026.44907        43.90007
C28  22436684.52307    130769.11007     -1922.11007        43.90007  22436684.52305    161843.88905     -1435.91905        34.10005
R24  19403608.67807   2998125.35307      -254.72707        43.20007
E33  24878412.25007    119037.90307     -1878.77707        42.30007  24878418.54625   3922516.17325     -1404.05225        30.00025
C33  23069409.69707     71838.49007     -1014.39707        42.20007  23069436.37806    117230.36406      -753.67006        37.40006
C27  21415196.28526    -14160.31826       461.98426        41.10026  21415195.38505     56639.70905       348.60905        33.20005
E25  25922401.11206    -49839.74506       725.12406        41.40006  25922391.51825     58426.83125       542.12525        33.40025
R01  19955666.59606   2448149.00306      2030.71006        39.80006
E10  24643738.31206    -17287.74306      1570.39006        39.20006  24643735.91306     11287.05506      1174.78106        36.00006
R16  22843475.60806   -138281.50306      1385.69806        40.80006
E07  27784802.69826    194181.09826     -1713.66326        39.90026  27784804.79606    507228.82806     -1279.75606        38.10006
E29  25955979.06606    -35891.87006       804.65006        39.40006  25955979.36626     39759.19626       595.42826        35.80026
R15  22272007.92606   2514356.01806     -2240.58306        38.50006
E12  23415827.37706     51618.23206       500.94906        36.00006  23415818.68314     31854.53814       381.38314        26.20014
C41  22978924.23825   -137598.45725      2096.47025        34.70025  22978930.83405    -37007.05905      1563.00005        32.20005
C36  25865058.01026    134116.37426     -1107.64026        35.70026  25865053.21315    117945.84015      -828.80615        34.80015
C30  24705828.32826   -104209.76326      2886.62426        36.10026  24705814.83715    -55512.79015      2152.16815        35.10015
E16  25238893.194 5    163068.806 5     -1838.125 5        34.400 5  25238887.19905    504607.37705     -1370.71905        32.20005
E11  25085280.13915    128499.61415      2349.20315        33.70015  25085271.14506    208167.62106      1750.04506        37.00006
R23  23158126.67926   3716114.20826     -3461.85626        39.60026
E19  25771296.71915    171409.57915      2792.96715        29.70015                                                                
C42  26884443.20414    203252.51414     -3248.12014        27.90014  26884445.00313    224221.62713     -2413.98913        20.40013
R14  24186114.11824  -1944969.35024     -4116.87024        27.10024
R02  23000746.73124-102415435.95824      4521.93224        23.70024
> 2026 04 21 14 04 08.9999664  0 35                      
G10  23012516.88307    191942.05207     -2822.24907        47.00007  23012522.27907    208890.56507     -2107.36807        42.20007
G32  22412912.48007     19432.12207       980.54707        45.10007  22412916.377 5      8627.554 5       732.225 5        31.800 5
G02  20551760.42907     12566.84007        48.86207        42.50007                                                                
G14  23209358.21226    -57298.15926       811.97126        41.40026  23209354.315 6     24018.739 6       597.112 6        36.800 6
G22  24224518.13226   -106372.11426      1566.96726        40.30026                                                                
G08  21081864.24606    149158.15806     -2337.25606        38.20006  21081869.64205    178759.55305     -1743.98405        34.50005
G27  23396267.11825    247784.71725     -3677.77225        34.70025  23396265.01925    249898.59425     -2748.41525        30.50025
G17  25503321.83425   -134432.02125      3344.13825        33.50025                                                                
G03  23648443.54025   -187899.95625      3747.54925        30.10025  23648434.84605    480358.26005      2791.51305        33.80005
G01  21300724.13206   -131398.68506      2104.32506        40.80006  21300726.83006    -31608.63406      1570.38306        35.80006
R17  21247722.92407   4308311.68507      3024.24207        43.90007
C28  22437066.15907    132692.09607     -1923.32807        43.80007  22437070.95625    163280.14625     -1436.51825        34.00025
R24  19403672.53407   2998380.88307      -256.12607        43.10007
E33  24878794.18607    120916.74907     -1879.16007        42.20007  24878796.58415   3923920.43415     -1404.68315        30.10015
C33  23069624.94827     72854.04527     -1013.50027        42.20027  23069651.03026    117988.11926      -760.67126        36.90026
C27  21415123.73506    -14623.54206       462.08506        41.10006  21415128.23205     56293.97205       344.02605        32.90005
E25  25922268.30406    -50564.15306       724.03706        41.30006  25922273.40005     57885.78505       540.46705        33.40005
E29  25955844.75906    -36695.42906       802.97706        39.80006  25955847.45706     39159.02606       595.56706        35.60006
R01  19955305.64606   2446118.36106      2030.16006        39.70006
E10  24643463.40206    -18859.21106      1572.19206        39.20006  24643457.40615     10110.32415      1177.26115        35.40015
R16  22843224.98106   -139667.67406      1384.41306        40.60006
E16  25239256.84325    164904.93125     -1835.99925        34.20025  25239257.14206    505978.74106     -1371.58206        37.00006
E07  27785144.76106    195895.84106     -1714.05206        39.70006  27785151.65606    508509.49106     -1281.24206        37.70006
R15  22272446.52316   2516597.98716     -2242.48016        38.30016
E12  23415752.72806     51116.66906       499.89606        35.90006  23415744.63414     31476.85414       378.10814        26.10014
R08  20994474.44426   4349024.85726     -2211.02026        37.00026
C41  22978539.60505   -139688.84005      2088.27005        34.60005  22978552.19605    -38567.89505      1560.06905        32.40005
C36  25865271.76225    135224.41025     -1100.31325        35.30025  25865283.45325    118776.95725      -829.16525        33.70025
C30  24705290.50016   -107099.80316      2886.02716        35.60016  24705283.90405    -57668.53605      2148.13805        34.20005
R23  23158768.83526   3719575.60026     -3464.19326        38.60026
E11  25084867.02515    126149.75915      2350.07615        33.50015  25084845.73926    206418.70726      1748.53926        36.00026
E19  25770755.89415    168615.17515      2796.54915        29.50015                                                                
C42  26885081.46214    206493.26314     -3237.57814        27.70014  26885082.06213    226641.97613     -2422.55013        20.20013
R14  24186827.62424  -1940854.42724     -4113.40524        26.70024
R02  22999909.41124-102419949.74924      4511.78624        23.70024
> 2026 04 21 14 04 09.9999650  0 35                      
G10  23013058.60807    194768.54907     -2829.00707        46.80007  23013061.90507    211001.14007     -2112.38407        42.20007
G32  22412729.00707     18456.62007       970.66807        45.00007  22412732.60515      7900.14015       724.91615        31.80015
G02  20551755.03307     12521.79607        42.65007        42.50007                                                                
G14  23209202.02026    -58104.99026       804.57726        41.30026  23209202.02006     23416.37206       603.31506        38.40006
G01  21300332.00406   -133498.10706      2097.69306        40.80006  21300330.80425    -33175.80425      1565.41525        35.20025
G22  24224222.23726   -107935.64126      1561.80926        40.20026                                                                
G08  21082313.63506    151499.94306     -2345.04406        37.90006  21082316.03325    180508.09625     -1750.25425        34.50025
G27  23396970.13125    251467.91225     -3689.46525        34.70025  23396971.93015    252649.00915     -2747.12515        30.10015
G17  25502687.77325   -137774.83125      3338.29325        33.30025                                                                
G03  23647726.13625   -191645.42625      3746.33625        30.10025  23647725.23725    477568.68425      2788.37425        33.50025
R17  21247164.11107   4305291.81207      3017.37507        43.80007
C28  22437433.70407    134619.65707     -1929.85207        43.70007  22437438.20105    164720.20505     -1440.46105        33.80005
R24  19403722.59907   2998641.46907      -263.11307        43.10007
E33  24879151.53807    122800.80207     -1888.15907        42.10007  24879155.73525   3925326.25525     -1408.10225        30.70025
C33  23069821.31227     73874.04227     -1021.72027        42.10027  23069847.99306    118750.62306      -763.37906        36.60006
E29  25955694.86306    -37493.89506       795.92106        40.60006  25955697.56126     38562.23026       592.61126        35.50026
C27  21415037.99406    -15081.69006       456.11206        41.00006  21415044.59025     55952.46525       336.39325        32.70025
E25  25922134.89626    -51282.70126       717.11926        41.10026  25922138.49405     57349.02905       534.61305        34.30005
R01  19954937.20106   2444093.33006      2022.97906        39.70006
R16  22842959.36506   -141047.48106      1376.37606        40.30006
E10  24643177.40026    -20427.79726      1570.14726        39.20026  24643162.11005      8942.21805      1168.29505        34.20005
E07  27785463.74026    197615.88526     -1724.69626        39.60026  27785479.03006    509793.82106     -1286.16506        37.20006
E16  25239621.69016    166744.11716     -1842.21816        37.60016  25239609.99806    507353.97706     -1377.17406        37.40006
R08  20994895.653 6   4351237.430 6     -2214.779 6        36.600 6
R15  22272870.72906   2518847.88006     -2256.10806        38.10006
E12  23415657.39426     50619.79226       495.03526        35.90026  23415653.79714     31106.31014       373.47414        26.10014
C41  22978147.77605   -141774.35905      2083.08905        34.80005  22978157.96925    -40125.32625      1555.73125        32.80025
C36  25865491.50925    136340.64525     -1124.33525        35.10025  25865497.80505    119609.97305      -834.96705        33.30005
C30  24704743.07915   -109981.03915      2878.83815        35.30015  24704741.88025    -59819.32725      2148.31825        33.30025
R23  23159422.982 6   3723041.230 6     -3466.754 6        37.600 6
E11  25084407.44315    123803.10715      2348.55315        33.30015  25084402.64625    204673.39325      1739.01725        34.30025
E19  25770233.05514    165822.41214      2789.94514        29.40014                                                                
C42  26885725.11614    209738.48914     -3248.96814        27.50014  26885710.42713    229064.39413     -2422.45613        20.10013
R14  24187525.24124  -1936735.84924     -4118.91124        26.40024
R02  22999126.05324-102424457.12624      4499.17824        23.70024
> 2026 04 21 14 04 10.9999636  0 35                      
G10  23013603.33107    197594.21307     -2825.25107        46.60007  23013600.93207    213111.27607     -2109.91907        42.10007
G32  22412549.13207     17481.02607       977.14107        44.90007  22412550.33125      7172.49625       726.26025        31.70025
G02  20551752.03507     12476.31807        45.69407        42.60007                                                                
G14  23209046.12826    -58913.25126       810.97726        41.10026  23209050.02606     22813.17806       603.60806        39.20006
G22  24223929.03926   -109499.89826      1563.62526        40.20026                                                                
G08  21082766.92106    153841.14606     -2342.91506        37.70006  21082763.62305    182256.55905     -1748.42605        34.80005
G17  25502056.11125   -141117.76925      3344.75625        33.10025                                                                
G03  23647036.61425   -195395.70025      3750.68125        30.00025  23647015.02905    474777.06105      2791.15005        33.40005
G01  21299933.57906   -135598.63806      2102.33806        40.70006  21299934.47925    -34744.74325      1562.32625        34.80025
G27  23397676.44215    255151.34015     -3686.80015        34.50015  23397673.44415    255399.13215     -2749.98015        29.50015
R17  21246602.60007   4302270.43607      3022.13107        43.80007
R24  19403777.76107   2998901.71407      -260.07507        43.10007
C28  22437804.54827    136546.75227     -1928.36427        43.60027  22437807.24605    166159.38805     -1439.24805        33.70005
E33  24879513.38827    124683.24427     -1881.14027        42.10027  24879516.38615   3926732.52515     -1405.99715        30.70015
C33  23070008.38227     74894.34427     -1022.45627        42.00027  23070043.75806    119512.32306      -761.79906        36.50006
E29  25955541.96926    -38292.73326       800.52526        41.30026  25955547.36505     37965.95705       593.01105        35.40005
C27  21414954.05206    -15540.32106       458.87206        41.00006  21414955.55105     55609.35405       343.41205        32.50005
E25  25922000.58906    -52002.29506       719.61906        41.00006  25922003.58705     56811.45805       537.97905        34.60005
R01  19954556.76406   2442068.03706      2025.17706        39.70006
R16  22842702.14306   -142428.41806      1382.50406        40.10006
E07  27785797.70906    199334.76506     -1714.80106        39.40006  27785809.70106    511077.75006     -1283.73106        36.40006
E16  25239974.54626    168576.75626     -1830.36926        37.60026  25239962.55406    508728.38006     -1373.98806        37.40006
R08  20995310.865 6   4353450.185 6     -2213.350 6        36.900 6
R15  22273283.54306   2521097.68206     -2246.76106        38.00006
E12  23415554.56506     50122.34606       497.73006        35.80006  23415561.16104     30734.32204       370.21004        26.60004
C41  22977743.65625   -143860.08425      2087.33125        34.90025  22977763.14225    -41683.13325      1557.99725        32.80025
C36  25865697.46705    137455.56205     -1113.76005        34.90005  25865711.85725    120443.07525      -828.64625        33.10025
C30  24704189.06225   -112863.53025      2886.12325        35.10025  24704191.16105    -61971.02805      2148.65705        32.80005
R23  23160080.427 6   3726505.740 6     -3463.955 6        36.900 6
E11  25083975.74215    121453.71415      2351.26715        33.10015  25083961.35215    202925.08515      1743.80815        33.00015
E19  25769703.92214    163029.32414      2790.75514        29.20014                                                                
C42  26886362.17514    212989.62214     -3250.59214        27.30014  26886328.59913    231488.51713     -2429.97913        20.00013
R14  24188400.03624  -1932613.90724     -4123.88124        26.20024
R02  22998253.65724-102428965.04124      4505.94024        23.80024
E10  24642863.81706    -21997.48406      1567.74006        38.50006  24642866.51515      7771.76515      1165.62815        33.30015
> 2026 04 21 14 04 11.9999622  0 35                      
G10  23014120.17307    200425.08707     -2832.73307        46.30007  23014122.57107    215224.85707     -2115.30607        42.10007
G32  22412343.47407     16510.50407       968.48807        44.90007  22412346.77205      6448.06005       721.83205        31.70005
G02  20551728.35107     12435.89407        37.89707        42.90007                                                                
G01  21299516.86806   -137693.11506      2091.70206        40.60006  21299515.36905    -36308.61905      1563.84705        35.00005
G22  24223616.65626   -111058.70226      1557.07926        40.20026                                                                
G08  21083199.22106    156187.90706     -2349.54306        37.60006  21083191.42725    184009.29025     -1754.86625        34.80025
G27  23398368.36315    258836.88215     -3683.60415        34.40015  23398364.16614    258154.32714     -2756.73614        29.20014
G17  25501395.06825   -144455.56925      3336.48725        32.90025                                                                
G03  23646300.32425   -199140.39425      3746.90925        30.00025  23646289.83125    471990.57125      2782.92825        33.40025
G14  23208878.84426    -59716.04526       800.81226        41.00026  23208880.64306     22214.35806       596.63406        39.50006
R17  21246026.39907   4299254.31107      3013.50307        43.80007
R24  19403808.63907   2999167.04707      -267.87807        43.40007
C28  22438149.60927    138479.18727     -1934.60727        43.50027  22438158.00325    167602.55525     -1446.66125        33.70025
C33  23070190.95627     75919.46327     -1027.02927        41.90027  23070220.93506    120277.96106      -767.60906        36.40006
E33  24879862.94607    126571.09907     -1895.06507        42.00007  24879857.84925   3928141.75225     -1410.70725        31.10025
E29  25955376.78306    -39086.37106       790.53906        41.40006  25955379.48105     37373.23805       592.44305        35.30005
C27  21414854.52106    -15993.72206       450.78706        41.00006  21414852.72325     55271.26725       331.57525        32.40025
R01  19954163.13706   2440048.61406      2016.49106        39.60006
E25  25921842.59826    -52716.90226       712.11426        40.80026  25921850.99325     56278.15825       528.16425        35.00025
R16  22842433.22906   -143803.84406      1372.42306        40.00006
R08  20995706.89106   4355669.44506     -2221.51606        37.40006
E16  25240305.21706    170411.43706     -1832.20306        37.50006  25240298.02206    510106.95706     -1380.66606        37.20006
R15  22273700.25506   2523350.38306     -2254.15306        37.80006
E10  24642546.33726    -23558.61726      1558.85926        37.80026  24642549.93405      6605.85105      1160.64605        32.60005
C36  25865891.43305    138576.09905     -1123.34805        34.90005  25865906.42205    121279.60205      -833.74105        33.00005
C41  22977340.13525   -145940.37525      2078.57625        34.90025  22977350.02825    -43236.19325      1552.18925        32.80025
C30  24703632.04825   -115740.12025      2872.64325        34.90025  24703628.75005    -64119.26405      2148.00805        32.50005
E07  27786117.88726    201059.24826     -1725.28626        39.00026  27786120.28605    512365.27505     -1289.32405        35.40005
R23  23160695.00126   3729976.14226     -3473.35326        36.10026
E11  25083491.57715    119111.55815      2341.04015        32.90015  25083499.07215    201181.30615      1736.51715        32.00015
E19  25769153.80314    160242.47914      2787.72914        29.10014                                                                
C42  26886950.36814    216237.85014     -3252.27914        27.20014  26886929.68313    233916.34813     -2425.18813        19.90013
R14  24189147.71824  -1928487.19924     -4125.34624        26.00024
R02  22997368.07024-102433472.37824      4509.05424        23.90024
E12  23415443.94206     49629.77006       491.64206        35.70006  23415450.53824     30367.89424       368.14924        27.10024
> 2026 04 21 14 04 12.9999608  0 35                      
G10  23014663.39707    203257.39907     -2833.28507        46.10007  23014662.79707    217339.95207     -2115.85507        42.10007
G32  22412159.40207     15542.30707       966.78607        44.80007  22412165.09825      5724.75225       720.24625        31.60025
G02  20551720.55707     12397.05707        38.04307        43.00007                                                                
G01  21299116.94506   -139785.95806      2091.78006        40.60006  21299120.24225    -37871.48925      1554.87025        35.00025
G22  24223318.66226   -112615.98626      1556.27626        40.20026                                                                
G08  21083653.10706    158534.70406     -2348.06806        37.50006  21083641.11605    185762.79005     -1756.88805        34.60005
G27  23399067.17925    262526.46625     -3695.11125        34.10025  23399073.47514    260904.36214     -2753.95814        28.90014
G17  25500770.00125   -147793.65225      3334.72825        32.70025                                                                
G03  23645583.52025   -202880.62325      3735.75325        29.90025  23645584.41905    469203.70205      2781.56405        33.40005
G14  23208727.14926    -60517.65426       801.26726        40.90026  23208729.54706     21616.95106       596.70106        39.50006
R17  21245460.99007   4296239.81807      3013.68207        43.90007
R24  19403857.50607   2999434.63007      -268.70807        43.50007
C28  22438524.64907    140413.21107     -1934.82207        43.40007  22438527.64705    169046.51705     -1445.36205        33.70005
E33  24880216.70127    128460.37427     -1889.98727        41.90027  24880219.99915   3929554.71115     -1413.32815        31.10015
C33  23070385.82107     76946.66907     -1028.25107        41.80007  23070417.29906    121045.14306      -767.95506        36.40006
E29  25955220.59126    -39877.99726       790.62026        41.40026  25955228.38625     36782.42125       589.86725        35.20025
C27  21414764.58406    -16445.57206       451.07406        41.00006  21414768.18105     54933.39505       336.26605        32.30005
R01  19953787.79706   2438031.33306      2016.96206        39.60006
E25  25921716.08606    -53429.73406       711.94606        40.60006  25921716.38605     55745.83205       531.34005        35.30005
R16  22842180.50406   -145176.90006      1371.87206        39.80006
R08  20996111.31106   4357888.10906     -2220.11806        37.60006
E10  24642258.83606    -25118.23706      1558.36606        37.60006  24642255.23805      5441.32705      1165.33105        32.30005
E16  25240668.86516    172248.31116     -1841.97416        37.50016  25240649.07926    511487.05526     -1380.85926        37.10026
R15  22274118.76506   2525604.56606     -2254.42806        37.70006
C36  25866115.97705    139698.17105     -1122.84205        35.10005  25866122.27305    122117.35105      -840.36105        32.90005
C41  22976947.40705   -148018.85405      2077.07705        35.10005  22976956.10125    -44787.92525      1558.07025        32.80025
C30  24703078.33125   -118616.15525      2877.26225        34.90025  24703082.52805    -66266.36205      2146.53105        32.30005
E07  27786445.26106    202785.18706     -1727.67006        38.30006  27786450.95725    513655.96425     -1290.77225        34.40025
E11  25083066.47115    116773.55015      2336.43915        32.70015  25083054.77905    199439.60905      1737.15705        31.20005
R23  23161349.44825   3733453.51925     -3483.11925        35.40025
E19  25768635.46114    157458.80114      2781.09714        28.90014                                                                
C42  26887540.06014    219493.69714     -3256.66214        27.00014  26887553.85013    236345.21513     -2437.88913        19.80013
R14  24189937.97124  -1924351.76524     -4139.55224        25.80024
R02  22996545.14024-102437979.00424      4509.77824        23.90024
E12  23415353.40506     49139.04306       489.30306        35.60006  23415355.80304     30001.05204       365.54904        27.90004
> 2026 04 21 14 04 13.9999594  0 35                      
G10  23015200.02507    206091.67807     -2835.26607        45.90007  23015203.62307    219456.32907     -2117.02107        42.00007
G32  22411980.72507     14576.11807       965.18707        44.70007  22411980.72505      5004.29605       717.03105        31.60005
G02  20551711.86307     12360.01107        36.15107        43.00007                                                                
G01  21298720.61906   -141877.33006      2090.63906        40.50006  21298723.61705    -39433.04305      1561.89805        35.20005
G22  24223028.46326   -114171.43126      1554.52926        40.10026                                                                
G14  23208576.65326    -61317.53026       799.51126        40.70026  23208579.05206     21020.85906       595.43706        39.70006
G08  21084089.30506    160884.39906     -2349.89806        37.40006  21084087.20705    187518.07205     -1755.17505        34.20005
G27  23399754.90325    266217.55825     -3690.10025        33.90025  23399774.69024    263660.68824     -2755.97624        28.70024
G17  25500149.13125   -151129.48325      3334.96125        32.60025                                                                
G03  23644885.60325   -206617.71825      3735.03325        30.00025  23644873.01225    466417.53825      2787.81525        33.10025
R17  21244897.68007   4293226.77307      3012.32507        44.00007
R24  19403911.46807   2999704.05107      -270.34007        43.60007
C28  22438894.29307    142349.07207     -1936.78107        43.30007  22438896.99105    170492.15305     -1445.97405        33.70005
E33  24880579.15007    130351.42007     -1891.43507        41.90007  24880577.35115   3930964.21915     -1408.28515        30.70015
C33  23070589.98007     77976.20207     -1030.69807        41.80007  23070615.76206    121813.92706      -769.58606        36.90006
E29  25955085.08506    -40667.99506       790.68506        41.40006  25955080.88805     36192.37005       589.66805        35.10005
C27  21414685.73806    -16895.57206       449.07706        41.10006  21414685.13925     54597.14725       337.93525        32.50025
E25  25921574.88406    -54140.72706       710.07306        40.40006  25921582.67805     55214.80005       530.88505        35.40005
R16  22841921.78306   -146547.74906      1369.74706        39.80006
R01  19953407.66006   2436016.55306      2013.28406        39.60006
E10  24641956.64506    -26676.89006      1558.17006        37.70006  24641961.14205      4277.72905      1163.13605        32.50005
R08  20996540.91406   4360110.49206     -2223.74706        37.70006
R15  22274546.26916   2527861.42516     -2256.94916        37.50016
E16  25241023.22026    174091.56626     -1851.44826        37.40026  25241002.23406    512867.62906     -1382.31406        36.40006
E12  23415261.36806     48649.57206       485.84306        35.60006  23415263.16714     29636.17114       368.40214        28.00014
C36  25866329.13025    140822.31925     -1120.68725        35.20025  25866337.52425    122956.62725      -838.54125        32.80025
C41  22976551.98125   -150096.14125      2078.19425        35.10025  22976561.87425    -46339.09225      1548.38725        32.80025
C30  24702542.60205   -121490.44505      2874.42205        34.90005  24702537.20605    -68412.47705      2145.62705        32.50005
E07  27786796.01816    204519.40816     -1726.36416        37.50016  27786781.32805    514946.64805     -1289.68405        33.50005
E11  25082629.67315    114432.50915      2342.05915        32.50015  25082612.58525    197698.94025      1745.15925        30.70025
R23  23162021.28325   3736933.45125     -3482.71425        34.80025
E19  25768079.34614    154677.83214      2776.61814        28.70014                                                                
C42  26888184.91414    222750.76414     -3261.18114        26.90014  26888162.42913    238773.54713     -2430.06913        20.60013
R14  24190715.33324  -1920219.98024     -4137.96824        25.70024
R02  22995688.93224-102442485.06024      4503.77824        24.00024
> 2026 04 21 14 04 14.9999581  0 35                      
G10  23015755.54107    208923.43407     -2830.49807        45.80007  23015756.74007    221571.07607     -2113.93507        41.80007
G32  22411808.64407     13608.21707       968.75707        44.60007  22411811.04305      4281.58205       724.84305        31.70005
G02  20551716.95907     12320.44207        40.83007        43.00007                                                                
G01  21298336.28506   -143971.29006      2095.25606        40.80006  21298335.68605    -40996.71005      1565.22605        35.30005
G27  23400474.40526    269906.47426     -3688.08426        40.10026  23400474.70505    266413.42105     -2751.43805        29.50005
G22  24222740.36226   -115729.26526      1559.02926        40.10026                                                                
G14  23208431.55426    -62118.32326       801.00326        40.50026  23208439.64806     20423.00006       598.74306        39.70006
G08  21084549.78706    163232.16006     -2347.04706        37.30006  21084550.08605    189271.50205     -1752.50605        34.00005
G17  25499535.45625   -154468.30325      3339.06825        32.40025                                                                
G03  23644178.39325   -210357.23025      3738.72525        30.20025  23644175.69405    463631.39205      2787.64005        33.50005
R17  21244348.76007   4290210.77607      3017.47807        44.10007
R24  19403975.32407   2999971.30807      -266.17607        43.60007
C28  22439273.83107    144282.64407     -1932.43107        43.20007  22439278.32705    171936.16405     -1443.20005        33.90005
C33  23070795.63707     79003.69107     -1026.46807        41.80007  23070824.41706    122581.18106      -766.49006        37.20006
E33  24880956.88907    132240.19907     -1887.64707        41.80007  24880952.69115   3932373.42315     -1407.55315        30.10015
C27  21414614.38806    -17347.99606       453.63606        41.10006  21414611.68905     54259.46505       339.40005        32.70005
E29  25954934.88906    -41459.53106       791.80706        41.30006  25954943.58305     35601.30305       591.57605        35.10005
E25  25921457.96506    -54854.22606       714.75406        40.30006  25921460.06306     54681.98006       533.71606        35.60006
R16  22841680.75006   -147920.65206      1373.93306        39.70006
R01  19953044.01206   2433999.79306      2017.75206        39.60006
E10  24641670.64306    -28237.53106      1561.63806        38.10006  24641677.23805      3112.03205      1166.74905        33.70005
R08  20996978.31106   4362331.81606     -2220.79606        37.90006
R15  22274979.16916   2530118.60016     -2257.83716        37.40016
E16  25241367.98106    175937.06706     -1852.12506        37.30006  25241366.78225    514247.32825     -1381.76425        35.40025
E12  23415181.62406     48157.76006       493.98306        35.60006  23415185.22104     29268.58104       367.44404        28.50004
C36  25866557.27225    141943.33025     -1120.94425        35.40025  25866563.86705    123793.93005      -835.31805        32.70005
C41  22976158.65325   -152175.39525      2079.74125        35.20025  22976181.73725    -47891.66325      1541.27525        32.90025
C30  24702005.67405   -124367.60505      2878.09705        34.80005  24702003.27605    -70560.89905      2149.57705        33.10005
E07  27787128.18806    206246.64206     -1732.24206        36.60006  27787124.59115    516236.11215     -1284.85515        32.20015
R23  23162672.13225   3740405.39325     -3468.70125        34.20025
E19  25767580.49214    151898.94114      2774.35714        28.50014                                                                
R14  24191498.99024  -1916091.50524     -4131.07524        25.60024
C42  26888800.98714    226007.49114     -3264.56014        26.70014  26888798.58913    241202.96013     -2431.45513        22.30013
R02  22994836.02324-102446987.88224      4500.71024        24.10024
E11  25082197.67215    112091.97415      2343.28615        32.20015  25082181.78305    195955.33105      1747.07905        30.40005
> 2026 04 21 14 04 15.9999567  0 35                      
G10  23016294.26807    211754.77007     -2830.38107        45.70007  23016296.36607    223685.34407     -2114.03107        41.50007
G32  22411627.27007     12638.90007       969.27707        44.50007  22411627.57005      3558.50605       723.25805        31.70005
G02  20551714.26107     12280.26907        41.22507        43.00007                                                                
G01  21297937.26106   -146065.98906      2095.07106        41.00006  21297940.25906    -42561.00506      1564.61106        35.60006
G22  24222442.66826   -117287.37026      1558.24326        40.30026                                                                
G14  23208288.55326    -62918.94426       800.53626        40.40026  23208289.45216     19826.03616       598.01616        39.00016
G27  23401175.62026    273594.93226     -3686.73426        40.00026  23401193.00805    269166.94905     -2753.93105        30.90005
G08  21085000.97406    165578.71206     -2346.70006        37.20006  21084997.97605    191024.10505     -1752.19305        33.90005
G17  25498891.20225   -157808.51325      3342.91025        32.30025                                                                
G03  23643468.48425   -214094.30525      3737.36125        30.40025  23643466.38505    460844.24105      2787.15805        34.30005
R17  21243785.45007   4287194.24107      3016.80707        44.30007
R24  19404025.98907   3000238.05007      -266.48507        43.60007
C28  22439650.37007    146215.26407     -1932.14607        43.20007  22439647.97205    173379.14805     -1442.47305        33.90005
C33  23070990.80207     80030.72007     -1026.80007        42.10007  23071021.08106    123348.09506      -766.74406        37.20006
E33  24881312.44207    134127.91407     -1887.18507        41.90007  24881314.54115   3933777.94015     -1408.67515        29.60015
C27  21414527.74806    -17801.15606       453.52906        41.10006  21414527.44805     53920.96005       338.41805        32.80005
E29  25954789.79006    -42251.61806       792.36306        41.30006  25954794.28605     35009.75905       591.78305        35.30005
R16  22841431.02306   -149293.16106      1372.31306        39.70006
E25  25921319.76006    -55568.12106       714.09406        40.20006  25921324.85706     54148.85606       533.27706        35.60006
R01  19952680.06406   2431982.20406      2018.75606        39.50006
E10  24641381.04306    -29799.37506      1562.44706        38.50006  24641382.24305      1945.67605      1166.68605        34.60005
R08  20997386.62806   4364552.74506     -2219.98506        38.00006
R15  22275403.67606   2532374.60306     -2253.16906        37.20006
E16  25241720.83726    177782.55326     -1842.98226        37.10026  25241719.03805    515625.32605     -1376.14905        34.90005
C41  22975772.82005   -154255.41905      2080.41105        35.20005  22975785.71105    -49444.72605      1557.31205        33.20005
C36  25866772.22325    143062.08625     -1117.63125        35.40025  25866778.81805    124631.01905      -837.48305        33.50005
C30  24701454.65525   -127246.88525      2886.34525        34.80025  24701457.95305    -72709.74405      2149.06005        33.10005
E11  25081746.48515    109751.64115      2342.23515        32.00015  25081739.59025    194211.33125      1743.19925        30.20025
R23  23163346.06625   3743875.48125     -3467.91725        33.60025
E07  27787442.07116    207975.27916     -1729.34216        35.70016  27787453.46315    517522.14815     -1275.32415        30.60015
E19  25767068.14714    149122.22314      2774.13514        28.30014                                                                
C42  26889421.25814    229264.39014     -3258.49114        26.50014  26889419.45913    243630.43213     -2428.50613        22.80013
R14  24192308.73024  -1911963.36724     -4126.47624        25.60024
R02  22994013.09324-102451495.42724      4507.16424        24.60024
E12  23415092.58506     47664.82006       490.50506        35.50006  23415090.18724     28900.16424       371.83124        29.00024
> 2026 04 21 14 04 16.9999553  0 35                      
G10  23016836.89207    214587.54007     -2833.74107        45.50007  23016835.99306    225800.63306     -2115.80306        41.20006
G32  22411444.39607     11672.05807       965.85607        44.40007  22411444.09715      2834.98715       729.74215        31.70015
G02  20551709.16407     12240.72107        38.98607        43.00007                                                                
G01  21297540.93606   -148160.44406      2094.33506        41.10006  21297543.03406    -44125.27806      1564.26406        35.80006
G22  24222150.67126   -118844.87726      1557.21026        40.30026                                                                
G14  23208144.65226    -63719.24726       799.39626        40.20026  23208137.158 6     19228.207 6       605.263 6        38.200 6
G08  21085440.77006    167926.37106     -2350.21506        37.10006  21085446.16605    192777.33905     -1753.55105        34.00005
G27  23401878.03416    277282.37216     -3688.18616        39.70016  23401882.23115    271919.88615     -2745.14415        30.90015
G17  25498252.04425   -161146.06725      3338.73125        32.20025                                                                
G03  23642767.56925   -217831.73825      3735.86725        30.40025  23642757.67605    458056.78705      2787.60905        34.40005
R17  21243228.13607   4284177.52107      3016.81707        44.30007
R24  19404075.75407   3000505.75607      -268.18807        43.60007
C28  22440013.11907    148148.89907     -1934.14607        43.10007  22440016.11705    174822.99005     -1444.27305        33.90005
C33  23071192.86207     81059.32507     -1029.39507        42.20007  23071218.94406    124116.12506      -768.59006        37.30006
E33  24881680.88707    136017.03307     -1889.82407        42.00007  24881674.59214   3935188.62014     -1414.76414        29.20014
C27  21414447.10306    -18253.86006       452.47606        41.10006  21414441.40725     53583.41125       337.07125        32.60025
E29  25954638.39406    -43042.25206       791.40906        41.20006  25954645.29006     34419.36706       589.81606        35.60006
R16  22841169.60406   -150664.94506      1371.42406        39.70006
E25  25921192.64806    -56281.66006       713.36206        40.10006  25921191.74906     53615.99706       532.72706        35.50006
R01  19952308.02106   2429967.25406      2014.88406        39.50006
E10  24641086.04806    -31361.66006      1561.00806        38.60006  24641085.74805       779.16805      1166.58705        35.20005
R08  20997800.64206   4366775.10306     -2223.32506        38.10006
R15  22275832.37906   2534632.30106     -2257.80006        37.10006
E16  25242076.09116    179625.48916     -1843.16416        37.00016  25242072.49305    517003.53105     -1378.31005        34.80005
C36  25866993.47025    144183.63525     -1121.44725        35.40025  25866994.36905    125468.07305      -837.03705        34.50005
C41  22975390.88425   -156334.43425      2078.51325        35.20025  22975392.08425    -50995.83425      1545.63225        33.20025
C30  24700907.83415   -130127.05915      2877.12515        34.80015  24700912.03105    -74858.78805      2149.14705        33.30005
E11  25081308.18815    107414.68515      2332.77215        31.80015  25081296.19725    192467.31425      1742.52825        30.50025
E07  27787790.72915    209710.23415     -1742.11615        34.90015  27787781.43614    518808.46214     -1274.95414        29.40014
R23  23163977.42925   3747345.70525     -3465.29725        33.10025
E19  25766542.91014    146337.29914      2781.03014        28.10014                                                                
R14  24193040.22324  -1907834.96024     -4123.79724        25.60024
R02  22993197.35724-102456005.16324      4511.08724        25.20024
C42  26890018.74414    232517.49614     -3254.21414        26.30014  26890041.82813    246053.81513     -2424.84113        22.80013
E12  23415004.14726     47172.63026       492.81526        35.60026  23415000.54914     28532.59914       366.14014        29.00014
> 2026 04 21 14 04 17.9999539  0 34                      
G10  23017377.41807    217418.56507     -2830.15607        45.40007  23017376.81806    227914.77606     -2113.57406        40.90006
G32  22411261.82307     10703.74307       969.05307        44.60007  22411262.72215      2112.16715       720.47115        31.20015
G02  20551704.06807     12199.80707        41.59607        42.90007                                                                
G01  21297144.61006   -150256.45506      2096.79306        41.10006  21297146.10906    -45690.27706      1565.36506        36.20006
G22  24221855.37526   -120403.28326      1558.85826        40.40026                                                                
G14  23207992.95726    -64520.80726       803.93826        40.10026  23207986.96226     18630.37126       595.34026        37.70026
G08  21085889.55906    170272.94106     -2345.27906        37.00006  21085895.25505    194529.85405     -1752.15805        34.20005
G17  25497607.49025   -164487.79325      3339.06525        32.10025                                                                
G03  23642055.26225   -221567.13225      3732.62925        30.30025  23642048.96705    455268.53305      2788.65805        34.60005
G27  23402588.24226    280968.04026     -3690.53826        38.60026  23402605.63015    274673.52315     -2747.49215        30.50015
R17  21242668.12307   4281159.77307      3018.26707        44.30007
R24  19404124.62107   3000772.42207      -266.14707        43.60007
C28  22440384.26207    150081.09507     -1931.47907        43.00007  22440385.76105    176265.94505     -1442.51405        33.80005
E33  24882033.44307    137904.26707     -1886.29507        42.00007  24882034.94224   3936597.55524     -1408.56424        29.10024
C33  23071387.12807     82086.42507     -1026.34907        42.20007  23071414.70906    124883.21306      -766.61806        37.70006
C27  21414350.27006    -18707.77006       454.51406        41.10006  21414359.264 5     53244.298 5       338.396 5        32.200 5
E29  25954488.49806    -43834.45806       792.49206        41.10006  25954496.29306     33827.85806       592.07006        35.60006
R16  22840922.57506   -152037.23106      1372.53806        39.70006
E25  25921059.84006    -56996.10706       714.90206        40.00006  25921056.84206     53082.39306       533.97706        35.50006
R01  19951920.68906   2427950.61806      2016.98106        39.40006
E10  24640790.45206    -32924.61706      1563.79606        38.60006  24640789.55306      -388.06206      1167.59206        36.00006
R08  20998213.75606   4368996.65706     -2220.40606        38.30006
E16  25242419.95326    181469.97126     -1843.25726        36.90026  25242424.75006    518381.08806     -1377.23606        35.50006
R15  22276257.18506   2536888.98406     -2255.92706        37.00006
E12  23414897.72006     46678.73906       494.74206        35.70006  23414908.81324     28163.69824       368.07024        29.10024
C36  25867194.03115    145302.92015     -1118.65415        35.40015  25867209.62005    126305.08905      -836.99905        34.50005
C30  24700370.00625   -133008.40125      2880.93025        34.70025  24700365.50905    -77008.74405      2150.41505        33.30005
E11  25080861.49715    105072.07615      2338.43815        31.50015  25080853.70305    190721.84905      1746.69205        31.00005
R23  23164630.07725   3750816.89625     -3474.17825        32.70025
E07  27788133.69215    211441.93015     -1730.06815        34.10015  27788114.20514    520099.81914     -1283.88114        28.50014
R02  22992356.43924-102460517.19324      4515.68424        25.80024
C42  26890643.81114    235770.71114     -3250.27414        26.20014  26890663.59813    248477.46613     -2422.28913        22.70013
R14  24193821.48324  -1903708.92624     -4123.35424        25.50024
C41  22974985.56525   -158414.90725      2082.70525        35.20025  22974996.65715    -52549.21715      1532.02415        33.20015
> 2026 04 21 14 04 18.9999524  0 35                      
G10  23017885.86607    220251.54407     -2833.96107        45.40007  23017887.06506    230030.26906     -2116.17006        40.70006
G02  20551665.69407     12161.22807        37.41107        42.90007                                                                
G01  21296718.00606   -152349.87406      2092.12606        41.10006  21296719.80406    -47253.56006      1562.42606        36.80006
G22  24221527.40226   -121959.29926      1554.82426        40.40026                                                                
G14  23207804.38826    -65319.72626       797.10126        39.90026  23207806.786 6     18033.827 6       595.900 6        37.200 6
G08  21086308.66906    172622.11106     -2348.97406        37.00006  21086314.36505    196283.93105     -1754.86105        34.20005
G17  25496946.74825   -167825.27225      3339.61225        32.10025                                                                
G03  23641337.25925   -225303.93625      3736.01625        30.30025  23641310.57805    452482.14405      2785.46105        34.60005
G27  23403280.46326    284653.96426     -3686.30726        37.20026  23403283.16115    277428.23815     -2761.25815        29.90015
G32  22411048.67007      9737.77007       964.80507        44.60007  22411052.26815      1392.81815       714.61515        30.20015
R17  21242067.93907   4278144.46707      3014.09007        44.30007
R24  19404147.70507   3001041.37407      -270.09507        43.60007
C28  22440720.62907    152015.34407     -1935.27907        43.00007  22440726.32505    177710.51605     -1445.38105        33.80005
E33  24882365.61307    139793.22007     -1889.81507        42.10007  24882367.41205   3938008.65005     -1411.67805        29.60005
C33  23071556.21107     83115.85307     -1030.59407        42.20007  23071583.19206    125651.85606      -769.42106        37.70006
C27  21414238.74806    -19158.98406       449.86606        41.10006  21414242.64505     52907.08105       336.76905        32.10005
E29  25954315.51806    -44624.29306       788.65106        41.10006  25954316.71706     33238.07606       588.91806        35.60006
R16  22840624.28106   -153407.02206      1368.54606        39.70006
E25  25920891.05706    -57708.08006       710.73706        39.90006  25920892.85625     52551.39225       529.70125        34.40025
R01  19951513.57106   2425936.53506      2013.56006        39.30006
E10  24640459.78106    -34485.68906      1560.13006        38.60006  24640464.27806     -1553.69106      1164.83006        36.70006
R08  20998600.78806   4371221.37006     -2226.54506        38.40006
E16  25242747.62606    183317.34506     -1849.32206        36.80006  25242747.62606    519760.46606     -1380.29106        36.00006
E12  23414790.39506     46187.26206       490.27206        35.80006  23414785.29804     27797.86104       364.80504        29.10004
R15  22276641.21916   2539142.25216     -2245.81416        36.80016
C36  25867390.39525    146423.79525     -1121.67225        35.40025  25867393.99205    127143.63005      -839.30405        34.40005
C41  22974569.75315   -160491.92915      2074.80115        35.10015  22974573.35025    -54101.33625      1557.98825        33.60025
C30  24699795.90425   -135888.48725      2879.96225        34.70025  24699787.21025    -79157.54125      2148.21925        32.70025
E11  25080399.51715    102735.00515      2336.80515        31.30015  25080381.83005    188978.32305      1742.56005        31.10005
R23  23165237.75625   3754288.24825     -3468.93925        32.30025
E07  27788418.19505    213174.25305     -1724.64005        33.10005  27788417.89514    521391.23114     -1287.44114        27.60014
R02  22991450.46724-102465021.49124      4504.18824        26.20024
C42  26891240.09824    239026.68824     -3256.36124        26.10024  26891253.58913    250900.00913     -2424.99213        22.60013
R14  24194519.99924  -1899579.42724     -4130.73724        25.50024
E19  25765454.36414    140761.34614      2792.07214        26.20014                                                                
> 2026 04 21 14 04 19.9999510  0 35                      
G10  23018426.99107    223084.77307     -2833.35807        45.50007  23018427.89106    232146.11506     -2116.02706        40.50006
G02  20551659.69907     12123.75707        36.91907        42.90007                                                                
G01  21296324.37806   -154442.20206      2091.78606        41.10006  21296322.87926    -48815.68026      1561.54226        36.80026
G22  24221234.80526   -123514.17626      1554.31026        40.40026                                                                
G14  23207648.49626    -66116.48926       797.18526        39.70026  23207655.09126     17437.49526       594.72626        36.90026
G08  21086758.05806    174971.63306     -2349.45006        36.90006  21086761.05625    198037.73925     -1740.17725        34.50025
G17  25496314.48525   -171162.87725      3334.42225        32.00025                                                                
G03  23640621.35525   -229040.76625      3736.84825        30.20025  23640602.16805    449696.36105      2785.48405        35.00005
G27  23403992.47026    288341.58326     -3687.72226        35.90026  23403991.27114    280185.26714     -2772.18914        29.10014
G32  22410866.39707      8772.87007       965.11407        44.60007  22410869.39515       672.26715       719.15415        29.50015
R17  21241504.62907   4275129.85207      3014.27407        44.20007
R24  19404201.66707   3001311.52507      -270.75107        43.60007
C28  22441095.07027    153950.46027     -1935.55127        42.90027  22441095.66905    179155.56605     -1445.29105        33.80005
E33  24882726.26407    141682.67107     -1889.70207        42.10007  24882726.86325   3939419.98725     -1409.96025        30.70025
C33  23071754.67327     84146.36327     -1031.05327        42.10027  23071779.25606    126421.41806      -770.02306        37.60006
E29  25954156.62806    -45413.48006       788.86406        41.10006  25954168.32006     32648.73206       589.12706        35.50006
C27  21414153.60726    -19609.51326       450.18826        41.00026  21414158.70325     52570.63825       336.05725        32.00025
R16  22840373.05506   -154775.41006      1367.68806        39.70006
E25  25920750.45406    -58418.68906       711.42906        39.80006  25920759.748 5     52019.918 5       528.711 5        33.300 5
E10  24640168.38306    -36046.46206      1560.62706        38.70006  24640169.28206     -2718.48706      1164.38206        36.80006
R08  20999019.29806   4373446.98806     -2226.07406        38.50006
R01  19951140.33006   2423924.33706      2011.75706        39.20006
E16  25243104.67906    185165.30706     -1846.75906        36.80006  25243101.08106    521140.74606     -1380.73206        36.40006
E12  23414689.66426     45696.75826       493.01826        35.80026  23414693.56214     27432.45114       368.19714        29.10014
R15  22277082.81306   2541402.41406     -2264.86306        36.70006
C36  25867595.45315    147547.43215     -1125.01915        35.40015  25867608.94415    127982.46415      -838.98215        33.90015
C41  22974173.42725   -162569.96025      2074.03725        35.10025  22974177.62405    -55652.04405      1544.50405        33.60005
C30  24699239.78925   -138764.42325      2869.36525        34.60025  24699242.187 5    -81306.332 5      2153.292 5        32.000 5
R23  23165871.51725   3757759.26825     -3473.10925        31.90025
E11  25079959.12205    100396.84005      2335.71605        31.10005  25079938.73605    187235.55805      1742.38705        31.20005
R02  22990642.22624-102469522.74524      4498.98824        26.20024
C42  26891880.75514    242282.97114     -3261.44214        26.20014  26891875.65813    253326.03113     -2425.26513        22.60013
R14  24195299.45924  -1895448.12724     -4131.95724        25.50024
E19  25764921.93214    137976.10114      2792.20714        25.70014                                                                
E07  27788735.37525    214907.58425     -1736.33725        32.60025  27788749.46614    522683.67814     -1291.46614        26.80014
> 2026 04 21 14 04 20.9999497  0 34                      
G10  23018978.90907    225921.37707     -2838.29507        45.90007  23018981.00806    234264.36306     -2119.45106        40.30006
G32  22410699.11207      7811.33307       960.35807        44.60007  22410700.61124       -45.59424       717.51624        29.10024
G02  20551668.69207     12089.10407        32.49207        42.90007                                                                
G01  21295934.34806   -156531.89006      2088.37006        41.30006  21295939.145 6    -50376.336 6      1552.425 6        37.200 6
G22  24220954.79926   -125066.01226      1550.31726        40.50026                                                                
G14  23207516.58726    -66910.67526       793.14926        39.60026  23207517.786 6     16844.601 6       587.177 6        36.500 6
G08  21087219.43806    177325.15306     -2355.77306        36.80006  21087223.03605    199795.47305     -1759.69805        34.90005
G17  25495692.41625   -174498.15325      3337.11625        31.90025                                                                
G27  23404688.28825    292031.53625     -3693.37325        34.90025  23404706.87514    282944.49614     -2771.83314        28.50014
G03  23639908.74825   -232768.80725      3726.90025        30.40025  23639906.05005    446912.37705      2783.08805        35.30005
R24  19404268.52107   3001584.76607      -274.78707        43.70007
R17  21240953.61007   4272117.97807      3009.75807        44.20007
C28  22441475.80627    155888.42127     -1942.38727        42.90027  22441477.60505    180602.78605     -1448.30805        33.80005
E33  24883101.00407    143575.15507     -1894.00307        42.10007  24883100.70405   3940833.03105     -1415.89905        31.70005
C33  23071962.42927     85180.34927     -1037.22527        42.10027  23071990.01006    127193.35906      -773.13106        37.80006
E29  25954029.51606    -46199.30506       784.14506        41.10006  25954032.21405     32061.80805       585.71405        35.40005
C27  21414085.25426    -20056.92526       442.85326        41.00026  21414085.55405     52236.71305       334.16605        31.80005
R16  22840132.32206   -156139.27906      1361.61206        39.80006
R08  20999448.90106   4375675.34606     -2229.73006        38.90006
E25  25920633.23626    -59127.16626       703.91126        39.70026  25920637.43305     51491.16705       528.39005        33.40005
E10  24639879.38326    -37603.92826      1555.81326        38.90026  24639885.07926     -3881.05526      1164.45526        36.90026
R01  19950776.38206   2421915.19506      2007.36706        39.10006
E16  25243463.23126    187016.52126     -1851.84226        36.90026  25243466.52806    522523.07906     -1383.36206        36.60006
E12  23414615.61606     45208.57106       487.52906        35.90006  23414615.31604     27068.49904       362.22504        29.10004
R15  22277504.32106   2543667.29206     -2267.48706        36.50006
C36  25867822.69605    148674.77905     -1127.70305        35.30005  25867837.38505    128824.38605      -843.46705        33.20005
C41  22973789.39325   -164645.33525      2072.55125        35.00025  22973798.68705    -57200.57205      1549.44005        33.60005
C30  24698711.55425   -141641.05825      2875.48825        34.60025  24698709.75605    -83452.09505      2142.75205        32.10005
E07  27789086.73205    216647.17505     -1742.72305        32.30005  27789092.42814    523979.51714     -1296.03714        26.10014
R23  23166540.35425   3761231.54525     -3470.90925        31.60025
E11  25079510.03315     98061.49015      2334.94615        30.90015  25079508.83425    185494.19725      1737.66025        31.50025
R02  22989851.67324-102474031.05424      4509.34324        26.20024
C42  26892509.42014    245541.53914     -3261.21514        26.20014  26892506.42213    255748.95313     -2429.37513        22.50013
R14  24196111.29724  -1891317.42424     -4132.90924        25.50024
> 2026 04 21 14 04 21.9999483  0 34                      
G10  23019517.33607    228736.55107     -2804.46207        45.90007  23019519.13506    236366.54506     -2094.15206        40.30006
G32  22410509.34407      6828.51407       993.21107        44.50007  22410515.34014      -780.70214       745.23314        28.80014
G02  20551659.09907     12033.02207        67.04707        43.00007                                                                
G01  21295535.32406   -158642.83206      2121.57106        41.30006  21295538.92206    -51952.68306      1586.69506        37.30006
G22  24220651.10926   -126638.30126      1583.26926        40.90026                                                                
G08  21087669.42706    179656.63506     -2321.96606        36.80006  21087669.42726    201537.37526     -1739.98926        35.70026
G17  25495063.45125   -177856.48625      3371.36725        31.90025                                                                
G03  23639188.94725   -236519.72625      3760.61425        30.50025  23639194.64305    444112.46905      2807.87405        35.40005
G27  23405391.30125    295700.22325     -3659.56025        33.90025  23405410.78814    285693.70314     -2744.69914        27.80014
G14  23207361.29526    -67725.74126       826.00726        39.40026  23207365.49206     16235.97806       617.98806        36.30006
R24  19404315.88807   3001836.42507      -240.86807        43.90007
C36  25868040.94406    149780.48606     -1095.38806        41.20006  25868046.94015    129650.95515      -818.89315        32.70015
R17  21240392.69907   4269084.15707      3045.04707        44.10007
C28  22441838.55507    157805.47207     -1905.59707        42.80007  22441844.55105    182034.05805     -1423.29905        33.80005
E33  24883455.95807    145446.14907     -1860.25107        42.10007  24883458.35705   3942230.05905     -1388.52305        32.50005
C33  23072152.19807     86192.49207     -1000.72407        42.10007  23072184.57606    127949.54406      -748.30806        37.90006
C27  21413992.91806    -20525.73206       480.50606        41.10006  21414000.11325     51886.66725       357.60725        31.70025
E29  25953879.91906    -47006.39106       817.71706        41.20006  25953880.21905     31459.21305       610.43205        35.40005
R16  22839877.19906   -157524.27606      1395.56306        39.90006
R08  20999862.01506   4377882.30106     -2197.00806        39.10006
E25  25920497.43026    -59856.14926       740.23726        39.60026  25920501.32705     50946.72105       552.29505        35.00005
E10  24639582.88806    -39182.71106      1589.44506        38.90006  24639586.48606     -5060.48406      1186.86006        36.90006
R01  19950399.84206   2419884.08806      2041.34406        39.00006
E16  25243811.88906    188844.45506     -1818.29706        36.90006  25243816.08626    523889.50526     -1361.47426        36.60026
R15  22277931.22606   2545910.33206     -2231.37506        36.40006
C30  24698159.03725   -144536.00825      2905.11225        34.50025  24698161.73505    -85614.03705      2170.03405        34.10005
C41  22973387.67125   -166740.75525      2110.94525        35.00025  22973402.66115    -58768.94415      1578.29715        32.60015
E07  27789404.51215    218364.75715     -1709.58015        32.10015  27789422.50014    525260.95814     -1275.24214        25.40014
R23  23167182.51025   3764683.83525     -3443.55225        31.30025
E11  25079057.64605     95708.54505      2361.74505        30.70005  25079060.94405    183737.38305      1765.54305        31.80005
R02  22989040.73524-102478559.36524      4539.06824        26.20024
C42  26893115.90014    248779.44614     -3228.08114        26.10014  26893120.99613    258162.93913     -2404.02213        22.40013
R14  24196834.69724  -1887198.28824     -4108.10924        25.40024
E12  23414517.88326     44699.56126       518.92226        35.90026  23414521.18114     26689.73514       381.66914        29.10014
> 2026 04 21 14 04 22.9999470  0 34                      
G10  23020066.85607    231551.07107     -2814.19807        45.90007  23020067.75506    238468.22206     -2101.42806        40.50006
G32  22410333.96507      5845.20807       983.55007        44.50007  22410336.06424     -1513.97124       730.35124        28.70024
G02  20551657.90007     11976.26607        57.09307        43.10007                                                                
G01  21295144.69506   -160754.34706      2111.80606        41.30006  21295147.99206    -53529.64606      1577.27306        37.30006
G22  24220369.30426   -128211.47226      1573.36326        40.90026                                                                
G14  23207220.09226    -68540.83026       814.85326        39.30026  23207223.39006     15627.17206       608.89806        36.40006
G08  21088130.20806    181986.66706     -2329.56006        36.70006  21088125.41106    203277.91706     -1739.86306        35.80006
G17  25494450.97525   -181215.92225      3362.99025        31.80025                                                                
G03  23638492.22925   -240270.68225      3751.22925        30.90025  23638493.72806    441311.99306      2800.76406        36.00006
G27  23406111.10325    299365.53625     -3667.38125        33.10025  23406114.40114    288438.81314     -2750.06514        27.30014
R24  19404373.44807   3002087.61007      -250.94807        44.00007
R17  21239841.68007   4266049.70907      3034.76707        44.00007
C28  22442219.59107    159721.32407     -1915.25507        42.80007  22442222.28905    183464.94405     -1430.69505        33.80005
E33  24883825.60307    147316.17307     -1869.54207        42.10007  24883826.80205   3943626.43705     -1396.05405        32.80005
C33  23072366.25027     87204.86627     -1013.99127        42.00027  23072390.53306    128705.28606      -755.52106        38.00006
C27  21413916.77006    -20995.24806       469.87106        41.30006  21413923.36605     51535.95805       351.04205        31.60005
C36  25868272.08427    150885.66027     -1104.91027        42.10027  25868273.88315    130475.61915      -826.71315        31.90015
E29  25953734.22006    -47814.01606       807.89606        41.20006  25953739.91605     30856.07305       603.41305        35.40005
R16  22839642.16106   -158908.40606      1385.19906        39.90006
R08  21000290.11806   4380089.14906     -2207.29706        39.10006
E10  24639300.18426    -40762.78026      1580.71326        38.90026  24639299.28526     -6240.01326      1176.58226        36.70026
E25  25920367.32006    -60585.83706       728.54206        39.50006  25920375.41406     50401.91706       544.98306        35.50006
R01  19950025.10206   2417853.42606      2030.69106        38.90006
E16  25244172.83926    190673.89526     -1829.69526        36.90026  25244177.93606    525255.57206     -1369.39006        36.80006
E12  23414440.23706     44189.32106       510.85606        36.00006  23414436.93914     26309.97414       381.76114        29.00014
R15  22278363.82606   2548152.87406     -2243.29606        36.30006
C30  24697610.11705   -147432.03605      2896.57005        34.90005  24697622.10905    -87776.46705      2162.67705        34.10005
C41  22973004.23705   -168835.41905      2092.79005        34.90005  22973015.62915    -60333.94715      1567.82015        31.50015
R23  23167835.15825   3768135.06025     -3451.19625        31.20025
E07  27789762.76415    220077.33615     -1706.08015        31.90015  27789760.06614    526544.23714     -1281.20114        24.80014
E11  25078632.24115     93348.95215      2361.42115        30.50015  25078624.44605    181979.73805      1758.06305        31.80005
R02  22988201.01624-102483088.31624      4526.27624        26.10024
C42  26893773.04514    252016.49514     -3240.62414        26.10014  26893746.66313    260573.35013     -2412.62613        22.20013
R14  24197705.29424  -1883085.71324     -4115.30024        25.40024
> 2026 04 21 14 04 23.9999456  0 35                      
G10  23020583.39807    234363.20407     -2811.69407        45.90007  23020585.79706    240568.25006     -2099.20606        40.50006
G32  22410134.30307      4860.49007       985.42507        44.40007  22410134.30304     -2249.65104       735.88504        28.80004
G02  20551633.61707     11917.41607        59.89707        43.20007                                                                
G01  21294723.48606   -162868.22406      2115.80906        41.30006  21294729.78226    -55109.61426      1584.47326        37.20026
G22  24220050.02526   -129786.91026      1575.82326        40.90026                                                                
G14  23207048.31126    -69358.22026       818.54126        39.10026  23207050.71006     15016.80906       611.14206        36.80006
G08  21088554.41406    184314.94506     -2327.90406        36.70006  21088552.01606    205017.33806     -1738.36406        36.20006
G03  23637756.53825   -244024.00325      3755.26025        31.20025  23637763.73316    438510.13916      2804.04716        36.10016
G17  25493785.43625   -184576.74125      3358.76725        31.70025                                                                
G27  23406771.54625    303032.14425     -3666.51025        32.40025  23406794.33014    291179.06114     -2742.32114        26.90014
R24  19404403.72707   3002336.67207      -248.00107        44.10007
R17  21239252.88807   4263013.09307      3037.70407        43.90007
C28  22442565.55227    161635.60127     -1911.99427        42.70027  22442570.04905    184894.22005     -1428.47405        34.10005
E33  24884160.17107    149183.77607     -1866.39407        42.10007  24884164.96825   3945023.35725     -1394.19225        32.80025
C27  21413809.44506    -21466.76306       472.51506        41.40006  21413816.94005     51183.84605       352.81305        31.50005
C33  23072543.12707     88214.76607     -1009.66407        42.00007  23072565.61206    129459.60306      -753.60606        38.00006
E29  25953558.24206    -48623.78706       810.84406        41.20006  25953567.83505     30251.33605       605.53605        35.30005
C36  25868451.36027    151989.11127     -1101.09127        42.00027  25868465.15115    131299.00215      -820.24415        31.20015
R16  22839347.16606   -160294.79206      1387.01606        39.90006
R08  21000685.24506   4382294.37006     -2204.16006        39.10006
E10  24638980.30506    -42344.68006      1582.81806        38.90006  24638981.50506     -7421.69406      1183.75806        36.30006
R01  19949633.87206   2415821.08306      2033.18806        38.80006
E25  25920216.22416    -61318.25216       734.27916        39.40016  25920218.32306     49855.62906       547.03206        36.00006
E16  25244505.30906    192501.11306     -1826.10906        37.00006  25244509.20706    526620.09806     -1362.25806        36.90006
E12  23414315.52306     43677.10706       513.20206        36.00006  23414318.82124     25929.26924       369.17624        28.80024
R15  22278764.34916   2550394.35316     -2239.94916        36.20016
C30  24697050.40425   -150331.48725      2899.66825        34.90025  24697055.80125    -89940.82925      2166.83025        33.80025
R23  23168485.10825   3771582.95625     -3447.48625        32.30025
E07  27790057.76015    221787.62815     -1707.15015        31.60015  27790067.35314    527823.28414     -1276.43314        24.20014
E11  25078187.04915     90989.44315      2365.96915        30.30015  25078160.66725    180218.77425      1767.12525        31.80025
R02  22987259.66824-102487622.62224      4534.99124        26.10024
C42  26894324.96314    255247.50814     -3229.49914        26.00014  26894349.24613    262983.53913     -2409.08213        22.10013
R14  24198438.28624  -1878976.09424     -4109.64624        25.30024
C41  22972590.52305   -170932.93805      2098.94905        34.90005  22972600.11605    -61900.32105      1565.56205        31.60005
E19                                                                 640337368.88112    667035.17712      2023.49712        13.40012
> 2026 04 21 14 04 24.9999443  0 34                      
G10  23021133.21807    237175.22907     -2811.72407        45.90007  23021134.41706    242668.14906     -2099.83706        40.40006
G32  22409957.42607      3875.72507       984.04007        44.40007  22409957.42624     -2985.00924       734.19924        29.10024
G02  20551633.31707     11858.96407        58.25407        43.30007                                                                
G01  21294339.15206   -164981.63306      2112.92906        41.30006  21294340.35206    -56688.60706      1591.00806        37.20006
G22  24219768.22026   -131361.61126      1573.83526        40.80026                                                                
G14  23206911.30626    -70175.10426       816.63226        39.00026  23206909.50706     14407.17106       609.27606        37.20006
G08  21089017.59416    186642.82816     -2327.43816        36.60016  21089009.19906    206757.19306     -1740.07306        36.60006
G03  23637056.82325   -247777.75825      3752.97625        31.70025  23637061.619 6    435707.704 6      2808.230 6        36.100 6
G17  25493155.27225   -187937.38725      3364.81225        31.60025                                                                
G27  23407490.74825    306699.12225     -3666.91825        31.80025  23407491.64714    293917.82814     -2737.03014        26.40014
R24  19404463.08607   3002586.17007      -249.71607        44.10007
R17  21238707.26607   4259976.56207      3036.49207        43.80007
C28  22442945.08907    163549.02007     -1913.49107        42.60007  22442945.98805    186323.27405     -1428.94405        34.20005
E33  24884528.01607    151051.39207     -1867.62607        42.10007  24884535.211 5   3946417.690 5     -1395.541 5        33.000 5
C27  21413738.09406    -21937.88406       470.92506        41.40006  21413738.69425     50832.09925       351.56625        31.50025
C33  23072743.38907     89225.10407     -1010.05807        41.90007  23072770.67006    130214.02106      -754.47006        37.90006
E29  25953413.74206    -49433.23806       809.29306        41.10006  25953428.13205     29647.01405       604.11605        35.20005
R16  22839104.93306   -161679.60906      1384.03506        39.90006
R08  21001110.65006   4384500.32306     -2206.32206        39.40006
C36  25868676.20527    153093.41727     -1105.23527        41.70027  25868689.69505    132124.01005      -823.32105        32.90005
E10  24638691.90526    -43927.14826      1582.75426        38.90026  24638692.80526     -8602.81326      1179.33926        36.00026
R01  19949269.02506   2413789.08906      2031.07106        38.70006
E16  25244872.85506    194328.84406     -1827.99006        37.20006  25244870.15706    527985.00706     -1365.10206        36.90006
R15  22279199.34806   2552636.73706     -2243.09006        36.20006
E12  23414235.77826     43165.09526       511.91126        36.00026  23414234.87904     25546.95404       385.62104        28.90004
R23  23169129.662 5   3775031.527 5     -3448.413 5        34.200 5
C30  24696517.07425   -153229.52425      2897.83325        35.00025  24696517.67315    -92108.25215      2174.45615        33.30015
C41  22972192.39925   -173031.16225      2098.57925        34.90025  22972215.18325    -63466.69225      1558.87025        31.90025
E25  25920091.51106    -62051.02806       729.95806        39.10006  25920093.30906     49309.89606       545.45506        36.00006
E07  27790408.21715    223500.09315     -1714.55415        31.30015  27790407.01824    529103.30924     -1282.51524        23.60024
E11  25077736.16125     88629.95925      2361.97525        30.10025  25077725.96805    178459.76605      1761.03305        31.70005
R02  22986481.40724-102492155.84424      4535.18524        26.20024
C42  26894967.71814    258482.93114     -3232.13214        26.00014  26894980.60913    265393.76413     -2410.24613        22.00013
R14  24199234.83524  -1874868.61424     -4106.16624        25.30024
> 2026 04 21 14 04 25.9999429  0 34                      
G10  23021671.04507    239986.45707     -2810.83307        45.80007  23021671.34506    244767.40806     -2098.94306        40.30006
G32  22409771.25507      2890.36907       985.90307        44.30007  22409774.85205     -3720.87605       730.62205        29.60005
G02  20551626.12207     11799.62607        60.53007        43.30007                                                                
G22  24219466.92926   -132936.47826      1575.95326        40.90026                                                                
G01  21293939.22906   -167095.93706      2114.75406        41.20006  21293940.42826    -58267.10226      1576.74926        37.00026
G14  23206755.71426    -70993.35426       820.43426        38.90026  23206755.41406     13797.09006       610.30206        37.50006
G08  21089454.69106    188971.26106     -2327.96206        36.50006  21089452.89206    208496.44606     -1738.95506        36.60006
G03  23636347.51425   -251534.58225      3758.61325        32.00025  23636349.91206    432905.09106      2800.70706        37.30006
G17  25492528.70625   -191299.75725      3360.48825        31.60025                                                                
G27  23408182.06925    310363.92225     -3665.96625        31.30025  23408202.45514    296656.02314     -2735.91314        26.10014
R24  19404514.05107   3002835.14307      -248.71207        44.10007
R17  21238133.46307   4256939.12607      3037.89307        43.80007
C28  22443316.23207    165462.11607     -1912.93807        42.60007  22443313.23405    187751.64605     -1428.03305        34.20005
E33  24884890.76507    152917.78007     -1865.77707        42.10007  24884891.96405   3947811.46005     -1392.99105        33.10005
C27  21413652.95306    -22409.83206       472.36206        41.40006  21413652.05425     50479.46225       359.08125        31.60025
C33  23072931.65827     90235.79527     -1012.36927        41.80027  23072963.73606    130968.26906      -754.16306        37.90006
R16  22838850.70906   -163067.49206      1389.41706        40.30006
E29  25953275.83826    -50243.45126       810.59426        41.10026  25953275.53805     29041.86405       605.56505        35.00005
R08  21001521.96506   4386705.82306     -2205.27606        39.60006
C36  25868900.15026    154196.68226     -1101.24526        41.30026  25868900.44905    132947.70205      -824.03605        33.50005
E10  24638389.71406    -45509.59406      1583.93806        38.90006  24638393.91106     -9784.56106      1182.56406        35.80006
R01  19948890.68706   2411757.05806      2034.55406        38.70006
E16  25245217.61606    196155.34606     -1825.89006        37.30006  25245219.11506    529349.13506     -1363.74006        37.00006
R15  22279622.65516   2554876.47516     -2239.16916        36.30016
R23  23169767.920 6   3778479.166 6     -3447.178 6        35.800 6
E12  23414140.44406     42651.85306       513.85806        36.00006  23414140.74414     25164.21014       387.95914        28.90014
C30  24695973.25025   -156128.60525      2899.60825        35.00025  24695966.95415    -94275.03015      2164.46015        32.70015
C41  22971809.26425   -175133.21225      2103.96525        34.90025  22971816.75905    -65033.04305      1567.34405        32.20005
E25  25919959.00216    -62783.19016       734.35616        38.40016  25919956.30406     48763.36006       546.93906        36.00006
C42  26895593.68525    261717.23825     -3233.75425        31.30025  26895602.97813    267804.70413     -2408.30113        21.90013
E07  27790725.69815    225209.74815     -1706.75215        31.10015  27790733.19213    530386.98213     -1281.99913        23.10013
E11  25077280.47715     86267.32715      2365.71015        30.00015  25077279.87725    176700.05725      1755.56125        31.60025
R02  22985635.69224-102496689.45024      4531.05424        26.60024
R14  24200001.10424  -1870761.07824     -4105.07024        25.40024
> 2026 04 21 14 04 26.9999415  0 34                      
G10  23022189.68607    242799.49607     -2813.94907        45.80007  23022190.28606    246868.07206     -2101.36906        39.80006
G32  22409568.29507      1907.31207       981.90807        44.50007  22409569.49405     -4455.11205       735.42205        30.40005
G02  20551597.94107     11742.08507        56.39207        43.30007                                                                
G22  24219152.44626   -134510.06226      1573.44526        41.40026                                                                
G01  21293520.71906   -169208.71806      2112.02306        41.20006  21293521.91806    -59844.88306      1583.92606        37.00006
G14  23206580.03626    -71807.79726       813.54026        38.90026  23206583.03326     13188.05926       608.50826        37.50026
G03  23635617.51925   -255288.49825      3750.96925        32.30025  23635618.11906    430103.89406      2800.49206        36.50006
G17  25491864.36625   -194661.10725      3360.59425        31.50025                                                                
G27  23408865.59625    314031.89025     -3665.80625        30.90025  23408868.89414    299396.13314     -2735.57114        25.80014
G08  21089891.48916    191299.99416     -2328.38616        36.40016  21089878.29806    210237.03406     -1741.25906        36.50006
R24  19404540.43307   3003086.21107      -251.36607        44.10007
R17  21237550.96607   4253903.16007      3036.73407        43.80007
C28  22443665.79007    167377.15007     -1916.00607        42.50007  22443660.09405    189181.90705     -1431.20705        34.20005
E33  24885227.13207    154786.24007     -1867.99807        42.00007  24885229.23125   3949206.85725     -1394.71225        33.10025
C27  21413545.62706    -22880.04106       469.34106        41.40006  21413547.12605     50128.61405       347.95405        31.60005
C33  23073111.53407     91247.84707     -1010.73407        41.70007  23073140.01426    131723.96326      -756.41926        37.50026
R16  22838576.99906   -164452.64806      1383.79606        40.50006
E29  25953099.26006    -51051.98406       809.19506        41.00006  25953103.75705     28438.31305       602.75205        34.80005
R08  21001919.49006   4388913.47806     -2208.73606        40.00006
C36  25869077.92726    155300.70026     -1106.39726        41.00026  25869094.71505    133772.77805      -825.76805        34.20005
E10  24638077.63026    -47092.14726      1583.60926        38.80026  24638076.43106    -10965.37706      1180.35306        35.70006
R01  19948489.56506   2409727.33006      2027.82906        38.70006
R23  23170407.97706   3781928.45206     -3450.11406        36.90006
E16  25245552.78426    197984.37026     -1828.78826        37.30026  25245550.38606    530714.72406     -1366.32106        37.00006
R15  22280017.18206   2557121.47206     -2248.12906        36.40006
E12  23414027.42306     42140.01606       509.63506        36.10006  23414027.12314     24781.94014       380.53414        28.90014
E25  25919792.31806    -63512.39906       731.73306        37.80006  25919800.71216     48217.91216       544.90316        35.70016
C30  24695393.75125   -159028.85625      2900.84025        35.00025  24695398.548 5    -96440.463 5      2166.262 5        32.500 5
C41  22971388.65525   -177230.32725      2091.65125        34.80025  22971400.04725    -66598.34625      1566.78125        32.20025
C42  26896185.47525    264951.99325     -3236.98325        31.40025  26896188.47313    270220.55713     -2413.31213        21.80013
E07  27791044.37715    226921.92615     -1700.44215        30.90015  27791041.37913    531666.14713     -1283.91313        22.60013
E11  25076832.88615     83906.42215      2362.04615        29.80015  25076815.19905    174941.41405      1759.11305        31.50005
R02  22984702.13824-102501222.14624      4533.74724        26.80024
R14  24200734.69724  -1866649.15524     -4114.12224        25.40024
> 2026 04 21 14 04 27.9999402  0 34                      
G10  23022737.70707    245611.72507     -2811.82807        45.80007  23022738.90626    248968.36026     -2101.60226        38.90026
G32  22409399.21207       923.81707       985.96507        44.60007  22409396.51405     -5189.57205       734.57205        30.70005
G02  20551598.84107     11684.24507        57.99007        43.30007                                                                
G22  24218865.84527   -136084.02127      1573.14727        41.60027                                                                
G01  21293132.18806   -171321.87006      2113.33906        41.20006  21293133.68726    -61423.13626      1575.99026        37.00026
G14  23206437.63426    -72623.11526       815.25826        38.90026  23206442.13106     12580.60506       608.16606        37.40006
G03  23634913.30725   -259041.29925      3752.74725        32.70025  23634916.90425    427301.54725      2807.42625        35.30025
G17  25491245.59425   -198025.03825      3363.97625        31.50025                                                                
G08  21090346.57306    193629.94306     -2331.56006        36.30006  21090336.38106    211977.62906     -1740.60106        36.40006
G27  23409568.60925    317699.90525     -3669.04425        33.80025  23409574.00614    302132.28614     -2733.17814        25.60014
R24  19404600.09107   3003336.70207      -251.20207        44.00007
R17  21236994.25107   4250866.56607      3036.41307        43.70007
C28  22444037.83307    169291.53307     -1914.06007        42.40007  22444037.23305    190611.43605     -1429.16405        34.10005
C33  23073317.19107     92259.51207     -1011.97307        41.60007  23073346.57116    132478.33716      -756.71516        36.70016
C27  21413462.58506    -23350.46006       470.52406        41.40006  21413470.67925     49776.82925       353.75525        31.60025
E33  24885600.37427    156653.29127     -1868.34927        41.90027  24885596.77625   3950601.84125     -1386.27825        32.80025
R16  22838333.26706   -165835.87106      1380.75806        40.50006
E29  25952955.35906    -51860.28006       807.67906        40.80006  25952965.85225     27834.64925       603.72125        34.20025
R08  21002350.29206   4391120.54006     -2206.76906        40.10006
C36  25869305.76926    156405.22926     -1104.28526        40.70026  25869317.76105    134597.74305      -824.91105        34.90005
E10  24637785.63306    -48673.73606      1580.60906        38.80006  24637789.23006    -12146.52006      1181.30706        36.10006
R01  19948129.81406   2407698.31006      2029.41806        38.60006
R23  23171057.92706   3785377.27006     -3448.58806        37.70006
E16  25245913.43406    199811.81706     -1825.66006        37.30006  25245911.33626    532080.46526     -1364.31926        37.00026
E25  25919672.10126    -64243.02226       728.33126        37.50026  25919675.39905     47674.09105       544.51005        35.20005
R15  22280460.57506   2559364.36506     -2240.09406        36.50006
E12  23413940.78306     41628.53106       511.81006        36.10006  23413942.28224     24399.32324       382.79024        29.10024
C30  24694855.62425   -161929.38125      2906.66625        35.10025  24694859.52125    -98605.27225      2164.00025        32.40025
C41  22970997.72625   -179326.49125      2096.69125        34.70025  22971014.81405    -68163.62105      1564.76205        32.40005
C42  26896819.53625    268186.80425     -3235.84325        31.60025  26896816.53813    272634.85313     -2418.52113        21.90013
E07  27791387.93905    228635.84005     -1719.28305        30.70005  27791382.84313    532941.66513     -1274.69513        22.20013
E11  25076387.69515     81547.09715      2359.03715        29.70015  25076379.30005    173181.86005      1760.01005        31.40005
R02  22983898.69524-102505755.06424      4531.28524        26.90024
R14  24201531.24524  -1862544.22624     -4105.43824        25.40024
> 2026 04 21 14 04 28.9999389  0 34                      
G10  23023268.93907    248423.09807     -2810.94907        45.70007  23023268.93906    251065.54906     -2102.64306        38.50006
G32  22409206.44607       -60.35507       983.76207        44.60007  22409204.64725     -5923.94725       734.33425        30.70025
G02  20551583.85107     11625.36907        59.39407        43.20007                                                                
G22  24218560.65627   -137658.31927      1574.72127        41.70027                                                                
G01  21292727.76806   -173435.81506      2116.59506        41.10006  21292726.56906    -63001.52306      1578.45706        37.70006
G14  23206282.64126    -73438.68826       816.45026        39.10026  23206282.64126     11973.62826       604.74026        36.80026
G08  21090776.17606    195959.65806     -2329.35006        36.20006  21090775.27726    213716.53426     -1738.06226        35.60026
G27  23410271.92325    321366.74425     -3666.25525        35.40025  23410268.32514    304868.57014     -2735.85314        25.50014
G03  23634194.10415   -262795.28115      3752.32715        33.10015  23634197.70215    424498.27215      2805.24215        34.40015
G17  25490593.84625   -201386.08025      3362.35325        31.40025                                                                
R24  19404640.86307   3003586.74507      -248.81907        44.00007
R17  21236423.44707   4247829.36907      3037.50207        43.70007
C28  22444395.78507    171204.97407     -1912.97207        42.30007  22444396.98405    192040.32905     -1428.57805        34.00005
C33  23073500.66407     93270.42107     -1010.53307        41.60007  23073533.94106    133233.26606      -754.20806        36.10006
C27  21413372.04806    -23821.88106       471.92306        41.40006  21413375.34505     49425.15605       351.11705        31.80005
E33  24885944.83507    158519.70507     -1865.59807        41.80007  24885948.73325   3951996.90625     -1396.60925        32.40025
R08  21002750.51506   4393327.76806     -2207.31406        40.20006
R16  22838071.24906   -167218.90606      1384.94206        40.50006
E29  25952803.36506    -52669.86006       810.22206        40.70006  25952800.966 5     27230.954 5       608.211 5        33.300 5
E10  24637475.64706    -50256.48306      1583.32906        38.90006  24637482.24306    -13328.41406      1182.27106        36.70006
C36  25869514.12506    157509.36206     -1102.43706        40.40006  25869522.51906    135422.21506      -824.22806        35.50006
R01  19947733.78806   2405667.28006      2031.03806        38.60006
R23  23171694.98606   3788825.58006     -3448.06006        38.10006
E16  25246253.39926    201639.44526     -1829.72126        37.30026  25246253.39906    533444.88106     -1367.25406        36.90006
E25  25919526.70206    -64973.78406       732.83206        37.40006  25919530.29915     47128.66715       548.72515        34.80015
R15  22280885.68006   2561603.52306     -2240.79406        36.50006
E12  23413831.35806     41115.74406       513.43806        36.10006  23413839.75305     24016.61605       382.75305        30.00005
C30  24694299.50925   -164829.73025      2898.26525        35.10025  24694304.006 5   -100771.161 5      2155.932 5        32.300 5
C41  22970597.50305   -181423.51905      2097.46205        34.90005  22970610.39405    -69729.55305      1566.26405        33.20005
C42  26897420.62025    271420.53425     -3232.69425        31.70025  26897434.11013    275057.26213     -2420.96913        21.90013
E07  27791702.72105    230347.24605     -1711.65405        30.60005  27791703.92013    534217.02413     -1275.78113        21.90013
E11  25075944.30215     79183.02915      2362.94315        29.50015  25075926.01405    171421.65705      1760.53105        31.40005
R02  22983010.70924-102510288.13624      4534.40524        27.00024
R14  24202275.03024  -1858438.86024     -4102.83924        25.40024
> 2026 04 21 14 04 29.9999375  0 34                      
G10  23023787.88007    251236.09807     -2813.81707        45.70007  23023786.08106    253166.00106     -2099.58506        38.40006
G32  22408992.69407     -1042.68807       982.91507        44.50007  22409001.08805     -6657.04205       730.95605        30.60005
G02  20551553.27207     11568.24007        55.50607        43.20007                                                                
G22  24218247.67327   -139230.30327      1570.07927        41.90027                                                                
G01  21292308.05806   -175549.92906      2112.70106        41.10006  21292307.75926    -64578.03226      1577.07226        37.80026
G14  23206104.86426    -74252.06926       812.03726        39.30026  23206112.35916     11366.64816       595.48216        36.00016
G08  21091197.08506    198292.17006     -2333.91406        36.10006  21091203.08125    215458.44625     -1746.41925        34.50025
G03  23633462.91115   -266548.62815      3752.28515        33.20015  23633467.10815    421696.18115      2806.50415        33.70015
G17  25489934.60225   -204747.23225      3358.21125        31.40025                                                                
G27  23410948.25426    325034.85126     -3668.74726        35.80026  23410948.254 4    307607.554 4     -2739.337 4        26.300 4
R24  19404671.74207   3003838.39107      -252.69907        43.90007
R17  21235836.75307   4244793.88007      3034.63907        43.60007
C28  22444736.34907    173119.84107     -1915.58307        42.30007  22444742.64505    193470.35505     -1430.59405        34.00005
C33  23073678.14207     94283.13007     -1013.61007        41.60007  23073712.01826    133990.61726      -761.56226        35.60026
C27  21413273.41606    -24291.32606       468.45706        41.40006  21413268.02005     49074.35805       350.36105        31.80005
E33  24886292.59507    160387.27407     -1868.14907        41.70007  24886288.69725   3953392.17925     -1395.87825        32.00025
R16  22837790.34306   -168601.47406      1381.83706        40.60006
R08  21003148.04006   4395537.00306     -2210.24106        40.50006
E29  25952626.78706    -53477.65306       806.90206        40.60006  25952633.38215     26629.28315       600.66115        32.60015
E10  24637163.56306    -51837.49506      1580.14606        38.90006  24637164.46306    -14508.74506      1179.55106        36.80006
C36  25869700.29626    158615.18626     -1107.17026        40.10026  25869717.38425    136249.12125      -826.62425        35.20025
R01  19947354.25106   2403639.39706      2027.31206        38.50006
R23  23172336.54216   3792275.28016     -3451.14916        38.10016
E16  25246584.97006    203469.04506     -1830.09006        37.30006  25246585.26906    534811.24506     -1366.34106        36.80006
E25  25919367.81206    -65702.23206       728.29306        37.30006  25919375.60605     46584.59005       542.40605        34.30005
R15  22281286.50316   2563846.11616     -2243.31416        36.50016
E12  23413723.73306     40604.42506       510.58706        36.00006  23413724.03325     23635.35425       382.04025        30.10025
C41  22970185.58825   -183518.11225      2093.37925        35.30025  22970195.78105    -71294.06905      1563.81005        33.70005
C30  24693726.30615   -167729.54415      2896.55015        35.10015  24693735.29915   -102935.07715      2166.43315        32.00015
C42  26898024.40225    274655.61125     -3237.25625        31.90025  26898036.39313    277471.17813     -2420.17313        21.80013
E07  27792015.10525    232060.70925     -1710.99425        30.60025  27792013.00613    535493.22213     -1277.62113        21.70013
E11  25075488.91714     76822.26814      2358.61114        29.40014  25075460.43705    169661.67905      1758.36805        31.40005
R02  22982169.49224-102514817.56524      4528.11424        27.10024
R14  24203066.48224  -1854328.30124     -4112.16324        25.50024
> 2026 04 21 14 04 30.9999363  0 34                      
G10  23024344.59507    254046.34007     -2809.61707        45.60007  23024346.39306    255265.79206     -2097.96406        38.20006
G02  20551565.86407     11509.20407        60.24007        43.20007                                                                
G22  24217969.16527   -140805.92927      1576.94827        42.10027                                                                
G32  22408835.30307     -2027.24207       985.16607        44.30007  22408840.39915     -7388.31415       735.36115        30.20015
G14  23205974.45526    -75067.67126       816.71426        39.50026  23205981.05015     10756.37215       615.92515        35.20015
G27  23411669.25526    328700.80326     -3664.12926        36.80026  23411672.85324    310344.67324     -2735.19024        27.60024
G08  21091668.65816    200620.82516     -2328.22916        36.10016  21091669.25825    217196.83625     -1735.62925        34.00025
G03  23632777.88525   -270301.64825      3754.11025        33.20025  23632778.78415    418892.71615      2806.65515        33.20015
G17  25489318.82825   -208106.51325      3360.59925        31.30025                                                                
G01  21291927.02206   -177664.14306      2116.76606        41.00006  21291930.62006    -66157.47306      1580.40906        38.60006
R24  19404743.69207   3004088.02307      -248.62507        43.80007
R17  21235301.92307   4241755.12207      3041.14507        43.50007
C28  22445138.37127    175031.69027     -1913.34327        42.20027  22445132.37515    194899.85715     -1421.74115        33.70015
C33  23073892.79327     95293.47827     -1010.66927        41.60027  23073926.96905    134744.64905      -755.87405        35.10005
C27  21413200.56606    -24763.14306       473.00406        41.40006  21413206.86225     48722.30525       342.18125        31.80025
R16  22837568.19706   -169982.11906      1381.18506        40.80006
E33  24886668.83407    162254.23807     -1863.66307        41.60007  24886666.73625   3954785.03525     -1391.65025        31.70025
R08  21003582.43906   4397744.32206     -2206.36406        40.60006
E29  25952497.27706    -54287.62606       811.06306        40.50006  25952505.97125     26024.92725       599.19825        31.70025
E10  24636885.35626    -53420.69826      1587.30126        39.10026  24636888.05406    -15691.23706      1183.57406        36.90006
C36  25869941.92826    159718.79226     -1102.49826        39.90026  25869950.922 6    137072.866 6      -815.166 6        36.600 6
R01  19946992.40106   2401609.51506      2031.38506        38.40006
E16  25246964.20726    205295.42726     -1824.77426        37.40026  25246957.61206    536175.80306     -1363.65606        36.60006
R23  23172988.89006   3795721.45906     -3444.92306        38.00006
E25  25919256.28906    -66433.71106       730.99406        37.20006  25919261.98525     46039.42325       547.21225        34.00025
R15  22281718.50406   2566089.73306     -2244.88006        36.60006
E12  23413647.58606     40090.77106       514.82106        36.00006  23413650.58415     23250.37715       390.83515        30.10015
C41  22969818.94226   -185617.18026      2099.80826        35.50026  22969821.04005    -72860.44605      1567.30905        34.20005
C30  24693204.36725   -170630.73225      2901.37925        35.10025  24693208.564 5   -105102.161 5      2173.170 5        31.500 5
C42  26898659.96215    277889.70015     -3230.09815        31.90015  26898679.44813    279889.23813     -2418.63513        21.70013
E07  27792359.56615    233774.75815     -1719.84515        30.50015  27792355.36913    536771.86313     -1277.86313        21.50013
E11  25075042.22604     74464.02604      2354.48504        29.30004  25075036.23005    167900.67005      1762.02605        31.30005
R02  22981362.45024-102519351.14824      4530.16624        27.30024
R14  24203891.51124  -1850224.97924     -4103.95724        25.60024
> 2026 04 21 14 04 31.9999349  0 34                      
G10  23024862.63607    256856.54907     -2812.19607        45.60007  23024866.23326    257365.02626     -2100.95826        37.70026
G02  20551540.38117     11449.62217        60.60517        43.10017                                                                
G22  24217658.28127   -142379.44127      1572.70827        42.10027                                                                
G01  21291509.71106   -179778.63806      2114.63906        41.00006  21291511.51006    -67736.43706      1578.72806        38.60006
G14  23205803.27326    -75882.47626       814.40726        39.90026  23205806.27105     10146.40205       609.81805        34.70005
G32  22408636.24107     -3010.45207       983.28907        43.70007  22408634.14215     -8123.81715       734.62015        29.50015
G27  23412352.78226    332366.64726     -3666.79526        37.20026  23412351.58314    313078.67314     -2725.44514        28.20014
G03  23632043.09425   -274056.92925      3756.91825        33.50025  23632046.39125    416086.71725      2817.77025        32.80025
G17  25488657.48625   -211468.41725      3362.72025        31.80025                                                                
G08  21092097.96106    202949.40906     -2326.55206        36.10006  21092096.76225    218936.80925     -1743.76825        33.60025
R24  19404781.16607   3004338.76207      -250.54207        43.70007
R17  21234713.43007   4238716.67207      3038.05107        43.40007
C28  22445475.33727    176944.50827     -1910.80527        42.10027  22445479.53415    196326.18115     -1425.73615        33.00015
C33  23074082.56227     96305.54027     -1012.41927        41.60027  23074102.64805    135499.67005      -754.01505        34.80005
C27  21413091.74226    -25234.31326       469.34726        41.30026  21413098.93715     48369.44415       355.26615        31.70015
R08  21003977.86506   4399952.07706     -2208.72706        40.70006
R16  22837286.69206   -171363.26906      1380.15506        40.80006
E33  24886996.20826    164118.80126     -1861.36626        41.40026  24887003.10325   3956179.02025     -1388.55125        31.50025
C30  24692639.25806   -173530.97106      2900.26806        38.60006  24692639.25815   -107269.66615      2164.71915        31.10015
E29  25952331.49106    -55095.64506       808.54406        40.40006  25952337.48715     25421.57215       603.35615        30.90015
E10  24636568.77506    -55004.13106      1581.05006        39.30006  24636568.47526    -16873.41926      1186.52826        36.10026
C36  25870129.59906    160823.00706     -1104.52206        39.60006  25870144.58806    137897.55406      -827.66006        37.60006
R01  19946598.77406   2399579.54206      2028.27206        38.40006
R15  22282117.82706   2568334.78206     -2243.27006        36.80006
R23  23173622.65106   3799168.23406     -3446.82906        37.90006
E16  25247290.08106    207120.98506     -1825.14906        37.40006  25247288.58206    537540.46806     -1364.72106        36.50006
E25  25919117.78526    -67164.82026       728.42526        37.20026  25919103.99405     45492.68505       550.02405        33.70005
C41  22969390.23906   -187715.12006      2096.37906        35.50006  22969406.42725    -74426.33125      1562.64125        34.40025
E12  23413536.96206     39577.65606       511.34506        35.90006  23413539.66014     22867.38114       383.50714        29.30014
C42  26899261.04625    281122.23225     -3232.75925        31.80025  26899282.03113    282303.72813     -2410.70813        21.50013
E07  27792671.65025    235484.28525     -1708.76825        30.50025  27792653.36313    538051.22313     -1281.72113        21.40013
E11  25074579.94604     72103.27604      2366.00804        29.20004  25074570.65325    166139.15225      1766.27525        31.20025
R02  22980489.75524-102523886.22824      4537.58524        27.70024
R14  24204629.60024  -1846117.90524     -4107.70724        25.70024
> 2026 04 21 14 04 32.9999336  0 34                      
G10  23025394.76707    259668.69107     -2812.36207        45.50007  23025396.26606    259463.26806     -2098.74806        37.10006
G22  24217356.09027   -143952.68127      1573.10627        42.10027                                                                
G14  23205643.18426    -76698.15126       813.86126        40.00026  23205647.38126      9538.38126       607.04726        37.40026
G32  22408441.67507     -3993.17307       983.72707        43.10007  22408445.27324     -8852.32624       725.51224        29.00024
G27  23413047.40126    336032.14126     -3665.82426        37.20026  23413044.10314    315812.75114     -2739.62114        28.20014
G02  20551527.79027     11389.53327        61.59327        42.50027                                                                
G03  23631324.19115   -277815.92415      3759.10715        33.50015  23631326.59015    413282.03315      2804.53115        32.40015
G17  25488006.937 5   -214828.202 5      3357.980 5        32.000 5                                                                
G01  21291101.69406   -181892.66106      2113.53906        40.90006  21291105.59126    -69315.21026      1577.17926        38.70026
G08  21092538.65606    205277.98106     -2329.82006        36.10006  21092535.65825    220676.90925     -1739.16625        33.50025
R24  19404818.04107   3004588.72307      -249.82307        43.50007
R17  21234147.12207   4235676.67107      3043.03007        43.30007
R08  21004383.48406   4402160.89006     -2209.09506        40.70006
C33  23074256.14127     97316.89727     -1012.50727        41.50027  23074290.31815    136255.56315      -753.33015        34.50015
R16  22837022.27506   -172745.63406      1383.22406        40.70006
E33  24887350.56206    165983.53106     -1865.81506        41.30006  24887355.05925   3957571.71125     -1394.04625        31.20025
E29  25952171.10206    -55905.44006       808.68306        40.30006  25952178.29715     24817.85615       605.89815        30.60015
E10  24636264.78526    -56588.49226      1583.82726        39.30026  24636264.48615    -18058.38315      1187.85715        34.70015
C30  24692082.24406   -176431.37106      2900.48506        39.60006  24692080.745 5   -109436.040 5      2160.312 5        31.000 5
C36  25870345.74906    161927.62106     -1104.81506        39.40006  25870349.94606    138722.81106      -825.54206        37.60006
R01  19946202.14806   2397550.45206      2028.40106        38.30006
R15  22282533.04006   2570579.59506     -2245.44806        37.30006
R23  23174269.60406   3802617.29606     -3449.45906        37.80006
E16  25247628.84726    208946.04326     -1827.81126        37.30026                                                                
E25  25918948.40206    -67896.27206       732.62406        37.10006  25918959.79425     44947.57025       543.30425        33.40025
C41  22968991.81426   -189811.99626      2095.34726        35.60026  22969001.70805    -75991.86005      1557.35205        35.00005
C28  22445832.69007    178857.94207     -1914.24307        41.90007  22445838.08615    197755.56415     -1428.41515        32.20015
C42  26899873.52225    284353.21225     -3230.20825        31.80025  26899889.11113    284716.33213     -2415.16413        21.40013
E07  27792984.93415    237196.88215     -1708.63515        30.40015  27792987.33213    539328.83913     -1280.74613        21.30013
E11  25074118.26614     69742.82514      2362.30514        29.10014  25074116.76715    164378.57215      1763.11315        31.10015
R02  22979643.14124-102528419.80524      4532.83024        28.10024
E12  23413451.22215     39064.89215       510.09015        35.20015  23413438.93014     22483.18114       367.30214        28.30014
R14  24205422.25124  -1842012.17924     -4106.55624        25.80024
C27                                                                  21413002.70325     48017.07925       355.61925        31.60025
> 2026 04 21 14 04 33.9999323  0 35                      
G22  24217052.40027   -145515.50527      1557.61927        42.00027                                                                
G01  21290706.56706   -184001.03306      2105.54906        40.90006  21290699.37206    -70885.79006      1566.98606        38.40006
G14  23205483.09526    -77501.74126       798.29926        40.00026  23205488.79106      8938.03506       598.00906        38.00006
G32  22408245.31107     -4964.04007       965.19107        42.40007  22408253.10604     -9578.16104       717.00004        28.70004
G27  23413734.22626    339708.73726     -3681.90226        37.30026  23413736.32414    318556.78014     -2731.50814        28.30014
G02  20551512.501 7     11341.402 7        41.652 7        41.500 7                                                                
G08  21092972.15606    207619.32506     -2347.48306        36.10006  21092976.65325    222425.54025     -1749.89825        33.30025
G03  23630605.88925   -281560.82625      3736.85925        33.60025  23630610.68515    410485.69915      2792.16315        32.10015
G17  25487382.46925   -218178.44125      3347.22125        32.00025                                                                
G10  23025927.19907    262491.08907     -2827.53007        45.20007  23025927.79826    261570.44426     -2109.64726        36.60026
R24  19404860.91107   3004850.95607      -268.36807        43.40007
R17  21233559.52907   4232648.70407      3019.70407        43.10007
R08  21004796.59906   4404381.23306     -2226.11006        40.80006
C33  23074451.00706     98338.73606     -1026.58106        41.40006  23074481.58515    137020.51715      -765.98515        34.10015
R16  22836754.86006   -174117.90506      1366.47606        40.70006
E29  25952017.90806    -56703.50806       792.70606        40.20006  25952017.60905     24222.32105       590.94505        30.40005
E33  24887704.31726    167859.83026     -1879.08726        41.10026  24887707.31525   3958972.87025     -1402.39525        31.20025
E10  24635966.49206    -58162.88206      1568.40706        39.20006  24635961.09625    -19235.06825      1167.04825        33.70025
C30  24691516.83526   -179321.43226      2884.89526        39.50026  24691526.72805   -111594.48205      2156.47805        32.00005
C36  25870546.61006    163043.05306     -1120.84206        39.30006  25870558.90116    139554.03016      -843.20216        37.20016
R01  19945828.60706   2395533.38706      2012.05406        38.30006
R15  22282959.94406   2572834.30806     -2258.16506        37.30006
E25  25918814.69506    -68615.88606       715.19606        37.10006  25918818.29205     44410.41905       537.67005        33.90005
C27  21412911.86606    -26167.79206       456.09506        39.90006  21412911.86605     47673.28905       338.50205        31.60005
R23  23174921.65206   3806075.17606     -3464.79406        37.60006
C41  22968587.99406   -191898.21506      2082.89306        35.60006  22968599.98606    -77549.49706      1556.69306        35.50006
E16  25247978.10506    210781.04506     -1837.47606        37.20006  25247974.80725   6362172.82025     -1368.63425        34.60025
C28  22446211.02826    180780.97526     -1926.33726        41.10026  22446200.83515    199191.89815     -1443.81115        31.10015
C42  26900489.89525    287597.07225     -3244.30425        31.70025  26900481.50113    287138.75313     -2421.83413        21.40013
E07  27793312.00725    238920.53225     -1730.67825        30.30025  27793306.31113    540613.24613     -1290.80513        21.20013
E11  25073668.57714     67392.30414      2341.55914        29.20014  25073664.98025    162625.24625      1748.20125        31.00025
R02  22978779.43924-102532943.45024      4519.43524        28.20024
E12  23413338.20015     38561.25015       498.58115        33.90015  23413339.39914     22111.19614       353.37714        27.70014
E19  25757436.41424    270174.62624      2792.15224        26.60024                                                                
R14  24206138.45624  -1837896.98924     -4117.92824        25.90024
> 2026 04 21 14 04 34.9999311  0 35                      
G22  24216758.30427   -147076.62727      1560.27227        42.00027                                                                
G10  23026471.62207    265314.57607     -2824.78407        44.50007  23026473.12116    263679.76016     -2112.38816        36.10016
G01  21290315.33806   -186106.00206      2102.52106        40.80006  21290304.84526    -72456.98026      1575.99626        37.70026
G14  23205336.49626    -78304.32726       802.83426        40.00026  23205341.89306      8339.43806       597.22406        38.00006
G02  20551506.804 6     11294.557 6        45.453 6        40.900 6                                                                
G32  22408064.83607     -5932.90307       967.61207        41.80007  22408075.02924    -10302.01224       725.36024        28.50024
G27  23414437.23926    343386.13226     -3677.79926        37.40026  23414444.73424    321303.27524     -2753.23124        28.30024
G17  25486754.40425   -221529.58225      3350.34625        32.00025                                                                
G08  21093422.74406    209961.54906     -2341.91706        36.40006  21093426.64125    224174.38125     -1749.94925        33.30025
G03  23629902.27625   -285303.66225      3743.80825        33.70025  23629904.07415    407690.90115      2795.03215        31.80015
R24  19404919.67007   3005114.05007      -263.52607        43.30007
R17  21233010.90907   4229623.08507      3024.94807        43.00007
R08  21005213.01006   4406603.65206     -2223.46006        40.80006
R16  22836524.02006   -175484.39106      1363.84506        40.70006
C33  23074646.47126     99363.28026     -1025.89726        41.20026  23074680.34825    137785.93125      -773.14525        33.70025
E29  25951864.11506    -57500.28406       796.13006        40.20006  25951874.60825     23628.21225       588.89625        30.30025
E33  24888067.06606    169736.88706     -1878.43806        40.90006  24888068.86525   3960374.13725     -1402.32225        31.20025
C36  25870769.35606    164159.87306     -1117.51506        39.10006  25870775.35206    140388.37306      -832.90506        36.50006
C30  24690971.51326   -182211.65426      2888.80626        39.40026  24690982.60505   -113751.71705      2156.63405        32.60005
R01  19945457.16406   2393518.60706      2014.89106        38.20006
C27  21412830.62206    -26626.83006       458.22506        39.40006  21412829.12325     47330.60725       337.62925        31.50025
E25  25918681.88706    -69333.86206       716.65906        37.30006  25918687.88225     43874.79425       531.86225        33.90025
R15  22283385.35016   2575090.53716     -2258.24016        37.30016
C41  22968193.46726   -193985.45026      2088.74426        35.60026  22968208.75715    -79107.94515      1557.35615        35.20015
C28  22446568.38106    182704.79106     -1924.70806        40.10006  22446577.07515    200626.73315     -1424.08815        29.70015
E10  24635667.89926    -59737.28926      1573.41626        38.90026  24635666.69905    -20409.52905      1171.84905        32.80005
R23  23175559.61126   3809534.47826     -3460.76726        37.20026
C42  26901098.47425    290838.51525     -3243.73725        31.60025  26901101.77113    289559.82113     -2417.39413        21.40013
E07  27793656.16915    240649.15115     -1738.60615        30.20015  27793647.47513    541898.95813     -1289.36613        21.10013
E11  25073250.36704     65043.74404      2347.08204        29.40004  25073226.68315    160871.90415      1748.85215        30.80015
E12  23413240.76705     38058.80805       502.34205        32.90005  23413247.06314     21739.02914       361.75914        27.10014
R02  22977929.22724-102537461.52724      4514.29924        28.20024
E19  25756905.48224    267375.54224      2796.68224        27.00024                                                                
R14  24206900.52824  -1833778.36724     -4119.34424        25.90024
E16  25248333.95926    212619.85826     -1839.72126        36.90026  25248332.16005   6363546.95805     -1373.96905        34.10005
> 2026 04 21 14 04 35.9999298  0 35                      
G22  24216457.91227   -148636.82827      1559.74327        41.90027                                                                
G10  23027002.85407    268138.56107     -2824.73707        43.80007  23026999.25726    265788.38126     -2100.27526        35.80026
G01  21289904.32306   -188208.94306      2103.68006        40.70006  21289898.32706    -74026.26206      1568.33206        37.20006
G02  20551490.01606     11248.24006        46.30206        40.50006                                                                
G14  23205182.10326    -79106.35926       802.25726        39.90026  23205185.40106      7741.30906       597.89606        37.90006
G32  22407878.66506     -6902.77706       969.63106        41.20006  22407883.46204    -11026.62904       723.50004        28.90004
G08  21093867.33606    212304.63106     -2343.76406        36.60006  21093868.53525    225922.92025     -1746.88925        33.20025
G03  23629188.17015   -289048.40515      3744.45215        33.90015  23629188.47025    404896.59025      2795.07225        33.50025
G17  25486092.16225   -224881.84925      3353.83425        32.00025                                                                
G27  23415127.66126    347062.85726     -3674.89526        37.40026  23415143.25014    324049.12914     -2744.03714        28.40014
R24  19404962.54107   3005378.02707      -265.91807        43.20007
R17  21232438.30507   4226597.50007      3024.82207        42.80007
R08  21005629.42206   4408826.80706     -2222.77606        40.80006
C33  23074847.33226    100388.97026     -1026.26626        41.10026  23074868.91705    138550.91405      -767.26805        33.60005
R16  22836262.90106   -176850.03106      1367.46906        40.70006
E29  25951715.41806    -58296.01806       795.21506        40.10006  25951717.21715     23033.96515       588.31715        30.20015
E33  24888421.42106    171614.13406     -1877.34506        40.70006  24888422.02125   3961777.51125     -1396.92925        31.60025
C27  21412733.49006    -27085.31206       458.20506        39.10006  21412735.58805     46987.85105       341.29405        32.20005
C36  25870972.31526    165277.72026     -1116.86326        39.00026  25870984.60706    141223.01906      -834.79806        36.20006
C30  24690428.58926   -185100.38626      2888.49026        39.10026  24690427.98925   -115907.60625      2161.21925        32.60025
E25  25918541.28406    -70050.82506       716.45706        37.40006  25918546.08105     43338.43905       535.72005        33.80005
R01  19945075.82806   2391503.60006      2016.12306        38.10006
R15  22283813.75306   2577346.78306     -2254.50706        37.20006
E16  25248677.82106    214458.31006     -1841.77306        36.60006  25248677.22125   6364921.09025     -1373.13425        33.80025
C41  22967789.94626   -196070.52726      2089.50226        35.50026  22967805.83515    -80664.01215      1559.87815        34.60015
C28  22446925.43306    184630.38206     -1926.48106        39.30006  22446932.02914    202066.25814     -1419.37214        28.70014
E10  24635367.50706    -61308.80806      1572.07806        38.20006  24635362.11025    -21583.86725      1175.27825        32.10025
R23  23176199.66726   3812993.31026     -3457.35226        36.70026
C42  26901710.35025    294081.74825     -3245.13325        31.50025  26901719.64413    291973.21313     -2418.55813        21.30013
E12  23413151.72905     37557.96805       500.04005        32.30005  23413144.23414     21365.44914       370.78814        26.80014
E11  25072796.18114     62690.94414      2349.42314        29.40014  25072774.59615    159118.06715      1757.08715        30.50015
R02  22977091.90724-102541980.60024      4517.57724        28.40024
E19  25756370.95224    264576.30924      2798.23624        27.20024                                                                
R14  24207704.87124  -1829662.01724     -4117.21924        26.20024
E07  27793945.16915    242376.91515     -1732.33815        30.10015  27793973.94913    543190.97313     -1293.66813        21.10013
> 2026 04 21 14 04 36.9999286  0 35                      
G22  24216159.91827   -150196.32427      1559.14427        41.90027                                                                
G02  20551490.31606     11202.49406        45.46006        40.40006                                                                
G10  23027553.27307    270963.11307     -2823.84007        43.30007  23027545.47906    267896.51906     -2108.90006        35.50006
G01  21289503.20006   -190309.78606      2099.29606        40.50006  21289507.69716    -75596.20016      1563.76716        36.80016
G32  22407705.38506     -7870.48406       965.37406        40.80006  22407706.88424    -11749.15824       723.48624        29.10024
G27  23415844.76526    350741.11826     -3680.28326        37.30026  23415850.16114    326795.66214     -2747.37514        28.40014
G08  21094323.02106    214647.62906     -2341.45806        36.60006  21094321.82105    227673.39505     -1751.94605        33.20005
G03  23628486.35625   -292792.33125      3743.02125        34.00025  23628482.75805    402102.42905      2795.09005        34.40005
G17  25485453.00525   -228233.07525      3350.46025        32.00025                                                                
G14  23205036.10426    -79906.45326       798.87526        39.90026  23205039.10206      7144.00606       596.89006        38.00006
R24  19405013.20507   3005642.17407      -263.73307        43.10007
R17  21231879.19207   4223572.46807      3025.00907        42.70007
R08  21006051.53006   4411050.81706     -2224.69106        40.80006
C33  23075042.79706    101414.02006     -1024.73006        41.00006  23075071.87705    139316.65705      -764.62405        33.80005
E29  25951564.92226    -59091.81126       794.32226        40.10026  25951570.61825     22439.65325       596.84625        30.20025
R16  22836008.07706   -178215.40206      1365.98906        40.60006
E33  24888782.37106    173491.74106     -1877.78906        40.60006  24888786.56805   3963179.45605     -1403.73205        31.70005
C27  21412651.94606    -27543.27106       457.69706        39.00006  21412656.74305     46646.74005       342.78805        32.60005
R23  23176852.615 6   3816452.339 6     -3459.381 6        36.400 6
C36  25871191.16406    166396.08706     -1120.62706        38.80006  25871201.95606    142058.40606      -835.75906        35.90006
R15  22284236.46106   2579605.93706     -2259.61206        37.30006
E25  25918411.77326    -70767.20626       714.59126        37.40026  25918417.17025     42803.64825       534.51025        33.60025
C30  24689874.27226   -187989.52826      2890.85126        38.90026  24689884.76505   -118064.26305      2158.04305        32.50005
C28  22447299.27506    186556.29306     -1926.07406        38.70006  22447306.76914    203502.96614     -1427.30114        27.90014
E10  24635075.50926    -62880.42326      1569.66626        37.60026  24635070.11205    -22756.86705      1173.83405        31.70005
E16  25249035.77326    216300.28026     -1841.23326        36.40026  25249035.77315   6366297.49515     -1373.54315        33.30015
R01  19944711.28026   2389490.59326      2010.01026        37.80026
E12  23413052.49825     37056.95825       501.09625        32.00025  23413057.29424     20993.17824       368.61724        26.60024
C42  26902338.11525    297326.17725     -3244.53125        31.40025  26902336.01713    294390.40613     -2416.59613        21.20013
E07  27794295.32615    244102.54615     -1728.06615        30.00015  27794312.71413    544480.70013     -1287.08513        20.90013
C41  22967405.01325   -198153.09025      2082.30825        35.30025  22967418.50415    -82222.06215      1556.04415        33.80015
R02  22976252.78824-102546500.45324      4520.99724        28.80024
E19  25755842.11824    261780.02824      2798.30924        27.20024  25755813.63812    605900.22312      2106.20512        13.80012
R14  24208473.53924  -1825544.27624     -4120.19124        26.70024
E11  25072339.29714     60337.36214      2352.97514        29.30014  25072335.100 5    157365.921 5      1741.802 5        30.000 5
> 2026 04 21 14 04 37.9999273  0 35                      
G22  24215861.02527   -151754.90727      1558.12927        41.90027                                                                
G02  20551476.82506     11157.08506        45.24106        40.50006                                                                
G01  21289094.58306   -192410.54906      2100.72606        40.40006  21289101.77806    -77165.09106      1570.37006        36.60006
G10  23028075.21207    273786.20007     -2822.60807        42.70007  23028078.21025    270004.42925     -2109.79825        34.80025
G14  23204879.61326    -80706.06426       800.87026        39.80026  23204882.31106      6547.22106       596.52706        38.20006
G32  22407517.41506     -8838.08206       968.79506        40.50006  22407518.01505    -12472.95305       722.43005        30.70005
G27  23416548.67716    354414.23116     -3669.54416        37.30016  23416546.27914    329538.66014     -2739.73514        28.30014
G17  25484815.946 5   -231583.652 5      3349.506 5        32.300 5                                                                
G08  21094763.41606    216991.02206     -2341.84306        36.60006  21094764.01525    229423.80025     -1747.37225        32.90025
G03  23627768.95325   -296536.31125      3742.76325        34.00025  23627766.55425    399308.80225      2791.36325        34.40025
R24  19405061.47207   3005907.29507      -267.10907        43.00007
R17  21231305.98907   4220548.14107      3024.72907        42.60007
R08  21006456.84906   4413275.61506     -2225.19406        40.80006
C33  23075231.06726    102439.72426     -1026.03326        40.90026  23075261.94505    140082.84605      -766.41405        33.80005
E29  25951413.52706    -59887.10706       795.54906        40.10006  25951414.72615     21845.71815       596.74615        30.10015
E33  24889134.92706    175369.38506     -1879.16606        40.40006                                                                
R23  23177486.077 6   3819911.390 6     -3459.066 6        38.800 6
C27  21412563.20806    -28000.65006       457.09006        38.90006  21412565.30605     46305.13105       341.35905        33.10005
C28  22447664.72206    188482.78606     -1926.78606        38.40006  22447667.72024    204940.89624     -1432.04224        27.50024
R15  22284657.07006   2581864.77206     -2259.92806        37.60006
C36  25871387.52826    167515.51126     -1119.45526        38.60026  25871409.41326    142894.27626      -830.11126        35.60026
E25  25918266.37406    -71482.67506       715.51406        37.40006  25918276.26705     42269.00705       533.06705        33.20005
C30  24689329.54906   -190877.60106      2887.04206        38.60006  24689330.74905   -120220.66405      2155.27605        32.50005
E10  24634763.42506    -64450.85806      1570.34706        37.30006  24634766.72206    -23929.65606      1172.18406        39.20006
R16  22835743.66016   -179579.62216      1361.64516        40.30016
E16  25249392.52606    218140.43306     -1839.74606        36.20006  25249381.73315   6367673.88315     -1377.88115        32.40015
R01  19944320.95126   2387478.36326      2011.59426        37.20026
E12  23412958.66305     36556.66705       499.93205        31.90005  23412956.56414     20621.29314       367.69214        26.60014
C42  26902944.89525    300571.49525     -3242.76725        31.40025  26902941.29813    296807.59113     -2412.68413        21.10013
E07  27794631.99325    245830.12325     -1723.55325        29.90025  27794639.48813    545769.15513     -1289.82113        20.80013
E11  25071910.59414     57987.28014      2346.33514        29.30014  25071880.91515    155613.87815      1754.99415        29.80015
R02  22975403.47624-102551021.55624      4523.23524        29.00024
C41  22967018.88015   -200236.48215      2082.81015        34.60015  22967016.182 5    -83776.940 5      1555.294 5        33.100 5
E19  25755301.29324    258983.32524      2794.41824        27.70024                                                                
R14  24209257.19724  -1821426.95824     -4117.86324        26.90024
> 2026 04 21 14 04 38.9999261  0 35                      
G22  24215572.32527   -153310.26527      1553.74827        41.90027                                                                
G02  20551478.62406     11115.85806        39.13506        40.70006                                                                
G10  23028622.63307    276613.39707     -2830.75607        42.30007  23028620.834 5    272115.599 5     -2112.303 5        34.100 5
G32  22407341.13706     -9803.00206       963.33306        40.30006  22407338.73905    -13193.69905       719.72205        31.40005
G14  23204731.51526    -81501.60026       793.00126        39.70026  23204737.81106      5953.05206       592.86206        38.20006
G17  25484185.482 6   -234930.510 6      3345.252 6        39.700 6                                                                
G08  21095217.90106    219339.12906     -2350.46706        36.60006  21095217.00205    231177.92905     -1755.49305        32.60005
G03  23627054.24725   -300275.43425      3737.94925        34.00025  23627060.24305    396517.59905      2785.99505        34.30005
G27  23417260.08526    241592.81726     -3681.79426        36.70026  23417253.78914    332289.60314     -2752.41814        28.10014
G01  21288705.15306   -194507.49906      2095.04606        40.30006  21288708.45026    -78730.83326      1558.16926        36.70026
R24  19405118.43307   3006176.42207      -269.88007        42.90007
R17  21230749.87407   4217526.79107      3019.61507        42.50007
R23  23178146.52006   3823373.88106     -3464.21606        40.10006
C33  23075433.72626    103470.98926     -1032.54726        40.80026  23075464.00505    140851.71905      -770.21605        33.90005
E29  25951269.62606    -60678.51106       789.45906        40.10006  25951271.72525     21254.44025       587.45125        30.00025
R08  21006881.95506   4415505.01506     -2231.70406        40.70006
E33  24889499.47506    177250.28006     -1882.02206        40.30006  24889503.672 5   6984748.011 5     -1406.240 5        30.000 5
C27  21412481.66406    -28454.57806       452.20306        38.90006  21412484.66225     45965.92125       332.01225        33.20025
C28  22448039.46206    190412.67006     -1931.58306        38.30006  22448040.06214    206381.66914     -1429.69714        27.20014
E10  24634475.02406    -66017.79706      1565.19206        37.60006  24634474.72506    -25099.78006      1168.79306        39.10006
E25  25918146.75726    -72194.93226       709.15226        37.40026  25918147.35715     41736.22615       532.35115        32.90015
R15  22285087.27216   2584128.73116     -2263.27316        37.60016
C36  25871624.36426    168638.30926     -1122.98626        38.40026  25871630.06006    143732.73206      -837.25106        35.50006
C30  24688783.62726   -193762.74026      2882.17526        38.40026  24688787.82415   -122374.97115      2153.26115        32.40015
R16  22835496.93116   -180940.62816      1359.15116        39.80016
R01  19943952.805 6   2385470.173 6      2006.422 6        36.700 6
E16  25249763.06916    219971.40416     -1835.38416        35.90016  25249739.086 5   6369051.575 5     -1378.347 5        31.600 5
C42  26903584.95225    303819.48525     -3251.82925        31.30025  26903568.76413    299232.45313     -2422.70313        21.00013
C41  22966617.75825   -202316.16525      2079.33025        33.80025  22966627.65115    -85329.51015      1552.41915        32.30015
E07  27794962.66405    247560.34205     -1732.54105        30.00005  27794947.97513    547059.09813     -1288.68913        20.60013
E11  25071462.10514     55636.10514      2358.72414        29.30014  25071444.11715    153864.85515      1744.51615        29.70015
R02  22974554.16424-102555538.49024      4515.10624        29.00024
E19  25754787.74824    256189.83924      2793.88024        28.20024                                                                
R14  24210027.96324  -1817306.93924     -4121.62324        27.00024
E12  23412861.53005     36059.99605       494.86105        32.20005  23412869.32414     20251.81014       367.28214        26.70014
> 2026 04 21 14 04 39.9999249  0 36                      
G22  24215283.62527   -154866.93527      1557.32727        41.90027                                                                
G02  20551475.62606     11072.55006        44.35006        41.00006                                                                
G10  23029170.35407    279438.72007     -2824.63907        41.90007  23029166.15705    274225.38905     -2109.10205        33.90005
G01  21288313.62406   -196606.06206      2099.37206        40.20006  21288316.02206    -80298.19306      1568.67006        37.80006
G32  22407166.65806    -10768.92406       966.42406        40.20006  22407161.86105    -13915.25705       721.96605        31.80005
G14  23204588.51426    -82298.29926       797.28126        39.60026  23204593.31126      5357.72626       595.90526        38.20026
G17  25483551.12106   -238279.64506      3350.27806        39.50006                                                                
G08  21095679.28206    221686.12406     -2346.69106        36.50006  21095670.88825    232930.64125     -1752.50525        32.40025
G27  23417954.10426    245273.47026     -3677.93826        36.10026  23417955.60314    335037.43914     -2741.28714        27.70014
G03  23626359.02915   -304021.86715      3749.09315        34.00015  23626356.33025    393725.48825      2794.06825        34.00025
R24  19405176.89207   3006443.84507      -266.82107        42.80007
R17  21230189.56207   4214504.23607      3023.16107        42.40007
E29  25951125.42606    -61471.63606       793.98706        40.50006  25951127.52505     20662.58805       589.63905        30.20005
R08  21007305.56206   4417732.02206     -2225.81306        40.60006
R23  23178798.86806   3826834.68606     -3459.96606        40.50006
C33  23075636.08626    104499.37626     -1027.44926        40.80026  23075663.66705    141619.54005      -767.29505        33.90005
E33  24889866.42106    179129.19506     -1877.92706        40.20006  24889867.62025   6986151.15425     -1401.54925        30.10025
C27  21412401.32006    -28909.87206       455.97706        39.20006  21412404.31815     45626.33115       341.78015        32.90015
E10  24634179.42906    -67586.60806      1569.74806        38.30006  24634182.72706    -26271.23206      1172.11806        39.00006
C28  22448408.20706    192340.92906     -1927.44806        38.20006  22448415.40204    207821.79804     -1445.30804        27.10004
C36  25871839.01506    169759.88106     -1121.46106        38.20006  25871850.40705    144570.21805      -838.50205        35.30005
C30  24688244.90006   -196649.23006      2887.66906        38.20006  24688246.09905   -124530.27705      2155.81005        32.30005
R15  22285517.17406   2586391.89706     -2264.52206        37.50006
E25  25918011.85006    -72908.89006       715.31006        37.40006  25918018.14605     41203.28305       533.02605        32.70005
R16  22835227.11806   -182302.32306      1361.54106        39.10006
E07  27795306.22705    249289.07505     -1729.49305        35.30005  27795304.12813    548348.66213     -1288.37513        20.50013
R01  19943581.662 6   2383460.981 6      2008.946 6        36.400 6
E16  25250087.74516    221808.08716     -1832.03916        35.60016  25250097.03815   6370430.80015     -1376.99215        30.80015
E12  23412775.48905     35561.41505       499.53705        32.70005  23412784.18314     19887.62114       343.04314        26.20014
C41  22966225.33025   -204397.66825      2077.41725        33.30025  22966240.319 5    -86882.359 5      1544.989 5        31.600 5
C42  26904212.41825    307066.67525     -3247.79325        31.20025  26904191.73213    301654.72113     -2426.47313        20.80013
R02  22973731.23324-102560056.24424      4515.66824        29.10024
E11  25070997.12614     53287.37414      2347.01214        29.30014  25071005.22115    152115.66915      1753.26915        29.60015
E19  25754266.70924    253398.09124      2790.38224        28.30024  25754258.01512    815402.88712      2008.39612        13.30012
R14  24210787.93724  -1813189.16224     -4120.16124        27.00024
C32  26654260.45623    217360.08223      3658.36323        21.40023                                                                
> 2026 04 21 14 04 40.9999237  0 36                      
G22  24214975.73827   -156423.85727      1557.05027        41.90027                                                                
G02  20551455.54006     11028.69206        44.13106        41.30006                                                                
G10  23029693.49207    282263.74807     -2825.38407        41.60007  23029690.79305    276335.05405     -2109.60605        34.40005
G01  21287903.80706   -198705.49106      2100.61406        40.20006  21287904.40706    -81865.83706      1568.28906        38.40006
G14  23204427.52626    -83095.26926       797.10726        39.60026  23204429.324 6      4762.916 6       594.553 6        38.100 6
G17  25482904.16906   -241629.17906      3349.73806        39.30006                                                                
G27  23418643.02726    248953.03626     -3679.57026        36.00026  23418647.52414    337782.29514     -2739.36914        27.30014
G08  21096106.48606    224030.98406     -2343.79506        36.50006  21096103.18805    234682.23605     -1751.03905        32.30005
G03  23625638.32825   -307766.85325      3741.51625        34.00025  23625632.33225    390932.91525      2795.80825        33.50025
G32  22406969.99406    -11735.47706       966.86906        40.10006  22406966.09705    -14636.97705       721.80105        32.50005
R17  21229614.26007   4211480.58507      3024.20307        42.40007
R24  19405213.16707   3006710.79407      -265.96207        42.70007
E29  25950956.04406    -62264.91306       793.35406        40.80006  25950965.03705     20070.28405       593.53105        31.10005
R08  21007703.68606   4419959.11906     -2227.14406        40.60006
C33  23075821.95726    105527.14126     -1025.95626        40.70026  23075849.53825    142387.36625      -767.83025        33.80025
R23  23179438.32516   3830295.23516     -3459.67516        40.50016
E33  24890208.18406    181007.50906     -1881.01606        40.10006  24890211.782 5   6987553.979 5     -1401.827 5        30.700 5
C27  21412304.48726    -29365.83126       456.29226        39.40026  21412305.38625     45285.84425       339.43625        32.50025
C28  22448761.36206    194268.70806     -1927.54106        38.50006  22448770.95624    209260.82524     -1439.97924        27.70024
E10  24633869.74306    -69155.89606      1572.52906        38.50006  24633870.64306    -27443.36806      1172.47806        38.90006
R15  22285922.19406   2588655.46806     -2263.52606        37.50006
C30  24687683.38906   -199536.59906      2887.81206        38.10006  24687685.18815   -126685.02915      2155.97615        32.20015
C36  25872036.57826    170880.63926     -1117.35126        38.10026  25872051.86806    145407.31506      -836.90406        35.50006
E25  25917867.95006    -73624.97706       714.15306        37.30006  25917870.04905     40670.06205       533.36005        32.50005
R01  19943205.12306   2381450.96906      2009.17306        36.20006
E12  23412672.36105     35062.39105       500.74605        34.90005  23412672.36114     19512.18614       378.55914        26.80014
R16  22834973.49306   -183665.13606      1363.62406        38.50006
E07  27795617.41106    251017.44406     -1727.68906        35.60006  27795591.02913    549635.31213     -1288.69513        20.40013
E16  25250437.30325    223651.53225     -1843.82925        35.40025  25250433.106 5   6371806.586 5     -1373.568 5        30.300 5
C41  22965822.40905   -206478.63805      2082.20505        32.90005  22965830.80315    -88438.13615      1556.74315        31.10015
C42  26904794.31505    310312.67805     -3244.91405        31.20005  26904822.79513    304072.19313     -2414.07713        20.40013
E11  25070548.33704     50941.46004      2342.50804        29.20004  25070544.140 5    150363.821 5      1758.181 5        29.500 5
R02  22972870.52924-102564578.96724      4522.96324        29.10024
E19  25753701.60024    250602.11624      2796.59224        28.30024                                                                
R14  24211555.40624  -1809067.12724     -4122.17024        27.00024
C32  26653583.82423    213701.20423      3659.25523        22.60023  26653550.24813    587456.33613      2732.23413        17.70013
> 2026 04 21 14 04 41.9999225  0 36                      
G22  24214685.53927   -157982.09127      1558.89227        41.90027                                                                
G02  20551453.14206     10983.37006        46.80506        41.40006                                                                
G10  23030238.21406    285087.17706     -2823.13206        41.40006  23030233.41805    278443.60605     -2107.99705        34.50005
G32  22406788.02006    -12703.26006       968.39906        40.00006  22406788.32025    -15360.92225       723.55925        32.50025
G14  23204287.82226    -83893.88726       800.19326        39.50026  23204284.22506      4166.81406       596.74806        38.10006
G27  23419350.83726    252630.12626     -3675.85826        37.80026  23419349.63814    340527.15314     -2737.86314        27.00014
G03  23624928.11915   -311519.93115      3761.87915        34.00015  23624927.22025    388140.83025      2795.34525        32.90025
G01  21287510.18006   -200806.67906      2101.82006        40.20006  21287511.67906    -83434.82806      1569.66606        38.50006
G17  25482271.00706   -244980.81906      3352.69706        39.10006                                                                
G08  21096554.97506    226374.62906     -2343.79006        36.50006  21096554.37605    236433.10105     -1750.50205        32.40005
C28  22449137.90207    196194.71507     -1925.12407        43.10007  22449143.298 4    210698.809 4     -1444.463 4        28.200 4
R17  21229055.14807   4208454.93207      3026.65807        42.70007
R24  19405269.22807   3006976.49907      -265.33407        42.70007
E29  25950816.04006    -63059.73606       795.59606        41.00006  25950820.53715     19475.35615       593.24115        31.40015
R08  21008122.79606   4422185.18706     -2226.30706        40.60006
C33  23076024.31706    106554.13706     -1027.11206        40.60006  23076051.59905    143155.03005      -767.58405        33.70005
E33  24890570.63326    182885.51226     -1875.34926        40.10026  24890577.82805   6988955.30605     -1401.07905        31.00005
C27  21412223.84226    -29823.56526       457.12226        39.60026  21412225.94105     44943.15405       341.29105        32.40005
E10  24633574.14826    -70727.78226      1570.68726        38.70026  24633579.24506    -28616.78906      1174.06706        38.70006
C30  24687146.76126   -202426.04726      2890.49026        37.90026  24687144.662 5   -128844.285 5      2155.011 5        32.200 5
R15  22286355.69406   2590916.05406     -2260.59706        37.50006
E25  25917734.84226    -74341.13726       717.19626        37.30026  25917739.63905     40135.75705       534.84805        32.40005
C36  25872272.51526    171999.21426     -1118.48526        37.90026  25872272.51506    146243.33506      -835.48306        35.60006
R01  19942821.98806   2379439.92706      2011.31006        36.20006
R16  22834718.67006   -185027.65606      1362.37506        38.10006
E12  23412583.32205     34561.08805       501.94205        35.00005  23412584.522 4     19137.904 4       375.206 4        26.800 4
E16  25250788.36005    225492.82305     -1841.71605        35.10005  25250790.15805   6373181.78305     -1375.40505        30.10005
E07  27795966.36906    252743.16606     -1722.90106        35.50006  27795942.38613    550916.31813     -1280.18613        20.30013
C41  22965431.17925   -208562.45625      2089.74525        32.80025  22965439.87315    -89992.78315      1549.08415        30.70015
R23  23180101.46606   3833754.68206     -3460.65006        40.40006
C42  26905428.37625    313555.82925     -3241.72825        31.10025  26905454.45813    306490.63613     -2412.93213        19.90013
E11  25070113.93824     48593.07124      2348.62924        29.20024  25070106.44324    148608.75724      1753.17324        29.40024
E19  25753186.25724    247804.49424      2801.94924        28.80024                                                                
R02  22972004.72924-102569098.12424      4522.12924        29.10024
R14  24212373.23924  -1804945.85824     -4121.89024        26.90024
C32  26652921.88324    210036.81024      3662.39824        25.10024  26652896.10113    584730.30413      2720.82613        17.50013
> 2026 04 21 14 04 42.9999213  0 36                      
G22  24214395.63927   -159541.29227      1559.68727        41.90027                                                                
G02  20551450.44406     10937.45606        45.96006        41.40006                                                                
G10  23030778.14106    287910.13006     -2822.46906        41.30006  23030778.74005    280551.53605     -2107.62105        35.10005
G32  22406608.74406    -13671.07206       967.82806        40.20006  22406610.843 5    -16083.700 5       722.696 5        33.500 5
G01  21287113.85406   -202908.61806      2102.31806        40.30006  21287118.05106    -85004.36206      1569.80706        38.50006
G17  25481638.74506   -248333.33406      3352.95706        39.00006                                                                
G27  23420060.44626    256306.08726     -3675.40026        37.90026  23420058.94714    343270.56014     -2742.68414        26.90014
G08  21097007.06306    228718.68906     -2344.77006        36.40006  21097008.86105    238183.72805     -1750.51005        33.10005
G03  23624234.10015   -315268.58815      3747.45115        34.10015  23624221.80825    385345.40325      2789.60025        32.50025
G14  23204136.42726    -84692.68426       799.38826        39.50026  23204138.52626      3570.64426       599.20626        37.40026
C28  22449514.74107    198120.48207     -1925.64907        43.90007  22449518.03914    212135.48314     -1435.02114        28.20014
R17  21228484.34307   4205429.30307      3025.62007        42.70007
R24  19405328.88707   3007241.87307      -265.20907        42.60007
E29  25950671.84006    -63854.39906       794.58506        41.10006  25950675.738 5     18882.342 5       582.557 5        31.400 5
C33  23076221.28106    107580.55606     -1026.13106        40.60006  23076253.95805    143921.53305      -765.92305        33.70005
R08  21008549.70006   4424410.98006     -2226.90906        40.60006
E33  24890934.58106    184761.81606     -1875.95706        40.10006  24890940.87705   6990356.38005     -1400.94905        31.50005
C27  21412148.89426    -30281.97626       459.25126        39.60026  21412144.99705     44601.38705       342.30605        32.20005
E10  24633282.75006    -72300.24606      1573.25606        38.80006  24633286.34706    -29790.86406      1174.40206        38.20006
C30  24686597.84126   -205317.71826      2892.78726        37.80026  24686599.04025   -131002.53625      2161.25225        32.10025
E25  25917613.12606    -75057.04506       717.28406        37.20006  25917610.72805     39601.31805       534.50705        32.50005
R15  22286783.19806   2593177.84806     -2261.15106        37.40006
C36  25872488.36626    173115.71226     -1113.96226        37.80026  25872491.96306    147078.51106      -834.75506        35.90006
R01  19942455.64206   2377429.43006      2010.47706        36.10006
R16  22834474.03906   -186390.00506      1362.26506        37.70006
E16  25251142.71405    227333.93905     -1841.03105        35.00005  25251146.01205   6374556.51805     -1374.50505        31.50005
E12  23412499.08105     34059.28205       502.05905        35.00005  23412495.18314     18761.31814       375.23914        26.80014
E19  25752660.721 5    245007.669 5      2796.930 5        32.400 5                                                                
E07  27796274.55625    254470.88925     -1726.22625        35.30025  27796291.34513    552201.87913     -1285.33913        20.10013
R23  23180757.11226   3837212.68426     -3459.78326        39.60026
C42  26906041.75125    316795.54825     -3238.00725        31.10025  26906080.42513    308903.96613     -2414.27713        19.70013
E11  25069668.44614     46244.13714      2349.70914        29.40014  25069667.54714    146856.35214      1747.07914        29.20014
R02  22971200.98524-102573618.59724      4520.63724        29.10024
R14  24213134.41224  -1800828.80024     -4120.70824        26.90024
C32  26652213.77324    206370.82824      3664.78224        26.00024  26652209.87613    581984.58913      2738.71913        20.50013
C41  22965035.15425   -210646.65325      2084.38925        32.80025  22965049.84325    -91549.95525      1563.43625        30.50025
> 2026 04 21 14 04 43.9999201  0 36                      
G22  24214103.34227   -161098.94227      1556.12627        41.80027                                                                
G02  20551447.14606     10891.96406        45.28006        41.40006                                                                
G32  22406434.26506    -14638.73906       967.59506        40.50006  22406434.26525    -16805.61025       721.47625        33.80025
G10  23031324.06306    290733.53706     -2823.63706        41.10006  23031323.16306    282659.98306     -2108.70806        36.10006
G01  21286721.72606   -205009.95406      2101.03706        40.40006  21286723.82406    -86573.43006      1568.83706        38.40006
G14  23203991.92726    -85490.88126       796.14826        39.40026  23203992.82706      2975.07006       598.77606        36.50006
G17  25481007.08206   -251685.06206      3350.58906        38.90006                                                                
G08  21097465.44506    231062.48306     -2343.41406        36.40006  21097461.84805    239934.47305     -1750.80705        33.70005
G03  23623524.79125   -319014.35325      3741.32325        34.30025  23623515.79725    382551.11125      2795.72925        32.40025
G27  23420766.45726    259982.50526     -3676.65126        37.90026  23420766.45724    346015.39224     -2751.04824        27.70024
C28  22449888.28207    200046.34707     -1925.91707        43.90007  22449891.580 4    213573.136 4     -1440.644 4        28.400 4
R17  21227947.71407   4202403.58807      3025.76207        42.60007
R24  19405380.15107   3007507.55507      -265.83607        42.60007
E29  25950524.34206    -64648.95106       794.49706        41.10006  25950531.83705     18288.53705       597.70205        31.60005
C33  23076434.13406    108607.77206     -1027.61606        40.60006  23076456.01905    144688.67305      -767.45905        34.10005
E33  24891298.22906    186638.15306     -1876.35606        40.40006  24891305.42425   6991758.71525     -1401.46725        31.60025
R08  21008969.71006   4426638.03406     -2227.93706        40.50006
C27  21412064.35326    -30738.98626       456.30926        39.60026  21412062.25405     44259.34505       342.17905        32.10005
E10  24632993.45026    -73871.77726      1569.56626        38.80026  24632993.75026    -30964.11926      1174.34626        37.40026
R15  22287210.40206   2595438.96006     -2263.27406        37.40006
E25  25917481.21826    -75772.12726       715.66926        37.20026  25917481.21825     39067.57725       534.89225        32.50025
C30  24686051.31926   -208208.03526      2888.14226        37.80026  24686054.617 5   -133160.142 5      2153.785 5        32.000 5
C36  25872721.30426    174230.89926     -1113.53226        37.70026  25872711.41115    147913.67615      -827.66115        34.80015
R01  19942086.89706   2375420.06606      2009.55006        36.10006
E16  25251504.56405    229175.73805     -1842.14205        35.10005  25251504.26405   6375931.66505     -1375.35505        32.40005
R16  22834233.90516   -187751.30416      1358.52716        37.30016
E19  25752141.18025    242209.98725      2796.11325        33.40025                                                                
E12  23412416.93815     33557.88815       498.18815        34.90015  23412405.24614     18386.97014       372.73014        26.80014
C41  22964644.82425   -212730.51325      2083.19525        32.80025  22964658.91415    -93107.02215      1569.51715        30.60015
R23  23181416.35626   3840673.08526     -3462.10626        38.40026
C42  26906663.22115    320035.99915     -3239.32215        31.00015  26906700.69513    311327.01113     -2419.90513        19.50013
R02  22970339.98124-102578141.02324      4526.15824        29.40024
E11  25069234.94624     43892.31124      2351.77524        29.40024  25069222.35514    145104.17814      1753.56014        28.70014
R14  24213917.47024  -1796708.47224     -4119.96724        26.90024
C32  26651510.46024    202706.03824      3666.69724        26.20024  26651524.25013    579246.11113      2739.86213        22.60013
E07  27796598.63225    260059.19825     -1724.93825        34.30025  27796602.52913    553485.42513     -1281.54113        19.90013
> 2026 04 21 14 04 44.9999189  0 36                      
G22  24213797.25427   -162656.47627      1557.72827        41.80027                                                                
G02  20551424.96106     10846.87906        44.88306        41.40006                                                                
G10  23031847.80006    293557.38906     -2824.07806        41.00006  23031849.29906    284768.77306     -2108.96406        36.10006
G32  22406235.20306    -15605.35306       966.08906        40.80006  22406238.80025    -17523.56525       706.97925        33.30025
G01  21286307.11306   -207110.28606      2099.08106        40.40006  21286313.10906    -88142.33906      1568.83106        38.30006
G17  25480373.62106   -255036.33806      3353.55306        38.90006                                                                
G27  23421448.18526    263660.41526     -3678.66126        37.80026  23421449.98405    348762.06305     -2747.59305        29.80005
G08  21097901.94306    233405.00706     -2340.39106        36.40006  21097895.64705    241686.01305     -1751.94005        34.40005
G03  23622801.09225   -322763.34325      3747.60725        34.60025  23622794.19625    379752.94225      2800.11125        32.20025
G14  23203826.44226    -86289.57526       799.44326        39.30026  23203830.03926      2379.93826       594.91226        36.10026
C28  22450239.63907    201972.90407     -1926.90407        43.80007  22450245.63514    215010.66114     -1437.96314        28.40014
R24  19405428.11807   3007774.18307      -267.85107        42.50007
R17  21227360.12107   4199376.82807      3027.28707        42.50007
E29  25950358.55706    -65442.87606       793.61306        41.10006  25950367.55125     17693.98125       597.93225        31.40025
E33  24891646.88806    188514.83306     -1876.85406        40.70006  24891648.08705   6993160.82905     -1402.50605        31.60005
C33  23076615.50806    109635.62606     -1028.17506        40.70006  23076640.39105    145456.54805      -768.24405        34.30005
R08  21009380.42506   4428865.91406     -2227.29406        40.50006
C27  21411957.62706    -31196.04306       457.08206        39.50006  21411964.82205     43918.39905       340.40005        32.00005
E10  24632693.65806    -75444.35306      1572.10006        38.80006  24632683.764 6    -32138.518 6      1175.973 6        36.800 6
R15  22287624.41506   2597702.73406     -2262.10706        37.40006
E25  25917338.81606    -76487.85306       718.55006        37.20006  25917333.12005     38532.20805       534.18305        32.40005
C30  24685493.40516   -211099.87116      2893.10016        37.70016  24685492.80605   -135317.89605      2158.83205        32.40005
C36  25872936.85516    175349.86716     -1118.36016        37.50016  25872912.57215    148750.49515      -834.14615        33.50015
R01  19941695.66806   2373411.42206      2008.03606        36.10006
E16  25251848.72506    231017.49706     -1841.74106        35.60006  25251843.02905   6377307.11005     -1375.59605        34.00005
E19  25751582.667 5    239412.950 5      2797.218 5        33.900 5                                                                
C41  22964245.50025   -214812.22425      2080.63825        33.00025  22964251.79625    -94662.95525      1549.36825        31.20025
E12  23412308.11305     33056.99305       501.64605        34.70005  23412299.11914     18015.94814       372.85914        27.30014
R23  23182068.10526   3844130.45326     -3458.35526        37.40026
C42  26907263.10615    323277.98815     -3244.76215        30.90015  26907298.78113    313753.06713     -2430.06513        19.30013
R02  22969477.77825-102582660.44325      4516.92225        29.90025
E11  25068772.66614     41541.28414      2348.13114        29.40014  25068765.771 4    143350.017 4      1752.157 4        28.400 4
C32  26650828.73224    199040.49824      3668.41924        27.20024  26650819.73813    576508.60213      2738.02813        22.50013
R14  24214668.15124  -1792593.89824     -4109.45224        27.20024
E07  27796920.00925    261784.81225     -1730.27325        33.10025  27796910.41613    554774.30913     -1289.05513        19.70013
R16  22833990.17426   -189114.18826      1362.92826        36.50026
> 2026 04 21 14 04 45.9999177  0 36                      
G22  24213510.65227   -164214.46227      1558.21527        41.70027                                                                
G02  20551423.76206     10801.41706        45.64906        41.40006                                                                
G10  23032391.02406    296380.43006     -2822.63806        41.20006  23032393.12306    286876.46006     -2107.13806        35.70006
G32  22406056.82606    -16572.07806       966.78206        41.00006  22406064.62125    -18244.68425       719.70125        32.40025
G17  25479748.55406   -258387.76606      3350.75906        38.80006                                                                
G14  23203684.34016    -87088.27916       797.96016        39.20016  23203685.53906      1784.00406       595.83606        35.80006
G27  23422160.19326    267337.36826     -3675.72926        37.70026  23422158.09425    351508.41225     -2742.69225        30.60025
G08  21098346.83516    235749.10116     -2346.88316        36.40016  21098348.63405    243437.30105     -1751.16305        34.70005
G03  23622091.48325   -326514.43025      3755.64025        34.70025  23622087.28625    376955.48025      2794.11125        32.10025
G01  21285926.67626   -209213.05226      2103.48726        40.00026  21285920.68026    -89713.35326      1572.07026        37.60026
C28  22450616.77807    203898.97807     -1925.83607        43.80007  22450619.476 4    216449.929 4     -1439.641 4        28.500 4
R24  19405476.38507   3008040.41507      -265.78307        42.40007
R17  21226805.20507   4196351.04207      3026.05207        42.40007
E33  24892008.73806    190390.79206     -1875.60006        41.10006  24892012.03515   6994561.27715     -1399.61715        31.00015
C33  23076817.86806    110663.16806     -1027.38606        40.90006  23076842.15105    146223.62305      -766.67505        34.40005
E29  25950216.45606    -66236.96606       794.17206        41.10006  25950225.74905     17100.18705       593.91405        31.00005
R08  21009793.83906   4431093.59606     -2228.58706        40.40006
C27  21411878.18206    -31653.48006       457.62606        39.50006  21411884.17825     43576.85425       340.34425        31.90025
E10  24632393.26626    -77016.84226      1575.94626        38.80026  24632397.16315    -33314.09015      1171.16015        35.40015
R15  22288052.81906   2599966.25206     -2263.39306        37.40006
E25  25917205.70826    -77202.63226       711.80526        37.20026  25917202.71115     37993.13015       548.93415        31.70015
C30  24684943.28626   -213991.02626      2890.81726        37.60026  24684948.68215   -137476.23115      2158.62915        32.40015
C36  25873122.12726    176465.97026     -1115.67326        37.40026  25873133.81925    149586.17725      -840.11525        33.10025
R01  19941325.12406   2371402.75406      2008.68206        36.10006
E16  25252201.28106    232858.93306     -1841.27706        35.90006  25252199.78205   6378682.30705     -1375.07505        34.60005
E19  25751068.523 5    236615.796 5      2797.216 5        33.900 5                                                                
C41  22963861.16625   -216894.26925      2082.21425        33.30025  22963862.965 5    -96217.404 5      1557.209 5        32.000 5
E12  23412213.67825     32555.21325       500.72225        34.40025  23412210.081 4     17641.128 4       374.219 4        27.900 4
R23  23182730.94626   3847589.50826     -3456.65326        36.60026
R02  22968656.64625-102587185.30825      4526.84325        30.50025
R14  24215460.50224  -1788477.67424     -4116.30524        27.30024
C32  26650098.73724    195375.78524      3670.80524        27.20024  26650129.31613    573771.05413      2737.07013        22.40013
R16  22833757.23525   -190475.25125      1358.40525        35.20025
E07  27797275.56325    263511.56525     -1728.75525        32.20025  27797243.48513    556053.40813     -1270.70813        19.50013
C42  26907894.76915    326519.96315     -3238.47215        30.50015  26907926.24713    316194.26313     -2442.76913        19.10013
E11  25068329.87315     39188.60815      2350.00415        29.50015  25068326.27524    141595.86024      1753.65724        28.30024
> 2026 04 21 14 04 46.9999165  0 36                      
G32  22405861.06206    -17538.41206       966.14006        41.40006  22405863.16025    -18966.82625       736.65425        31.80025
G02  20551402.77707     10756.40107        44.79407        41.50007                                                                
G22  24213202.76527   -165771.90627      1557.17527        41.70027                                                                
G10  23032917.16006    299203.46806     -2823.04006        41.30006  23032919.25815    288982.30415     -2109.42515        35.20015
G17  25479089.91006   -261741.48106      3354.86106        38.80006                                                                
G14  23203522.75226    -87886.43426       798.88226        39.10026  23203523.05225      1190.63125       592.09425        35.40025
G08  21098783.93206    238094.20906     -2342.11706        36.60006  21098783.63325    245189.12925     -1755.10125        34.90025
G01  21285506.06726   -211314.10226      2101.19326        39.40026  21285509.96506    -91282.37306      1568.02306        36.70006
G03  23621365.38625   -330264.49825      3748.06425        34.70025  23621362.38825    374160.95425      2792.56225        32.40025
G27  23422847.31726    271013.70026     -3673.27726        37.70026  23422845.21805    354254.03205     -2743.25905        31.60005
C28  22450969.93407    205825.40207     -1926.60107        43.70007  22450974.73024    217887.35524     -1438.00724        28.50024
R24  19405515.05807   3008307.36007      -268.05207        42.40007
R17  21226227.50507   4193324.68307      3026.39907        42.30007
C33  23076998.34306    111691.24506     -1028.34706        41.40006  23077026.22405    146991.17905      -767.79805        34.60005
E33  24892356.49706    192266.72106     -1875.91606        41.40006  24892358.59515   6995963.59015     -1400.24615        30.20015
E29  25950059.66406    -67030.85506       793.79106        41.10006  25950063.26215     16510.15715       587.64815        30.50015
R08  21010198.85906   4433320.52606     -2227.80706        40.30006
C27  21411786.74526    -32110.16526       456.31026        39.50026  21411786.14505     43235.31605       337.53605        32.40005
E10  24632079.38306    -78588.43106      1570.14106        38.70006  24632077.28415    -34488.10415      1165.73615        34.00015
R15  22288463.23506   2602228.92506     -2264.00306        37.50006
E25  25917053.71406    -77916.63506       714.11706        37.10006  25917055.81215     37454.65115       549.18015        30.50015
C30  24684386.27226   -216881.95126      2893.81426        37.40026  24684386.27215   -139634.58115      2153.85915        32.40015
E16  25252537.34906    234700.41606     -1841.51006        36.10006  25252538.54805   6380058.27905     -1376.36105        34.60005
R01  19940944.98806   2369394.74206      2007.68706        36.10006
C36  25873322.98816    177585.45016     -1122.67016        37.20016  25873336.17915    150423.98215      -840.86615        32.80015
C41  22963441.15725   -218975.38825      2082.15925        33.50025  22963456.44715    -97772.64615      1553.14015        32.00015
E12  23412100.65705     32053.96905       501.47705        34.10005  23412102.75504     17266.74704       374.66204        29.40004
R23  23183340.42426   3851048.76926     -3462.36926        35.80026
E19  25750534.89215    233818.78715      2795.44015        33.80015                                                                
R02  22967789.64725-102591707.17525      4524.37325        30.90025
E11  25067862.19715     36832.10815      2353.91415        29.50015  25067868.193 4    139842.754 4      1750.083 4        28.200 4
R16  22833493.71825   -191836.57325      1359.20225        34.00025
R14  24216214.48024  -1784360.19524     -4120.86024        27.60024
C32  26649422.40524    191711.28524      3666.39824        27.20024  26649426.60213    571033.94213      2735.39913        22.40013
E07  27797566.06225    265235.25225     -1727.15625        31.20025  27797564.26313    557339.15613     -1289.07313        20.80013
C42  26908494.35415    329759.90515     -3244.42815        29.70015                                                                
> 2026 04 21 14 04 47.9999154  0 36                      
G32  22405695.57607    -18503.49207       964.45407        41.90007  22405699.77305    -19688.00005       716.69205        31.50005
G02  20551415.06807     10712.57707        43.22707        41.70007                                                                
G10  23033473.27506    302027.51606     -2824.55606        41.30006  23033474.17405    291091.17305     -2110.38405        35.40005
G22  24212921.56027   -167327.38527      1553.74827        41.60027                                                                
G17  25478471.43806   -265093.39906      3349.52306        38.90006                                                                
G14  23203384.54826    -88681.82526       793.01026        39.00026  23203388.14505       597.06505       592.16305        35.20005
G08  21099250.40906    240439.65006     -2347.36006        36.80006  21099246.81205    246941.67605     -1753.40705        35.30005
G01  21285116.937 6   -213413.964 6      2099.770 6        38.800 6  21285126.83006    -92850.67606      1567.94706        36.30006
G03  23620692.35215   -334013.06515      3749.56915        34.60015  23620670.16725    371366.51325      2794.90125        32.40025
G27  23423565.62026    274691.20626     -3679.84626        37.70026  23423564.42015    357000.17215     -2750.40315        31.60015
C28  22451357.86507    207752.69207     -1927.72507        43.60007  22451355.467 4    219326.796 4     -1442.950 4        29.000 4
R24  19405586.10907   3008575.39507      -268.33107        42.40007
C33  23077212.69507    112720.61407     -1030.01607        41.80007  23077240.87505    147759.97205      -769.41205        35.10005
R17  21225679.78407   4190299.86207      3024.05507        42.20007
E33  24892725.84107    194143.59907     -1877.35507        41.50007  24892735.13515   6997368.28715     -1402.39115        29.60015
E29  25949923.85806    -67823.44506       791.94006        41.10006  25949931.65315     15918.21215       589.90415        30.10015
C27  21411721.69006    -32566.25506       455.79406        39.50006  21411718.39205     42894.89505       341.36205        33.10005
R08  21010638.95406   4435550.96206     -2230.94006        40.20006
E10  24631796.07906    -80159.55406      1570.89306        38.60006  24631798.77706    -35661.42706      1175.97906        40.80006
R15  22288900.03206   2604492.74406     -2263.14506        37.50006
E25  25916938.89326    -78629.56526       713.89426        37.00026  25916936.19515     36924.14015       537.02815        29.50015
C30  24683854.44006   -219770.96506      2887.06106        37.30006  24683855.33905   -141791.80105      2155.15805        32.30005
R01  19940587.93506   2367388.47406      2004.64806        36.20006
C36  25873557.72526    178706.77426     -1121.74726        37.00026  25873566.11925    151260.93325      -832.52625        32.60025
E16  25252911.79026    236542.27126     -1843.54326        36.20026  25252907.59205   6381434.56605     -1376.44505        34.60005
C41  22963086.50325   -221059.37025      2080.41625        33.90025  22963077.809 5    -99326.937 5      1560.316 5        31.900 5
E12  23412022.41105     31553.60505       499.92505        33.90005  23412025.40905     16893.06905       373.32705        30.20005
R23  23184007.16225   3854507.25225     -3459.59725        35.10025
R02  22966962.22025-102596228.57725      4522.17425        30.90025
E11  25067444.88614     34474.51214      2355.64714        29.40014  25067439.48924    138091.22124      1753.24724        28.10024
R16  22833256.58225   -193192.10925      1355.89525        33.00025
R14  24217010.72924  -1780245.29224     -4115.87124        27.70024
E19  25750043.53215    231021.85815      2794.39115        33.20015  25749993.46715    635885.51515      2090.14315        29.80015
C32  26648742.77624    188049.31924      3657.70224        27.10024  26648749.67113    568294.16013      2741.61813        22.30013
C42  26909124.81724    333001.50824     -3237.93724        29.10024                                                                
E07  27797926.71225    266958.69725     -1724.32625        30.30025  27797907.82513    558628.83913     -1287.65313        20.80013
> 2026 04 21 14 04 48.9999142  0 36                      
G32  22405501.61107    -19470.69207       968.26207        42.40007  22405504.30925    -20411.68725       726.44425        31.30025
G02  20551392.28407     10666.01307        47.93507        41.90007                                                                
G10  23033996.41307    304849.87907     -2821.52507        41.50007  23033998.51106    293198.06906     -2105.41206        36.40006
G22  24212613.67327   -168885.98027      1560.40427        41.60027                                                                
G17  25477820.58806   -268447.61506      3355.12006        38.90006                                                                
G14  23203227.15726    -89479.46626       801.26626        38.90026  23203222.96005         1.31605       597.34205        35.10005
G27  23424267.13426    278362.89126     -3670.78026        37.60026  23424254.84215    359744.58515     -2745.55215        31.20015
G08  21099683.01006    242782.97706     -2342.02306        36.80006  21099681.81106    248692.09806     -1748.86306        35.80006
G01  21284714.615 6   -215516.874 6      2104.937 6        38.400 6  21284714.01606    -94420.98906      1571.32006        36.20006
G03  23619955.46215   -337759.26315      3740.76915        34.60015  23619944.07025    368569.84425      2802.28725        32.80025
C28  22451707.72307    209677.46607     -1923.51807        43.60007  22451714.31825    220763.74425     -1434.70325        30.00025
R24  19405622.98307   3008841.35807      -265.67607        42.40007
C33  23077394.96907    113747.65407     -1025.87607        42.00007  23077423.14905    148526.84705      -765.91705        35.10005
R17  21225099.08607   4187272.05207      3029.30907        42.10007
E33  24893077.79707    196017.76507     -1872.81207        41.60007  24893080.79504   6998767.72004     -1398.30204        29.30004
E29  25949762.87006    -68618.50006       796.28806        41.10006  25949767.36615     15323.40815       603.23315        29.80015
C27  21411614.66406    -33024.81606       459.79606        39.40006  21411618.86105     42552.57705       343.26705        33.30005
R08  21011041.57506   4437780.21206     -2228.16106        40.10006
E10  24631485.79406    -81733.59706      1575.50406        38.50006  24631487.89206    -36836.80106      1176.40006        40.70006
R15  22289320.64106   2606756.58106     -2263.34906        37.50006
E25  25916790.49606    -79345.65806       717.17506        37.00006  25916789.89604     36389.32904       534.96204        29.00004
R01  19940205.99906   2365380.21306      2010.25906        36.30006
C30  24683295.62716   -222662.88116      2891.87216        37.20016  24683293.52825   -143951.09425      2162.83225        32.30025
C36  25873757.38706    179825.75806     -1117.81506        36.90006  25873767.88005    152096.80405      -831.83205        32.40005
E16  25253240.06206    238381.77306     -1840.82706        36.20006  25253247.55725   6382807.69125     -1371.54525        34.30025
C41  22962656.30025   -223141.86425      2087.75125        33.90025  22962670.39115   -100882.45115      1555.62915        31.70015
R16  22832985.27025   -194551.71525      1360.89325        32.40025
E12  23411917.18405     31050.49505       504.48405        33.80005  23411916.88405     16517.39105       376.67905        30.50005
R23  23184631.33025   3857962.14725     -3455.35625        34.60025
R02  22966094.32025-102600749.93225      4519.08725        30.90025
R14  24217754.81424  -1776132.73624     -4113.38624        27.70024
C32  26648028.67024    184383.04924      3671.92724        27.00024  26648041.56113    565553.24313      2741.48913        22.30013
E19  25749500.60815    228220.60615      2798.41815        32.30015  25749450.84315    633795.58815      2089.64015        29.70015
C42  26909730.09814    336238.54414     -3238.75714        28.60014                                                                
E07  27798228.00425    268680.83325     -1714.48525        29.60025  27798229.50313    559912.54913     -1285.22513        22.30013
E11  25066982.00614     32119.61314      2350.55214        29.40014  25066976.310 4    136335.588 4      1755.685 4        28.100 4
> 2026 04 21 14 04 49.9999131  0 36                      
G32  22405319.93607    -20435.88707       964.19307        43.30007  22405319.93615    -21131.94715       722.54815        31.00015
G02  20551385.98807     10621.58907        42.60407        41.90007                                                                
G10  23034534.84007    307673.66507     -2823.75007        41.60007  23034536.63906    295306.72606     -2109.53906        37.20006
G22  24212318.67727   -170440.29627      1552.18027        41.50027                                                                
G17  25477176.93406   -271799.29406      3351.41306        38.90006                                                                
G14  23203070.66526    -90274.79126       791.91926        38.70026  23203073.36305      -592.50705       592.86005        35.20005
G01  21284309.29606   -217617.84906      2099.76106        38.10006  21284314.99206    -95989.62706      1567.80206        36.40006
G08  21100124.00506    245128.52206     -2348.15606        36.80006  21100127.60206    250444.37806     -1753.21006        35.90006
G03  23619244.05415   -341505.25215      3749.38815        34.40015  23619230.86325    365774.47225      2793.22625        32.80025
C28  22452077.66707    211604.05107     -1927.49307        43.50007  22452078.866 5    222202.602 5     -1439.815 5        30.100 5
C33  23077592.83207    114776.79307     -1030.19107        42.00007  23077619.81305    149295.42105      -769.42405        35.20005
E33  24893431.85207    197893.56007     -1876.61207        41.80007  24893436.64904   7000168.74104     -1401.81704        29.40004
R24  19405677.54607   3009109.11407      -268.40407        42.40007
R17  21224536.97507   4184246.48907      3024.44307        42.10007
E29  25949615.67106    -69411.51506       791.99606        41.20006  25949611.77415     14733.35815       591.67415        29.50015
C27  21411536.71826    -33480.87326       456.30526        39.40026  21411531.92105     42211.88605       339.87905        33.50005
R08  21011464.88206   4440010.40506     -2231.66606        39.90006
E10  24631182.40406    -83305.48906      1570.81906        38.50006  24631187.50006    -38010.56806      1172.96506        40.60006
R15  22289736.75306   2609022.24606     -2266.08006        37.50006
E25  25916649.59306    -80058.67706       712.98406        36.90006  25916654.09006     35856.34506       531.07106        37.10006
R01  19939809.67406   2363373.58706      2004.81106        36.50006
C36  25873951.95206    180947.44606     -1123.04206        36.80006  25873980.43325    152934.74525      -838.97725        32.50025
C30  24682741.31026   -225553.35226      2891.75126        37.00026  24682741.31005   -146110.88005      2159.53505        32.20005
E16  25253598.91426    240224.71426     -1842.16226        36.10026  25253597.41525   6384184.16925     -1367.65725        33.90025
R16  22832725.94915   -195907.23315      1353.47615        33.10015
C41  22962252.48025   -225223.04625      2079.03025        33.90025  22962276.16415   -102437.24815      1546.44015        31.50015
E12  23411819.45105     30549.72105       501.10605        33.70005  23411822.44905     16143.45405       373.06605        30.70005
R23  23185282.18025   3861421.78025     -3461.00625        34.10025
R02  22965235.71525-102605267.00225      4513.93225        31.20025
E11  25066541.31114     29764.94814      2345.55214        29.30014  25066532.61714    134583.01214      1753.05014        28.30014
R14  24218566.95224  -1772012.87324     -4115.77124        27.60024
C32  26647331.35324    180719.52424      3662.65524        27.00024  26647341.54613    562811.04913      2744.33413        22.30013
E19  25748967.87705    225423.63205      2804.33805        31.40005  25748922.00925    631707.11925      2089.47125        29.50025
E07  27798561.37324    270405.86624     -1726.98324        29.10024  27798552.37913    561198.32913     -1285.81613        22.40013
C42  26910354.26614    339476.74214     -3236.28414        28.30014  26910351.26824    385085.30724     -2417.14424        26.90024
G27                                                                  23424947.06315    362491.95315     -2755.34815        30.30015
> 2026 04 21 14 04 50.9999119  0 36                      
G32  22405127.76907    -21401.35507       965.60607        44.10007  22405125.07115    -21855.54015       725.25915        30.80015
G10  23035061.87507    310496.79207     -2823.05107        41.70007  23035062.47506    297414.82306     -2107.81906        37.60006
G02  20551377.29407     10575.67507        46.90807        41.90007                                                                
G17  25476532.98006   -275152.13406      3351.67606        38.90006                                                                
G14  23202906.67926    -91071.23626       797.50626        38.60026  23202910.27605     -1186.44105       593.99005        35.20005
G01  21283893.78406   -219718.68406      2100.76706        38.00006  21283902.77706    -97558.43806      1568.90006        36.80006
G08  21100568.89706    247472.66106     -2342.94006        36.80006  21100562.00106    252196.17506     -1751.55906        36.00006
G22  24212015.88726   -171994.15826      1555.13626        40.90026                                                                
G27  23425673.76026    285711.92926     -3675.78726        36.80026  23425638.98405    365236.40905     -2749.50405        29.60005
G03  23618538.04315   -345258.28515      3756.55915        34.30015  23618508.66325    362977.37025      2802.47125        32.50025
C28  22452428.72407    213530.13807     -1925.84107        43.40007  22452434.71915    223641.68115     -1439.19015        30.10015
C33  23077775.10507    115805.75907     -1028.88007        42.30007  23077804.18505    150063.77605      -768.24605        35.40005
R17  21223957.47707   4181220.47807      3026.23907        42.10007
E33  24893774.81507    199768.89307     -1875.10407        41.80007  24893780.21105   7001569.14505     -1400.09805        30.10005
E29  25949440.59306    -70204.84406       793.48706        41.20006  25949454.98315     14140.90015       585.66315        32.50015
C27  21411437.78716    -33938.77016       455.31816        39.40016  21411432.99005     41870.75605       341.35005        33.50005
R08  21011880.99406   4442242.06206     -2230.64206        39.70006
E10  24630874.21706    -84877.86406      1572.61706        38.50006  24630877.21506    -39184.83106      1174.51206        40.30006
R15  22290151.06606   2611287.45706     -2265.23706        37.50006
E25  25916499.99726    -80772.82726       715.71626        37.00026  25916507.19206     35323.20506       533.21906        36.90006
R01  19939433.13406   2361367.23706      2005.71606        36.60006
C36  25874157.61006    182068.42406     -1120.62306        36.70006  25874181.89305    153772.05805      -835.99905        32.80005
C30  24682181.89816   -228444.61216      2891.15716        36.90016  24682181.59825   -148269.42325      2157.92325        32.50025
E16  25253933.78206    242064.92306     -1837.84506        36.00006  25253936.18005   6385559.72305     -1378.59305        33.70005
R24  19405725.81227   3009377.19927      -265.24927        42.00027
C41  22961844.16325   -227304.96825      2080.79425        34.00025  22961864.24905   -103991.64205      1556.69305        31.40005
R16  22832487.315 5   -197262.209 5      1353.956 5        33.500 5
E07  27798867.76124    272131.80524     -1728.39424        29.00024  27798871.05913    562484.53813     -1290.92413        22.90013
R02  22964399.89325-102609788.48525      4522.69625        31.30025
R23  23185924.63525   3864881.54025     -3458.32725        33.60025
E11  25066082.32914     27415.97914      2352.62214        29.10014  25066074.534 4    132828.772 4      1753.073 4        28.800 4
C42  26910939.16124    342714.62224     -3238.22424        28.10024  26910957.44804    387502.89004     -2419.70304        28.00004
E19  25748418.05805    222625.67905      2795.94505        30.70005  25748421.35524    629619.84424      2096.68024        29.20024
R14  24219271.76424  -1767893.75924     -4120.24524        27.60024
C32  26646602.85724    177052.70524      3670.97124        27.00024  26646623.24313    560075.52813      2737.68913        22.20013
E12  23411704.93115     30045.51315       508.42615        33.50015  23411715.72325     15768.98825       373.23125        30.70025
> 2026 04 21 14 04 51.9999108  0 36                      
G32  22404958.98607    -22362.74507       959.35107        44.50007  22404959.88615    -22573.88315       719.71915        30.70015
G10  23035618.88907    313323.39707     -2828.34707        42.00007  23035615.89206    299525.72606     -2112.30806        37.60006
G01  21283517.54406   -221817.36506      2097.60506        37.90006  21283522.64006    -99124.81206      1565.15706        37.10006
G08  21101029.37806    249822.72206     -2353.02306        37.00006  21101028.17906    253950.84206     -1756.10306        36.50006
G02  20551381.79107     10533.44707        41.88507        41.60007                                                                
G22  24211744.27526   -173542.32826      1545.57626        39.60026                                                                
G17  25475907.91326   -278498.99726      3345.12726        38.50026                                                                
G14  23202773.87026    -91862.77826       789.09126        38.50026  23202778.36725     -1778.21725       581.69825        35.40025
G03  23617854.51615   -349005.25515      3745.94315        34.20015  23617814.94425    360182.97825      2791.53925        32.00025
G27  23426398.35826    289386.44326     -3675.51126        35.90026  23426356.98714    367982.15614     -2746.39614        29.10014
C28  22452820.55207    215459.76007     -1931.39307        43.40007  22452814.25715    225082.81515     -1439.16415        29.80015
C33  23077990.65607    116838.53907     -1034.68807        42.60007  23078018.83725    150834.78225      -772.33225        35.40025
E33  24894154.95207    201647.84707     -1880.76707        41.90007  24894157.65025   7002972.13725     -1408.78725        31.10025
R17  21223412.15407   4178197.83407      3020.96307        42.00007
E29  25949317.37806    -70994.04606       787.13906        41.20006  25949317.07805     13550.76505       590.97405        32.30005
R08  21012306.69906   4444476.32306     -2236.06606        39.60006
E10  24630591.21306    -86447.45406      1566.70006        38.50006  24630595.71026    -40356.57826      1170.49126        39.70026
E25  25916383.67806    -81482.60406       707.09106        37.10006  25916388.17426     34791.00526       528.73126        36.20026
R15  22290607.35006   2613555.37606     -2269.27506        37.40006
R01  19939081.47806   2359365.30806      2000.71906        36.60006
C36  25874401.64106    183193.14306     -1126.59206        36.60006  25874413.03315    154609.99515      -840.25215        32.80015
C30  24681647.36826   -231332.38026      2887.52626        36.80026  24681650.36605   -150425.98505      2155.57505        32.60005
R24  19405774.97826   3009646.82226      -273.64226        41.20026
E16  25254307.92326    243908.65226     -1845.99226        35.90026  25254306.12405   6386937.88205     -1379.46305        33.60005
C41  22961486.81025   -229383.22925      2078.43325        34.00025  22961486.51005   -105543.05405      1549.92205        31.70005
E07  27799214.921 5    273862.936 5     -1736.230 5        32.600 5  27799220.01713    563777.67213     -1292.09913        22.90013
R16  22832234.59005   -198616.37005      1352.50405        33.40005
R02  22963589.25525-102614306.13325      4518.48525        31.50025
R23  23186591.07425   3868343.83325     -3464.81325        33.30025
E12  23411638.67615     29542.64015       507.20615        33.30015  23411638.67615     15395.63215       371.80115        30.30015
E11  25065645.23104     25069.75904      2348.34904        29.00004  25065645.23104    131076.77004      1751.38604        29.30004
C42  26911570.22414    345960.38514     -3245.20714        28.10014  26911594.80724    389924.42624     -2421.53824        28.00024
E19  25747906.61215    219831.97715      2790.08015        30.20015  25747912.00824    627531.28624      2087.20224        28.60024
R14  24220083.90124  -1763774.08324     -4120.21124        27.50024
C32  26645931.02224    173388.94624      3662.73324        26.90024  26645949.31013    557337.19913      2740.73613        22.30013
C27  21411356.24326    -34392.28126       447.81826        38.90026  21411364.63705     41532.34205       337.05505        33.40005
> 2026 04 21 14 04 52.9999097  0 36                      
G32  22404774.61407    -23325.57307       963.54807        44.50007  22404775.21315    -23291.75615       713.13915        30.60015
G02  20551364.70306     10489.95606        43.62206        41.00006                                                                
G01  21283118.52006   -223917.75906      2101.25406        37.90006  21283123.61726   -100692.83726      1568.85326        36.70026
G14  23202620.07726    -92655.86026       790.85326        38.40026  23202626.37306     -2370.99106       593.27506        35.80006
G08  21101478.46706    252169.86806     -2345.69106        37.00006  21101475.46926    255704.10426     -1752.56226        36.70026
G03  23617152.40215   -352752.53915      3745.19515        34.00015  23617102.93625    357386.93925      2798.36725        31.50025
G27  23427086.38215    293061.06715     -3672.68415        35.30015  23427060.30024    370728.68524     -2750.42224        28.90024
G17  25475281.94626   -281848.14126      3345.53726        37.50026                                                                
G22  24211450.17826   -175090.38026      1544.74426        38.30026                                                                
G10  23036154.61907    316148.14807     -2823.82707        42.10007  23036154.61906    301634.84806     -2108.23506        38.00006
C28  22453181.80207    217387.23507     -1926.40307        43.30007  22453184.80024    226520.93324     -1439.11124        29.30024
C33  23078184.32227    117869.55227     -1030.13027        42.80027  23078215.800 5    151604.595 5      -767.717 5        35.400 5
E33  24894509.30627    203523.82127     -1874.48727        41.90027  24894512.30405   7004374.99105     -1405.78705        31.10005
R17  21222837.75207   4175172.53907      3025.87307        42.00007
E29  25949159.98726    -71785.47826       794.04826        41.20026  25949168.68125     12959.96225       595.63725        32.20025
R08  21012720.71306   4446709.82406     -2235.37306        39.40006
E10  24630299.51516    -88023.60416      1575.43216        38.40016  24630295.31816    -41534.26416      1182.15616        37.50016
R24  19405833.138 6   3009916.717 6      -269.281 6        40.400 6
E25  25916249.07126    -82195.44326       714.37126        37.50026  25916252.36805     34257.11305       531.23805        35.20005
R15  22291018.06606   2615821.52506     -2263.01706        37.40006
R01  19938712.43306   2357360.19106      2005.71406        36.50006
C36  25874616.29206    184315.85106     -1121.70306        36.50006  25874625.886 5    155448.039 5      -822.597 5        32.500 5
C30  24681096.64926   -234222.68926      2889.58326        36.70026  24681100.84625   -152582.87725      2155.55825        32.60025
E16  25254653.88406    245751.41206     -1842.27706        35.80006  25254657.18105   6388314.32005     -1375.58005        34.20005
C27  21411275.29926    -34847.33526       457.32526        38.10026  21411275.59925     41191.98925       341.32425        33.00025
C41  22961079.99225   -231466.08325      2083.15325        33.90025  22961093.48215   -107096.30515      1549.67315        32.00015
E07  27799550.08925    275591.55725     -1727.86725        33.00025  27799549.18913    565069.05313     -1290.00513        22.80013
R02  22962738.14425-102618827.17525      4518.99425        31.60025
R23  23187253.61525   3871804.95025     -3461.03325        33.00025
R16  22831993.85625   -199980.82225      1365.60025        33.20025
E11  25065195.84314     22720.80614      2345.82114        29.00014  25065200.04025    129323.06725      1754.55425        29.60025
C42  26912194.09224    349203.61024     -3244.95924        28.30024  26912211.78014    392345.16314     -2423.34114        27.90014
E12  23411549.03815     29042.21315       494.20415        32.70015  23411544.54215     15021.63315       371.82215        29.70015
E19  25747381.67515    217034.22115      2795.78615        29.70015  25747377.47824    625443.28424      2090.22724        28.20024
C32  26645237.30324    169724.91424      3657.67424        26.90024  26645253.49113    554599.85913      2735.84713        22.90013
R14  24220819.89224  -1759654.75924     -4119.90324        27.40024
> 2026 04 21 14 04 53.9999085  0 36                      
G32  22404580.94807    -24288.11307       962.39807        44.50007  22404581.84705    -24010.96405       714.87605        30.50005
G10  23036678.35607    318972.87007     -2825.46007        42.20007  23036681.35406    303744.58706     -2110.04906        38.00006
G02  20551347.61506     10446.93906        42.78106        40.60006                                                                
G01  21282703.60706   -226018.60406      2099.57406        37.80006  21282709.90306   -102259.86506      1566.53206        35.90006
G03  23616415.51215   -356501.06915      3748.90715        33.90015  23616379.83725    354590.24825      2802.51925        31.00025
G27  23427784.29925    296735.44025     -3675.50225        34.80025  23427750.42214    373473.13014     -2744.90814        28.30014
G17  25474628.09926   -285195.39526      3349.31326        36.40026                                                                
G22  24211136.29626   -176641.53526      1556.71026        37.00026                                                                
G08  21101918.26306    254518.75206     -2349.00606        37.00006  21101909.868 6    257457.271 6     -1748.622 6        36.900 6
C28  22453537.05607    219315.49707     -1928.65807        43.30007  22453541.553 4    227961.026 4     -1433.083 4        29.100 4
C33  23078370.49327    118901.05527     -1030.24927        42.90027  23078398.07415    152377.44115      -776.36415        34.80015
E33  24894860.06407    205400.93107     -1877.68007        41.90007  24894855.86715   7005775.49715     -1396.33315        30.60015
E29  25949004.39506    -72576.00206       789.57106        41.30006  25949005.89405     12369.25405       589.16105        32.60005
R17  21222266.64707   4172148.36707      3024.61407        42.00007
R24  19405866.715 6   3010187.077 6      -270.594 6        40.000 6
R08  21013135.62606   4448944.90506     -2232.87506        39.30006
E10  24629989.53006    -89596.12106      1573.70306        38.40006  24629987.13125    -42710.81425      1176.98425        35.30025
E25  25916102.47206    -82906.66706       710.41806        37.50006  25916106.36925     33726.47825       533.50725        34.50025
R15  22291441.07316   2618088.03616     -2268.94516        37.30016
R01  19938321.20406   2355356.87206      2003.42306        36.50006
C36  25874822.25026    185439.38826     -1123.95426        36.50026  25874825.54815    156281.63915      -828.87915        31.30015
C30  24680533.93826   -237112.14626      2894.03426        36.60026  24680537.53605   -154740.60505      2157.14905        32.60005
C27  21411175.76806    -35301.87606       454.28506        37.40006  21411177.86725     40851.79625       352.11225        32.30025
E16  25254996.84626    247596.35426     -1843.03526        35.70026  25254994.74825   6389691.13625     -1372.50625        34.20025
E07  27799865.170 5    277321.501 5     -1730.108 5        33.700 5  27799862.77224    566357.42624     -1290.37224        23.90024
C41  22960699.85505   -233544.74505      2077.06805        33.90005  22960684.56515   -108647.17015      1540.67415        31.80015
R23  23187881.68025   3875268.00225     -3461.52425        32.70025
R02  22961896.32725-102623344.58625      4516.60125        31.70025
C42  26912815.56224    352447.79224     -3241.16524        28.50024  26912814.66314    394760.79814     -2416.58714        27.00014
E11  25064729.06614     20375.08314      2348.11114        28.90014  25064739.55815    127569.07715      1761.63615        29.60015
E12  23411440.21405     28541.18905       502.32305        32.00005  23411441.11314     14650.73614       362.84614        29.10014
E19  25746809.37114    214238.85614      2801.67414        29.40014  25746835.45324    623353.26924      2087.02324        28.00024
C32  26644539.08624    166059.36024      3668.31824        26.80024  26644535.78813    551861.00713      2736.61213        23.00013
R14  24221564.57624  -1755535.60624     -4120.32324        27.20024
R16  22831744.72925   -201345.92925      1372.93625        32.40025
G14                                                                  23202464.18525     -2961.97525       586.58925        35.30025
> 2026 04 21 14 04 54.9999074  0 36                      
G32  22404398.37407    -25248.03107       958.60707        44.60007  22404398.97425    -24727.01725       714.97725        30.40025
G10  23037219.78107    321800.58307     -2829.71207        42.20007  23037219.78106    305855.86006     -2112.04306        37.60006
G02  20551337.72206     10406.55006        39.07406        40.50006                                                                
G01  21282305.18306   -228115.39806      2096.02106        37.70006  21282312.67825   -103825.32225      1566.17225        35.20025
G08  21102360.45616    256869.22316     -2353.01716        37.00016  21102357.15906    259212.94506     -1758.42906        37.30006
G17  25473991.339 6   -288541.041 6      3342.846 6        35.800 6                                                                
G27  23428476.22025    300414.45925     -3682.59625        34.50025  23428450.43825    376222.30825     -2752.04725        30.20025
G03  23615686.11725   -360243.58425      3740.51125        33.70025  23615665.13225    351795.57225      2799.17325        30.50025
G14  23202324.78126    -94237.49826       794.57726        36.90026  23202314.58815     -3551.66915       584.54915        34.20015
G22  24210851.49326   -178189.20226      1551.67326        35.90026                                                                
C33  23078566.85707    119935.75207     -1036.79707        43.40007  23078595.038 5    153149.743 5      -770.029 5        34.000 5
C28  22453907.60007    221246.00207     -1931.62907        43.30007  22453911.49725    229403.62925     -1444.86025        29.80025
E29  25948854.49807    -73364.00407       786.74107        41.80007  25948856.29705     11780.74105       587.41605        33.60005
E33  24895215.01807    207279.91507     -1879.92207        42.10007  24895215.01805   7007178.79205     -1402.19205        30.10005
R24  19405918.87906   3010460.11306      -274.37306        39.90006
R23  23188520.53826   3878733.23926     -3464.83326        38.90026
E10  24629682.54226    -91164.74226      1567.67426        38.20026  24629689.13805    -43881.98505      1167.98305        35.00005
C27  21411089.42806    -35753.99506       450.90806        37.20006  21411093.62505     40514.15505       332.36605        32.00005
R01  19937946.46306   2353357.18606      1997.62206        36.50006
R15  22291864.98006   2620359.83906     -2271.70106        37.20006
C30  24679986.51706   -239999.33306      2884.55406        36.50006  24679988.61625   -156896.68025      2154.25125        32.80025
C36  25875031.80526    186565.79926     -1129.34926        36.40026  25875043.49715    157120.90315      -841.59815        29.80015
E16  25255345.50506    249443.16106     -1847.24106        35.70006  25255347.00405   6391070.51605     -1380.66405        33.90005
E07  27800198.839 5    279054.912 5     -1733.647 5        33.900 5  27800191.94424    567647.61324     -1291.59524        25.00024
R17  21221709.63307   4169125.89407      3021.37707        41.80007
R02  22961028.72725-102627860.54925      4516.74425        31.80025
E12  23411342.48125     28043.49925       497.52425        31.50025  23411341.88204     14278.93404       373.25404        28.80004
C42  26913423.84124    355690.02224     -3245.25724        28.70024  26913439.43014    397176.70414     -2413.04414        25.50014
E11  25064275.18014     18028.50214      2341.51214        28.80014  25064293.76715    125816.70415      1747.56715        29.50015
R08  21013546.34116   4451182.51916     -2238.13216        39.00016
E19  25746302.42214    211445.43214      2791.95714        29.10014  25746304.82124    621267.68724      2096.36924        27.80024
E25  25915975.66026    -83615.84026       700.64726        37.30026  25915970.86315     33200.84415       523.63515        33.40015
C32  26643835.77324    162398.69124      3659.73124        26.80024  26643847.16513    549125.26613      2738.18813        23.00013
R14  24222339.84024  -1751419.50424     -4119.33124        27.10024
R16  22831478.51325   -202710.97925      1363.77325        31.20025
C41  22960277.74725   -235621.65825      2077.54125        33.90025  22960291.53815   -110198.19115      1554.60115        31.40015
> 2026 04 21 14 04 55.9999063  0 36                      
G32  22404230.79007    -26207.51007       958.51107        44.80007  22404235.88705    -25443.94205       713.36105        30.90005
G10  23037784.29007    324628.28307     -2828.19707        42.20007  23037777.39526    307967.20826     -2111.38826        37.00026
G02  20551351.51206     10366.30006        40.18106        40.80006                                                                
G08  21102819.73806    259219.44906     -2349.60606        37.00006  21102821.53706    260968.46206     -1755.44006        37.30006
G17  25473374.966 5   -291886.745 5      3346.236 5        35.400 5                                                                
G27  23429192.72425    304094.57525     -3676.41825        34.20025  23429170.53905    378969.84705     -2750.72205        31.20005
G03  23614995.99515   -363986.99615      3741.36415        33.50015  23614969.01425    349001.35625      2792.98925        30.10025
G14  23202209.06226    -95023.25126       782.40726        35.80026  23202183.57915     -4139.91415       592.52215        33.00015
G22  24210577.48325   -179742.23925      1548.97425        34.90025                                                                
G01  21281929.54306   -230213.00506      2097.01406        37.60006  21281929.24405   -105391.28705      1567.22105        34.70005
C33  23078782.40807    120970.71007     -1035.08807        43.40007  23078811.48805    153922.58005      -773.60705        33.50005
E29  25948717.49307    -74151.82007       787.72407        42.80007  25948724.08905     11192.70605       587.79705        34.00005
C28  22454290.73507    223176.46607     -1930.44607        43.30007  22454294.03215    230847.10815     -1442.91715        29.80015
E33  24895586.76107    209159.00807     -1879.15007        42.20007  24895592.15705   7008582.15805     -1404.40305        30.60005
R24  19405986.33206   3010733.25706      -273.19806        40.20006
C27  21411021.37506    -36206.11306       452.11806        37.30006  21411024.37305     40176.58005       337.54205        31.90005
R23  23189188.176 6   3882196.319 6     -3464.254 6        38.800 6
E10  24629408.23206    -92733.52006      1568.35806        38.10006  24629408.83205    -45053.51005      1171.70305        34.90005
R01  19937590.91006   2351357.68006      1999.41706        36.70006
R15  22292315.56806   2622631.07006     -2272.44906        37.00006
C30  24679451.98806   -242886.52506      2887.19906        36.40006  24679453.18715   -159051.81315      2153.66415        31.80015
E16  25255711.55126    251289.61226     -1846.77626        35.60026  25255716.94805   6392449.39305     -1379.12705        33.40005
R08  21014006.22326   4453419.51126     -2238.68426        38.50026
C41  22959902.70725   -237696.62725      2074.99925        33.90025  22959912.00005   -111748.76205      1551.84705        31.20005
E07  27800551.39515    280785.91515     -1730.30015        33.90015  27800536.40614    568937.97614     -1291.45214        25.00014
R17  21221143.92426   4166103.81326      3021.13826        40.90026
R02  22960207.59625-102632378.33925      4517.45825        32.00025
E12  23411259.73905     27545.56805       496.05105        31.40005  23411263.63604     13907.15004       372.27504        28.80004
C42  26914060.60024    358933.78824     -3242.03824        28.90024  26914067.19614    399598.39514     -2420.58714        24.70014
E19  25745793.37504    208653.98404      2789.96304        28.90004  25745771.79024    619182.84724      2072.97124        27.70024
E11  25063867.16214     15686.55314      2341.13614        28.70014  25063864.464 5    124064.570 5      1754.016 5        29.500 5
C32  26643178.02824    158736.96024      3655.76624        26.70024  26643169.03413    546391.70713      2723.97213        22.50013
E25  25915868.33416    -84320.76316       699.30016        36.20016  25915856.94215     32673.66915       527.44515        31.90015
R14  24223125.29624  -1747298.94524     -4119.54224        27.00024
C36  25875292.92416    187685.85516     -1116.38016        35.60016  25875277.33514    157960.97514      -842.97614        28.40014
R16  22831241.67725   -204072.11925      1357.43625        30.10025
> 2026 04 21 14 04 56.9999052  0 36                      
G32  22404049.11607    -27163.60307       955.40107        44.80007  22404049.71625    -26158.76125       715.26725        31.90025
G10  23038310.12607    327458.83407     -2833.22807        42.20007  23038314.92306    310079.84606     -2108.78506        36.40006
G02  20551341.91906     10328.29306        36.88506        41.20006                                                                
G01  21281532.01906   -232307.22206      2092.02506        37.50006  21281532.61825   -106955.26925      1560.99225        34.40025
G08  21103277.52206    261572.56406     -2353.81206        37.00006  21103270.32706    262725.97006     -1758.50606        37.30006
G17  25472737.60705   -295230.25505      3342.41805        35.10005                                                                
G27  23429882.84625    307776.72225     -3685.16825        34.00025  23429872.65325    381718.98925     -2746.94725        31.70025
G03  23614286.68615   -367732.09115      3745.19115        33.30015  23614260.90425    346210.51725      2790.15325        29.90025
G22  24210311.26725   -181297.65325      1560.35425        34.00025                                                                
G14  23202039.97925    -95805.47025       780.95325        34.90025  23202038.18015     -4727.21515       587.33015        31.80015
E29  25948571.79407    -74937.17907       784.13107        43.60007  25948572.69405     10606.09505       585.89905        34.40005
C33  23078980.57127    122008.29427     -1040.39927        43.40027  23079010.85005    154697.34205      -775.72505        33.30005
C28  22454657.68107    225109.28207     -1933.99407        43.20007  22454661.57815    232288.48915     -1440.83415        29.70015
E33  24895944.71307    211040.17407     -1882.20507        42.20007  24895950.40905   7009986.84705     -1405.35105        31.30005
R24  19406038.49606   3011009.12506      -277.98106        40.40006
C27  21410936.83306    -36655.66506       448.26906        38.00006  21410939.83105     39840.91605       334.70805        32.50005
R23  23189832.13016   3885660.79916     -3462.43516        38.60016
E10  24629101.24506    -94300.06106      1565.42506        38.00006  24629108.44005    -46223.27905      1168.89205        34.70005
R01  19937216.46906   2349361.34606      1995.50106        36.80006
R15  22292743.07206   2624901.02406     -2268.31806        36.90006
E16  25256089.29016    253132.50816     -1850.12116        35.50016  25256067.40515   6393827.45715     -1368.65915        32.50015
C41  22959508.77925   -239770.31325      2066.54825        33.90025  22959519.87215   -113298.52915      1547.36715        31.20015
E07  27800878.16905    282521.07305     -1737.23905        33.80005  27800869.47514    570227.82514     -1293.59314        25.00014
R17  21220578.516 6   4163082.960 6      3019.742 6        39.600 6
R08  21014403.14816   4455659.75516     -2239.87216        37.70016
R02  22959364.27925-102636893.56125      4515.69425        32.00025
E12  23411170.40125     27050.40625       494.27925        31.50025  23411171.00004     13537.34504       368.81704        28.90004
C36  25875489.28815    188817.74615     -1130.31015        34.30015  25875490.48714    158808.99614      -846.99614        27.20014
C42  26914665.58124    362179.99724     -3246.43524        29.10024  26914684.76806    402020.70406     -2424.12006        36.00006
E19  25745227.36704    205860.91504      2790.88204        28.70004  25745260.34424    617098.95524      2066.42124        27.60024
E11  25063417.47414     13338.00314      2347.35214        28.50014  25063419.27205    122314.50805      1748.52805        29.50005
C32  26642489.70524    155079.02024      3655.04924        26.70024  26642482.51013    543715.43313      2654.63413        21.80013
R14  24223918.84724  -1743174.87324     -4127.08224        26.80024
E25  25915719.33715    -85023.86115       695.18515        34.60015  25915727.13215     32147.67615       522.40315        30.60015
R16  22830949.67924   -205419.48324      1349.97824        29.00024
C30                                                                  24678909.66315   -161204.88615      2157.04615        30.20015
> 2026 04 21 14 04 57.9999041  0 35                      
G32  22403848.85507    -28119.36507       955.34707        44.70007  22403850.953 5    -26873.300 5       718.901 5        32.300 5
G10  23038832.36507    330289.66507     -2830.47607        42.10007  23038834.16426    312192.73726     -2116.01926        35.90026
G02  20551315.53707     10291.17407        36.67507        41.50007                                                                
G01  21281109.01106   -234400.77006      2093.46506        37.50006  21281116.20605   -108518.70205      1560.66005        34.90005
G08  21103702.92706    263926.19906     -2354.14706        37.00006  21103699.92906    264483.92706     -1758.18406        37.20006
G17  25472081.36205   -298573.87905      3342.93405        34.90005                                                                
G03  23613551.29525   -371475.81825      3746.54725        33.10025  23613532.40825    343419.65925      2790.37225        29.80025
G14  23201883.48725    -96591.53725       786.24225        34.30025  23201870.29615     -5314.40415       585.13315        30.50015
G27  23430572.96815    311458.69415     -3681.63715        33.80015  23430554.68115    384466.31615     -2745.42315        32.00015
E29  25948404.81007    -75722.09807       784.70007        44.20007  25948405.70925     10019.07125       593.23125        34.20025
C33  23079159.24707    123046.92107     -1038.65107        43.30007  23079191.02525    155474.50625      -782.86625        33.10025
C28  22455006.33907    227042.56007     -1933.51107        43.20007  22455008.73815    233726.74915     -1417.20215        29.60015
E33  24896286.77627    212921.17927     -1880.92627        42.20027  24896292.47225   7011393.26125     -1411.77925        31.30025
R24  19406072.67206   3011285.44306      -277.79306        40.40006
C27  21410831.00726    -37103.98326       447.70326        38.80026  21410836.10305     39505.73105       334.94705        33.00005
E10  24628791.55926    -95866.01526      1565.66226        37.90026  24628793.35805    -47392.68505      1169.22605        34.90005
R23  23190460.79516   3889125.34116     -3457.07616        38.50016
R01  19936822.24206   2347365.89806      1996.25706        36.90006
R15  22293134.00116   2627175.36616     -2277.53816        36.80016
E16  25256448.14115    254970.94715     -1834.71215        35.40015  25256399.87515   6395209.49815     -1372.03115        31.40015
E07  27801185.45605    284255.40305     -1733.91805        33.80005  27801186.35624    571523.52324     -1295.62524        25.40024
R08  21014796.176 6   4457900.907 6     -2240.607 6        37.100 6
C41  22959097.16425   -241844.66125      2073.68125        33.90025  22959103.76015   -114846.68215      1541.84815        31.70015
R17  21220007.711 6   4160063.244 6      3020.151 6        38.600 6
R02  22958515.56725-102641408.62825      4518.24425        32.00025
E12  23411051.38325     26555.68425       494.50125        31.70025  23411058.27824     13167.66024       369.62524        29.00024
C42  26915268.16425    365424.11525     -3248.07525        29.70025  26915284.35306    404443.41206     -2422.91106        35.90006
E19  25744697.33414    203067.91514      2795.46814        28.60014  25744710.52424    615014.46524      2091.29124        27.80024
E11  25062943.80214     10990.23014      2345.88814        28.40014  25062953.39505    120564.65105      1749.75705        29.50005
C32  26641782.49424    151421.04224      3654.50024        26.70024                                                                
E25  25915575.13715    -85726.70615       701.22015        33.20015  25915574.53814     31621.68014       525.49914        29.40014
R14  24224683.91724  -1739053.66424     -4118.78324        26.70024
C30  24678340.95715   -248649.84915      2874.16515        34.00015  24678343.65514   -163361.86914      2167.94114        29.10014
R16  22830680.46524   -206754.97924      1327.31224        28.20024
C36  25875687.15115    189948.46015     -1135.62715        33.50015  25875697.94414    159658.09914      -851.14614        26.30014
