     3.05           OBSERVATION DATA    M                   RINEX VERSION / TYPE
GnssLogger          samsung 16          20260421 133434 UTC PGM / RUN BY / DATE
Google GnssLogger                                           MARKER NAME
Unknown                                                     MARKER NUMBER
Unknown             Unknown                                 OBSERVER / AGENCY
Unknown             GnssLogger          v3.1.1.2            REC # / TYPE / VERS
Unknown             Unknown                                 ANT # / TYPE
        0.0000        0.0000        0.0000                  ANTENNA: DELTA H/E/N
G    8 C1C L1C D1C S1C C5Q L5Q D5Q S5Q                      SYS / # / OBS TYPES
R    4 C1C L1C D1C S1C                                      SYS / # / OBS TYPES
C    8 C1P L1P D1P S1P C5P L5P D5P S5P                      SYS / # / OBS TYPES
E    8 C1C L1C D1C S1C C5Q L5Q D5Q S5Q                      SYS / # / OBS TYPES
  2026    04    21    13    34   34.0000000     GPS         TIME OF FIRST OBS
 9 R01  1 R07  5 R08  6 R14 -7 R15  0 R16 -1 R17  4 R23  3  GLONASS SLOT / FRQ #
   R24  2                                                   GLONASS SLOT / FRQ #
samsung SM-S921B (Android 16) HW Year: 2021 HW Model:       COMMENT
S.LSI,K43E1,SPOTNAV_4.17.16_27_E_275468                     COMMENT
                                                            END OF HEADER
> 2026 04 21 13 34 34.0000000  0 30                      
G10  22153559.51307     62031.05407     -2122.63607        44.50007  22153561.31205    113600.87505     -1585.27505        33.70005
G32  22915639.73607    -25348.73707      2059.07607        42.80007  22915649.92914     47176.34314      1535.75714        26.30014
G23  24640156.87706     89498.67506     -3435.10406        40.50006  24640149.68224    832754.53524     -2563.95524        27.80024
G02  20679522.86706       983.59006       798.54706        37.00006                                                                
G14  23670705.71424    -32167.36124      1982.94924        28.00024  23670709.01213     43624.66613      1488.09013        23.30013
G22  24904330.09424     25560.37924      2510.64924        26.10024                                                                
G01  22102056.36824     -5523.71924      2719.48424        23.50024                                                                
G27  22228837.99907     82529.46407     -3103.92107        42.40007  22228840.09706    129601.60806     -2318.54806        36.80006
G08  20448715.35206     44724.75706     -1297.61206        36.90006  20448717.75005    100034.22805      -969.16005        33.60005
C28  21889532.59506    111796.43606     -1217.67306        40.90006  21889526.89914     76461.78214      -913.52914        24.10014
R24  19472668.15506   3392103.26706       752.85706        39.60006
E33  24291718.89606    117324.74806     -1489.02506        39.80006  24291719.49525    113012.00425     -1111.77525        29.60025
R08  20508742.49606   5120137.28806      -577.92606        39.50006
C42  25855608.13806     65567.13506     -2710.47006        38.60006  25855621.92814    108592.83014     -2029.11514        26.60014
R23  22070469.33506   3185008.93606     -2982.43606        38.60006
C41  23818749.82606    -43832.14806      2941.00606        38.10006  23818755.52224     73461.85224      2195.14724        26.20024
C33  22901965.30206     14750.69106       135.30506        38.40006  22901997.08015     63998.10015        96.62015        34.30015
R01  20859601.90106   2529394.83006      3447.15906        36.30006
R16  23537668.91405    -88885.05305      2838.13505        33.00005
E29  26364053.74806     51745.31706      1691.81906        35.60006                                                                
E25  26308932.40805     52872.39705      1637.42805        30.50005  26308946.79814     30713.54514      1222.67214        24.80014
E12  23660596.41305     65274.92505      1043.42305        30.00005  23660587.41904    742090.50704       774.13404        27.00004
C27  21686925.65715    -16182.46815      1222.42315        30.80015  21686891.18114     48656.36814       910.22114        27.20014
E16  24752081.39414     77388.70914      -947.38614        26.40014                                                                
E07  27333944.40715     35066.49715      -833.48615        29.70015  27333972.58724     78240.45824      -620.01324        28.50024
R07  23497518.60924  55610741.74724     -3726.49124        25.60024
R15  21760092.10524   2374302.37424      -705.36324        27.70024
R14  22857461.41223  -5748798.70723     -3684.09223        20.80023
R17  22308298.28923   6588068.63123      3432.86223        22.80023
C36  25646109.57114     58418.51614       -67.09314        24.20014                                                                
> 2026 04 21 13 34 34.9999977  0 30                      
G10  22153965.73207     64244.91407     -2257.52607        44.30007  22153973.82605    115254.05305     -1685.72205        33.90005
G27  22229436.68407     85724.29107     -3238.37907        42.30007  22229436.68406    131987.21006     -2417.53106        36.70006
G32  22915254.50207    -27316.82507      1924.49507        42.50007  22915267.09414     45706.35314      1436.73714        26.00014
G23  24640809.52506     93024.96306     -3569.84106        40.40006  24640810.12514    835385.90214     -2664.82114        27.30014
G02  20679369.07406       276.37106       663.57106        37.00006                                                                
G08  20448969.87606     46113.54706     -1432.51006        36.50006  20448970.17505    101071.22405     -1069.53905        34.70005
G14  23670321.38024    -34063.82424      1854.87324        28.00024  23670334.27113     42209.97813      1383.07213        22.90013
G22  24903878.30724     23135.51824      2380.73824        26.10024                                                                
G01  22101555.41423     -8146.13123      2577.93823        23.40023                                                                
C28  21889766.73306    113105.14906     -1352.26506        40.80006  21889761.33624     77438.67124     -1010.06724        24.60024
R24  19472535.64706   3391443.12106       615.75306        39.80006
E33  24292007.29606    118904.62106     -1623.31106        39.70006  24292019.28805    114191.98505     -1212.46405        29.60005
R08  20508850.72106   5120807.57106      -714.72606        39.30006
C42  25856136.67206     68368.84406     -2845.36506        38.40006  25856146.56514    110687.38614     -2123.17114        26.00014
R23  22071032.64506   3188083.85106     -3119.15406        38.40006
C33  22901943.11806     14706.45606         0.57806        38.10006  22901974.59605     63965.11205         2.28205        34.70005
C27  21686653.44525    -17313.96925      1089.91425        30.40025  21686663.63806     47811.40406       813.53806        38.10006
C41  23818187.71516    -46681.88516      2807.62516        37.80016  23818202.10505     71333.76305      2094.78005        32.90005
R01  20858963.04306   2526040.18806      3310.27206        35.90006
E29  26363733.27005     50144.70205      1556.99305        35.00005  26363744.06314    389645.98114      1191.93214        28.90014
R16  23537161.06505    -91629.59305      2699.80205        32.90005
E25  26308648.50505     51325.69005      1506.20705        30.50005  26308643.10814     29559.27214      1117.62414        24.50014
E12  23660390.45525     64324.78225       910.70225        29.90025  23660393.45304    741380.69504       678.89204        28.80004
R17  22307651.93724   6584727.77224      3296.62524        24.50024
E07  27334119.48604     35992.15004      -968.66104        29.10004  27334138.97204     78931.45404      -724.53204        28.80004
E16  24752254.37414     78420.40714     -1077.58614        26.20014                                                                
R07  23498223.42124  55614558.26724     -3863.26724        25.30024
R15  21760241.70124   2375090.64824      -835.50824        27.10024
R14  22858099.97023  -5745032.87823     -3811.80823        21.00023
C36  25646138.95014     58587.84814      -213.27514        23.50014                                                                
> 2026 04 21 13 34 35.9999954  0 28                      
G10  22154377.64607     66463.26607     -2220.60307        44.20007  22154385.44105    116910.66705     -1658.33505        34.30005
G27  22230032.07207     88923.57007     -3201.51107        42.20007  22230033.27106    134376.35706     -2390.92506        36.60006
G08  20449221.10206     47507.03806     -1395.84606        41.30006  20449223.20006    102111.88006     -1042.48906        35.50006
G32  22914867.47007    -29280.25507      1961.10607        42.20007  22914883.95914     44240.56814      1467.18614        25.80014
G23  24641464.87206     96555.56906     -3532.77306        40.40006  24641470.86824    838022.69124     -2633.50624        26.90024
G02  20679220.37706      -426.24706       700.32006        37.20006                                                                
G14  23669960.13024    -35954.81024      1895.00324        27.90024  23669964.62713     40791.19813      1419.82813        22.60013
G22  24903425.02124     20710.77424      2429.19124        26.00024                                                                
C33  22901927.22907     14667.34807        36.54507        43.90007  22901955.70906     63935.81806        27.44806        35.70006
C28  21890001.17006    114418.55806     -1315.76006        40.60006  21889997.57324     78419.69124      -979.08824        25.20024
R24  19472395.34406   3390787.72806       653.01706        40.00006
E33  24292296.29606    120488.98006     -1586.60606        39.60006  24292313.38405    115375.17105     -1184.79205        30.50005
R08  20508964.34206   5121483.28206      -678.42606        39.10006
C42  25856655.01306     71174.99706     -2808.38206        38.30006  25856664.00714    112781.01914     -2089.67714        25.70014
R23  22071597.15406   3191163.47906     -3081.99106        38.30006
C27  21686431.59906    -18440.28606      1123.22706        36.10006  21686437.59506     46970.26706       839.22406        38.10006
R01  20858314.29206   2522690.62806      3346.27606        35.60006
E07  27334278.97525     36922.12825      -932.64325        33.10025  27334304.45805     79626.05605      -696.40605        29.90005
E29  26363417.58905     48548.76105      1593.60805        34.70005  26363428.38104    388454.26204      1191.95004        28.90004
R16  23536640.92505    -94368.35405      2736.62905        32.80005
E25  26308334.62225     49783.14225      1548.47225        30.50025  26308334.32214     28407.59614      1151.38014        24.20014
E12  23660198.58825     63379.07825       941.98725        29.90025  23660200.08705    740674.46705       704.43805        30.50005
C41  23817636.99626    -49527.52226      2846.09326        37.00026  23817649.28705     69209.29305      2122.66705        32.90005
R17  22307024.77124   6581392.94224      3333.82424        28.60024
E16  24752454.33514     79456.48514     -1032.27014        26.10014                                                                
R07  23498946.52124  55618381.20224     -3826.15124        25.20024
R15  21760393.09624   2375884.75924      -793.03224        26.70024
R14  22858764.90923  -5741261.94823     -3769.98923        21.20023
> 2026 04 21 13 34 36.9999933  0 27                      
G10  22154812.04607     68681.19007     -2217.71507        44.10007  22154818.94105    118566.82805     -1655.93905        34.70005
G27  22230648.74507     92122.20807     -3198.32507        42.10007  22230653.84106    136764.94106     -2388.30706        36.50006
G08  20449499.60906     48900.07306     -1392.80906        41.30006  20449500.50806    103152.15506     -1040.08606        36.00006
G32  22914501.12407    -31244.25507      1964.28907        42.00007  22914506.22014     42771.32514      1468.47614        25.60014
G23  24642147.49906    100085.24806     -3529.22206        40.30006  24642155.89314    840657.37614     -2631.13914        26.70014
G02  20679095.06306     -1129.53006       703.61606        37.50006                                                                
G14  23669621.66524    -37844.35424      1888.82724        27.90024  23669618.96713     39374.83413      1424.15913        22.30013
G22  24902978.33024     18275.59724      2438.39824        25.90024                                                                
C33  22901932.02507     14627.69607        39.92507        45.60007  22901960.80506     63906.20806        29.76806        36.00006
R24  19472284.72106   3390131.90206       656.04406        40.20006
C28  21890263.18906    115731.29406     -1312.40206        40.50006  21890260.79124     79398.87024      -977.76024        25.60024
E33  24292608.38006    122072.57306     -1583.21306        39.60006  24292625.16805    116557.71205     -1182.22205        31.10005
R08  20509095.95106   5122158.86106      -675.51406        38.90006
C42  25857198.23706     73980.51706     -2805.20906        38.20006  25857211.12824    114875.97724     -2091.12524        25.60024
R23  22072179.05106   3194242.34706     -3078.49506        38.10006
C27  21686228.04006    -19567.31406      1127.38606        36.30006  21686234.33506     46128.68006       841.81406        38.00006
R01  20857706.31305   2519340.60105      3350.51905        35.30005
E07  27334464.84705     37851.54605      -929.13905        33.30005  27334490.02905     80320.27705      -694.03305        30.60005
E29  26363129.78805     46952.06505      1597.07605        34.40005  26363136.08405    387262.05005      1192.21405        29.80005
R16  23536138.77305    -97108.84305      2741.10805        32.80005
E12  23660041.19705     62432.65705       948.28205        30.20005  23660032.80305    739967.61905       707.16005        31.80005
C41  23817106.96326    -52372.67226      2845.41226        35.80026  23817120.15405     67084.16205      2125.46405        32.90005
E25  26308049.21915     48241.29015      1532.50715        30.40015  26308053.71624     27255.79924      1153.35824        24.10024
R17  22306429.98324   6578055.74224      3337.64224        28.60024
R07  23499672.01824  55622202.85524     -3821.51924        25.30024
E16  24752681.27814     80488.14814     -1023.45814        26.00014                                                                
R14  22859549.76623  -5737490.23923     -3766.60723        21.20023
> 2026 04 21 13 34 37.9999911  0 28                      
G10  22155233.25407     70901.20907     -2221.07207        44.20007  22155241.64805    120224.67005     -1658.68605        34.90005
G27  22231260.32207     95322.96107     -3201.81607        42.10007  22231263.02006    139155.17206     -2391.06006        36.40006
G32  22914130.58007    -33205.86007      1960.41207        41.80007  22914143.77114     41304.51614      1467.59514        25.50014
G08  20449764.02606     50295.50506     -1396.63506        41.20006  20449765.82506    104194.17306     -1042.89206        36.40006
G23  24642822.33206    103616.85906     -3532.58506        40.30006  24642829.22714    843292.71214     -2629.66714        26.50014
G02  20678960.75606     -1830.67006       700.07106        37.70006                                                                
G14  23669248.42324    -39733.25924      1883.34024        27.80024  23669256.51813     37952.74913      1423.44913        22.10013
G22  24902492.36624     15829.04524      2447.99524        25.80024                                                                
C33  22901922.43207     14590.44907        36.04507        45.60007  22901953.61006     63878.36806        26.95506        36.40006
C28  21890509.91806    117046.25106     -1316.07106        40.50006  21890512.01714     80379.72414      -980.69314        26.50014
R24  19472160.90606   3389478.35106       652.41506        40.20006
E33  24292908.77206    123658.11706     -1586.52306        39.90006  24292925.56005    117741.68105     -1184.68505        31.70005
R08  20509229.35906   5122837.35206      -679.95006        38.80006
C42  25857728.87006     76788.16306     -2808.71406        38.10006  25857743.85914    116965.01514     -2088.08214        25.50014
R23  22072758.85006   3197323.20406     -3081.85806        38.00006
C27  21686009.79126    -20692.51626      1121.29026        36.30026  21686019.38406     45288.67506       839.21606        37.80006
R01  20857078.54805   2515993.04705      3346.32505        35.20005
E07  27334646.22105     38783.59105      -933.36205        33.70005  27334668.10625     81016.28525      -699.90325        31.30025
E29  26362826.09805     45357.91605      1592.88005        34.30005  26362832.69425    386071.53425      1188.17125        29.80025
R16  23535603.94325    -99847.40825      2736.10925        32.60025
C41  23816576.63025    -55215.99125      2841.91025        34.90025  23816577.52905     64960.66005      2122.69305        32.80005
E12  23659856.22505     61488.06705       943.17605        30.30005  23659852.62805    739262.35305       704.47505        32.80005
E25  26307754.22425     46701.32125      1541.03125        30.30025  26307760.81924     26105.52724      1149.01324        24.60024
R17  22305772.53824   6574720.74624      3328.65124        28.80024
R15  21760693.78824  14431671.93524      -804.08024        27.60024
R07  23500381.92724  55626025.56024     -3820.74024        25.70024
E16  24752870.44714     81521.56914     -1023.30314        25.80014                                                                
R14  22860260.87423  -5733714.71623     -3774.93723        21.10023
> 2026 04 21 13 34 38.9999890  0 27                      
G10  22155666.45407     73126.06207     -2227.27407        44.50007  22155676.64705    121886.10105     -1663.23005        35.10005
G27  22231883.29007     98528.49907     -3207.93707        42.00007  22231883.59006    141548.91206     -2395.49906        36.30006
G32  22913775.62607    -35162.52707      1954.20107        41.70007  22913766.33314     39839.72414      1467.78714        25.20014
G08  20450038.93606     51695.91306     -1402.89806        41.10006  20450043.43206    105239.91906     -1047.61306        36.90006
G23  24643502.56106    107152.98606     -3538.39206        40.20006  24643507.65824    845933.14324     -2633.48424        26.40024
G02  20678840.24006     -2526.98006       693.89606        37.80006                                                                
G14  23668912.65624    -41616.65724      1884.39824        27.70024  23668909.65813     36538.92013      1412.20413        21.80013
C33  22901927.82807     14558.17707        29.78407        45.50007  22901958.40706     63854.29806        22.18606        36.70006
E33  24293226.25206    125248.23406     -1592.40706        40.30006  24293241.24205    118929.13505     -1189.19905        32.20005
R24  19472056.87806   3388829.81606       646.02906        40.30006
C28  21890776.13406    118365.71806     -1321.72406        40.50006  21890773.13604     81365.14704      -988.21104        26.90004
R08  20509367.86306   5123521.15706      -686.46306        38.70006
C42  25858279.88806     79600.48506     -2814.66606        38.10006  25858290.68124    119064.82224     -2091.69624        25.40024
R23  22073356.33606   3200408.77606     -3087.93606        37.90006
C27  21685810.72906    -21812.35306      1118.15706        36.20006  21685818.22306     44452.22106       834.68006        37.70006
R01  20856467.87105   2512650.52905      3340.00705        35.10005
E07  27334832.69205     39720.43205      -939.24005        33.80005  27334856.67505     81715.76505      -701.71805        31.70005
E29  26362532.30205     43768.08005      1587.68305        34.20005  26362542.49405    384884.30105      1184.59305        29.70005
C41  23816039.40225    -58055.01025      2835.37525        34.20025  23816048.69505     62840.80505      2118.03605        32.80005
E12  23659684.44405     60548.20605       937.49805        30.40005  23659685.04405    738560.54305       700.08405        33.50005
E25  26307466.12305     45165.68005      1537.97905        30.20005  26307479.31424     24958.43624      1148.50324        25.20024
R17  22305127.98424   6571389.31424      3332.90724        28.80024
R15  21760865.56924  14432476.42224      -807.39024        27.80024
R07  23501109.22424  55629848.90224     -3822.16724        25.70024
E16  24753056.319 4     82563.761 4     -1033.079 4        25.700 4                                                                
R16  23535098.19325   -102580.80625      2734.32125        32.00025
R14  22860973.18023  -5729935.11723     -3781.64623        21.10023
> 2026 04 21 13 34 39.9999869  0 27                      
G10  22156085.56407     75355.10307     -2231.13907        44.80007  22156092.75905    123550.64605     -1666.10605        35.40005
G27  22232484.07407    101738.09207     -3211.62807        42.00007  22232486.17306    143945.66106     -2398.25906        36.10006
G32  22913392.79107    -37115.01807      1950.40807        41.50007  22913382.59814     38380.23314      1462.84314        25.00014
G08  20450301.85406     53100.63706     -1406.88606        41.00006  20450304.25206    106288.89006     -1050.58406        37.30006
G23  24644169.59906    110692.94706     -3541.88706        40.20006  24644181.29114    848570.95114     -2634.50214        26.10014
G02  20678706.23206     -3219.21706       690.20106        38.10006                                                                
G14  23668536.41624    -43497.32924      1880.81224        27.60024  23668545.11013     35132.97313      1404.00913        21.60013
C33  22901916.43607     14530.28607        25.70207        45.40007  22901946.71506     63833.47406        19.20106        36.90006
E33  24293522.14706    126842.24006     -1595.95406        40.60006  24293536.83705    120119.49705     -1191.81905        32.60005
R24  19471923.77106   3388185.47506       642.24406        40.40006
C28  21891018.06606    119689.45006     -1325.86806        40.40006  21891018.96624     82353.96224      -990.51324        27.30024
R08  20509478.18706   5124209.71106      -690.93106        38.90006
C42  25858806.92306     82416.89606     -2818.46106        38.00006  25858820.71414    121169.10714     -2096.02814        25.40014
R23  22073922.64406   3203498.30206     -3091.50906        37.80006
C27  21685592.77906    -22928.37306      1114.11406        36.10006  21685599.37506     43618.74606       831.98606        37.70006
R01  20855831.41105   2509312.54905      3335.71805        35.00005
E29  26362226.21305     42182.67505      1583.19205        34.10005  26362231.31005    383700.40605      1182.72905        29.70005
E07  27334999.37705     40661.00905      -942.44705        33.90005  27335029.95505     82418.52005      -703.89405        32.10005
C41  23815503.07325    -60890.23825      2833.83825        33.70025  23815502.77305     60723.97105      2115.32805        32.90005
E12  23659502.77005     59612.34805       933.85905        30.50005  23659500.07205    737861.69805       697.36505        33.90005
E25  26307183.41905     43634.40905      1529.09005        30.10005  26307181.02024     23815.09424      1143.46924        25.50024
R17  22304528.69924   6568059.29624      3331.81924        28.80024
R15  21760981.58924  14433287.87824      -811.95824        27.70024
R07  23501833.52224  55633682.03124     -3834.28124        25.80024
E16  24753250.284 4     83611.139 4     -1045.473 4        25.500 4                                                                
R16  23534609.53225   -105306.70325      2719.65225        30.90025
R14  22861668.09923  -5726154.55023     -3783.05823        21.10023
> 2026 04 21 13 34 40.9999848  0 27                      
G10  22156520.56307     77585.19307     -2230.62007        45.20007  22156529.25706    125215.90206     -1665.61406        35.60006
G27  22233105.84407    104948.66207     -3211.06507        41.90007  22233108.84206    146343.09806     -2397.78606        36.00006
G08  20450579.76106     54506.52206     -1406.46706        41.00006  20450583.35906    107338.73506     -1050.28506        37.50006
G23  24644861.52006    114233.65306     -3541.08606        40.20006  24644864.51814    851215.36214     -2634.71714        25.90014
G02  20678584.21706     -3910.41806       690.68506        38.20006                                                                
G14  23668192.25424    -45372.48324      1870.89924        27.50024  23668196.45113     33727.61013      1402.57413        21.50013
G32  22913031.54106    -39066.34806      1950.75306        41.40006  22913017.45114     36915.59514      1461.71614        24.80014
C33  22901922.43207     14503.61507        26.06007        45.30007  22901952.71106     63813.54106        19.48706        37.20006
E33  24293836.33006    128437.18306     -1595.41406        40.80006  24293852.21905    121310.43405     -1191.22705        32.90005
R24  19471820.04206   3387542.25606       642.66006        40.50006
C28  21891284.88206    121014.17706     -1325.22706        40.40006  21891283.98214     83343.27714     -1001.56814        27.30014
R08  20509627.78306   5124899.78006      -690.82706        39.10006
C42  25859354.04506     85234.25606     -2817.84206        38.00006  25859359.74114    123271.22414     -2095.53714        25.40014
R23  22074507.53906   3206588.94906     -3091.21506        37.70006
C27  21685394.61706    -24043.41306      1114.55206        36.20006  21685398.81406     42786.09806       832.23706        37.60006
R01  20855220.73405   2505975.84305      3336.07605        35.00005
E29  26361934.21605     40598.13105      1584.11805        34.10005  26361943.80905    382518.27505      1182.75205        29.70005
E07  27335192.44325     41603.54525      -942.01825        33.90025  27335220.92305     83121.98605      -703.82205        32.30005
C41  23814959.54905    -63723.48105      2833.75605        33.30005  23814974.83905     58607.82705      2115.80205        33.00005
E12  23659335.18605     58677.40305       934.48905        30.60005  23659333.68705    737163.46205       697.93205        34.40005
E25  26306895.61805     42104.56205      1530.13805        30.00005  26306902.51304     22672.11504      1143.30104        26.10004
R17  22303880.84724   6564731.26824      3329.78924        28.60024
R07  23502548.82724  55637518.78024     -3840.81824        25.90024
R15  21761205.23424  14434105.27024      -820.86124        27.50024
E16  24753475.72814     84657.09914     -1048.75314        25.40014                                                                
R16  23534154.14725   -108032.47425      2722.46425        29.80025
R14  22862411.88423  -5722376.18523     -3782.77223        21.10023
> 2026 04 21 13 34 41.9999827  0 28                      
G10  22156939.07307     79818.39207     -2234.75807        45.70007  22156947.16806    126883.63106     -1668.97006        35.70006
G27  22233712.02407    108162.27907     -3215.14907        41.90007  22233714.72206    148742.95006     -2401.06406        35.80006
G32  22912656.20106    -41014.44306      1946.48206        41.30006  22912644.20914     35459.64714      1448.10514        24.50014
G08  20450843.57806     55915.67806     -1410.79506        40.90006  20450844.77806    108391.08306     -1053.60306        37.70006
G23  24645526.16006    117777.20806     -3544.98606        40.20006  24645534.85414    853861.46914     -2648.96214        25.70014
G02  20678447.51206     -4598.48106       686.49606        38.20006                                                                
G14  23667845.99424    -47245.27624      1868.11724        27.50024  23667831.00413     32329.56413      1394.89113        21.30013
G22  24900666.93023     98065.73823      2413.59723        22.60023                                                                
C33  22901911.04007     14480.33607        21.58407        45.20007  22901941.31906     63796.19106        16.05906        37.30006
E33  24294135.22306    130034.95906     -1599.19706        41.00006  24294149.91305    122503.62605     -1194.32105        33.00005
R24  19471696.82806   3386902.23806       638.41906        40.60006
C28  21891533.41006    122341.92106     -1329.25506        40.40006  21891529.81204     84334.29504      -987.87104        27.40004
R08  20509743.80306   5125593.52706      -695.58806        39.40006
C42  25859886.77606     88054.57406     -2821.80206        38.10006  25859895.77014    125378.12614     -2099.29914        25.30014
R23  22075087.33806   3209682.50106     -3095.01006        37.60006
C27  21685177.56706    -25155.49706      1110.60806        36.20006  21685180.26506     41955.76806       829.17206        37.50006
R01  20854591.76905   2502642.51905      3331.64105        35.00005
E29  26361628.12805     39016.94305      1579.51305        34.10005  26361635.92205    381337.52205      1179.56605        29.90005
E07  27335367.82205     42548.82005      -947.14505        33.90005  27335395.10305     83827.92705      -707.18005        32.50005
E12  23659153.81205     57745.44305       930.47105        30.70005  23659149.91405    736467.59905       694.68005        34.60005
C41  23814409.13105    -66554.06805      2828.76405        32.90005  23814430.11605     56494.06605      2112.57405        33.00005
E25  26306603.32025     40577.13925      1527.21325        29.90025  26306606.91804     21532.61404      1138.76504        26.50004
R17  22303339.12324   6561408.16724      3316.39424        28.50024
R15  21761329.34824  14434922.60024      -826.80124        27.30024
R07  23503244.34524  55641353.49824     -3834.21024        25.90024
E16  24753655.304 4     85707.139 4     -1055.083 4        25.300 4                                                                
R16  23533642.70124   -110749.38624      2715.98824        28.80024
R14  22863109.50223  -5718591.45723     -3784.41823        21.00023
> 2026 04 21 13 34 42.9999807  0 29                      
G10  22157370.47507     82055.01107     -2238.33407        46.10007  22157377.67006    128553.77706     -1671.35706        36.10006
G32  22912289.55506    -42959.10906      1942.95506        41.20006  22912280.56114     34006.18714      1450.72014        24.30014
G08  20451111.29306     57328.46506     -1414.60506        40.80006  20451118.78806    109446.10906     -1056.36606        38.10006
G23  24646205.19006    121323.86506     -3548.21406        40.20006  24646215.68314    856510.75614     -2645.88114        25.60014
G02  20678326.39506     -5283.33806       683.25506        38.20006                                                                
G14  23667490.74024    -49114.14424      1867.40924        27.50024  23667480.84713     30936.26413      1395.42913        21.20013
G01  22097644.92224    176420.79524      2604.12724        24.00024                                                                
G22  24900181.86623     95656.00323      2411.83623        22.50023                                                                
G27  22234329.29707    111379.18507     -3218.55607        41.90007  22234331.69506    151145.13906     -2403.36306        35.60006
C33  22901910.44007     14460.66207        17.87107        45.10007  22901942.51806     63781.49506        13.36906        37.40006
E33  24294445.80806    131635.92506     -1602.56406        41.10006  24294459.89805    123699.11605     -1196.64205        33.20005
R24  19471580.80806   3386265.98906       634.36606        40.70006
C28  21891787.33406    123673.03706     -1332.80406        40.40006  21891787.93324     85328.58424     -1001.92624        27.90024
R08  20509883.20606   5126291.20006      -699.63806        39.60006
C42  25860430.00006     90878.37306     -2825.54406        38.10006  25860438.39424    127486.46424     -2104.56024        25.30024
R23  22075668.63606   3212779.40106     -3098.58006        37.50006
C27  21684963.81506    -26264.12506      1106.90206        36.20006  21684974.00806     41127.82006       826.75906        37.50006
R01  20853961.90505   2499312.68905      3328.08905        35.10005
E29  26361334.93005     37439.16205      1576.08105        34.20005  26361340.02705    380159.20205      1177.10605        29.90005
E07  27335549.79605     43497.68305      -950.66005        33.80005  27335579.77505     84536.42805      -709.78205        32.70005
E12  23658984.72905     56817.28705       926.25505        30.90005  23658978.43305    735774.05105       692.39105        34.80005
C41  23813888.69125    -69381.38325      2825.68525        32.60025  23813897.08505     54382.77005      2110.06905        33.00005
E25  26306310.42305     39053.27705      1521.58405        29.80005  26306318.51804     20394.75604      1136.53704        26.70004
R17  22302728.44524   6558084.05224      3327.87924        28.30024
R15  21761456.76024  14435740.85724      -814.72324        27.10024
R07  23503890.39824  55645192.34124     -3839.16324        25.90024
E16  24753855.26514     86760.58214     -1060.14714        25.30014                                                                
R16  23533098.57824   -113464.90124      2712.57324        28.00024
R14  22863848.79023  -5714803.41423     -3786.45823        21.20023
> 2026 04 21 13 34 43.9999786  0 29                      
G10  22157789.58407     84294.24907     -2240.55207        46.50007  22157797.37906    130225.92206     -1673.14906        36.20006
G27  22234937.27607    114598.76707     -3220.92707        41.80007  22234937.87605    153549.30205     -2405.15405        35.40005
G32  22911915.11406    -44900.98006      1940.47806        41.10006  22911902.22314     32555.47214      1448.84614        24.20014
G08  20451371.81306     58744.05706     -1416.99706        40.70006  20451380.80706    110503.14306     -1058.04206        38.30006
G23  24646877.32506    124872.87306     -3550.19106        40.10006  24646876.42524    859161.43124     -2648.87624        25.60024
G02  20678189.99006     -5965.37706       680.63206        38.20006                                                                
G14  23667132.78824    -50981.91424      1868.97424        27.40024  23667124.39413     29538.95913      1396.31013        21.10013
G01  22097133.77624    173820.55324      2597.64324        25.50024                                                                
G22  24899743.56923     93246.81223      2411.19623        22.30023                                                                
C33  22901902.04607     14443.74707        15.53607        45.10007  22901933.22406     63768.79906        11.69606        37.40006
E33  24294747.09906    133239.19806     -1604.43006        41.20006  24294758.49205    124896.43005     -1198.22805        33.20005
R24  19471457.29406   3385632.26106       632.46806        40.80006
C28  21892031.96506    125006.68006     -1334.90906        40.40006  21892032.86404     86324.23804      -995.83904        28.20004
R08  20510010.91806   5126992.05006      -702.44006        39.80006
C42  25860958.53406     93704.57606     -2827.41106        38.10006  25860965.72914    129591.74414     -2106.75514        25.30014
R23  22076236.14306   3215878.59906     -3100.35406        37.40006
C27  21684746.16606    -27370.22306      1104.83506        36.20006  21684755.45906     40301.81406       825.03706        37.40006
R01  20853339.83605   2495985.78805      3325.44305        35.10005
E29  26361027.34305     35863.90905      1573.99205        34.50005  26361033.93905    378982.87805      1175.32905        30.10005
E07  27335729.07105     44449.13105      -952.74205        33.80005  27335753.65405     85246.96005      -711.55005        32.90005
E12  23658804.55325     55890.58625       925.97525        31.00025  23658795.56005    735082.32405       690.81705        35.00005
C41  23813337.07325    -72206.54425      2824.09025        32.30025  23813352.66205     52273.38505      2108.43305        33.00005
E25  26306017.82625     37532.18125      1519.71825        29.70025  26306024.12124     19258.70524      1133.65124        26.80024
R17  22302113.27124   6554766.82524      3313.03924        28.10024
R15  21761597.96224  14436560.71024      -821.65224        26.90024
R07  23504651.87124  55649039.70124     -3849.12824        25.80024
R16  23532494.79624   -116173.09224      2705.03324        27.30024
R14  22864506.53423  -5711012.15223     -3790.38023        21.40023
E16  24754056.726 4     87819.164 4     -1057.654 4        25.200 4                                                                
> 2026 04 21 13 34 44.9999765  0 29                      
G10  22158210.49307     86528.15207     -2231.24007        46.70007  22158214.99006    131894.14906     -1666.27106        36.30006
G27  22235538.06007    117812.81607     -3211.28907        41.80007  22235542.85705    155949.48605     -2398.20005        35.30005
G32  22911536.47606    -46848.18306      1949.87306        41.00006  22911525.38414     31101.94914      1453.92914        24.10014
G08  20451637.42906     60154.48006     -1407.84106        40.70006  20451641.62606    111556.34306     -1051.28406        38.30006
G23  24647546.76106    128416.18906     -3540.47806        40.10006  24647550.05924    861808.79824     -2641.21824        25.50024
G02  20678043.99106     -6653.03806       690.47406        38.20006                                                                
G14  23666765.84224    -52854.55624      1873.08324        27.40024  23666764.04313     28141.20013      1401.49013        21.00013
G01  22096633.72224    171213.58724      2604.47124        25.50024                                                                
G22  24899252.20923     90829.78323      2421.45423        22.10023                                                                
C33  22901890.95407     14421.74707        24.54207        45.00007  22901921.53306     63752.43806        18.19306        37.40006
E33  24295038.49806    134837.01406     -1595.09106        41.40006  24295054.98605    126089.60905     -1191.11405        33.20005
R24  19471325.08506   3384993.25906       641.64106        40.90006
C28  21892281.99106    126334.92506     -1325.55006        40.40006  21892279.59324     87315.84524      -986.08424        28.50024
R08  20510133.83306   5127688.07706      -693.61706        39.90006
C42  25861478.07406     96525.39006     -2818.12606        38.20006  25861497.86024    131697.56924     -2100.10324        25.30024
R23  22076805.74806   3218972.36606     -3091.05806        37.30006
C27  21684527.61706    -28481.72506      1114.20606        36.20006  21684538.11006     39471.82206       831.98706        37.40006
R01  20852714.76905   2492653.79605      3334.54605        35.10005
E29  26360722.45405     34283.33105      1583.24405        34.80005  26360725.75205    377802.64005      1182.19705        30.40005
E07  27335897.85505     45395.31605      -943.55605        33.90005  27335927.23405     85953.58005      -704.66505        33.00005
C41  23812786.65425    -75036.06825      2833.21125        32.10025  23812806.44005     50159.94705      2115.47005        33.00005
E12  23658609.98805     54958.65205       934.55205        31.10005  23658610.28805    734386.55405       697.79305        35.20005
E25  26305720.43205     36006.00805      1531.71405        29.60005  26305728.22604     18117.81404      1142.31304        27.10004
R17  22301410.55824   6551444.19724      3326.08624        27.90024
R15  21761759.55024  14437379.98624      -815.74124        26.80024
E16  24754256.688 4     88870.783 4     -1048.640 4        25.300 4                                                                
R07  23505499.08424  55652878.60224     -3840.17924        25.70024
R16  23532051.70224   -118891.87524      2719.58524        26.70024
R14  22865194.55823  -5707227.95923     -3784.91523        21.80023
> 2026 04 21 13 34 45.9999745  0 29                      
G10  22158637.99707     88764.23207     -2237.17307        46.90007  22158644.89206    133563.90406     -1670.52206        36.40006
G27  22236154.13407    121028.91907     -3217.13807        41.70007  22236158.63105    158351.11105     -2402.34905        35.20005
G32  22911174.32706    -48793.12806      1943.82006        40.90006  22911160.83624     29651.69724      1449.11924        23.90024
G08  20451912.63806     61567.07406     -1413.68306        40.60006  20451916.53606    112611.26406     -1055.78406        38.40006
G23  24648222.79306    131961.40906     -3546.17906        40.10006  24648232.98624    864455.64924     -2642.59824        25.50024
G02  20677919.87706     -7338.56106       684.45506        38.40006                                                                
G14  23666415.08524    -54725.39624      1870.44224        27.40024  23666411.78713     26745.30713      1395.46313        20.90013
G22  24898828.60323     88413.15923      2415.92523        21.80023                                                                
G01  22096146.55924    168613.96524      2599.45624        25.50024                                                                
C33  22901892.75207     14402.15407        18.39107        44.90007  22901922.73206     63737.75906        13.83806        37.40006
E33  24295346.08507    136436.75307     -1600.70407        41.60007  24295335.59205    127284.20205     -1195.30405        33.20005
R24  19471215.96106   3384356.50806       635.62706        40.90006
C28  21892537.71406    127665.33006     -1331.48706        40.40006  21892538.91404     88309.64004      -995.89104        28.90004
R08  20510265.14206   5128386.77306      -700.03106        40.00006
C42  25862024.59606     99348.33406     -2824.01406        38.20006  25862037.48714    133805.86914     -2104.04014        25.20014
R23  22077387.94506   3222068.09406     -3096.71406        37.20006
C27  21684325.55706    -29591.12506      1108.35306        36.30006  21684331.85206     38643.35206       827.71006        37.30006
E29  26360420.86305     32704.90605      1577.35105        35.00005  26360430.75605    376623.91305      1177.97505        30.60005
R01  20852095.99705   2489324.03805      3328.64705        35.20005
E07  27336084.32605     46343.77705      -949.60105        33.90005  27336111.90605     86661.84305      -709.08605        33.00005
E12  23658446.00205     54028.90305       928.65805        31.20005  23658438.20705    733692.23205       693.60005        35.30005
C41  23812263.51625    -77864.02125      2828.17325        32.00025  23812273.70905     48048.19305      2110.91605        32.90005
E25  26305430.83215     34481.04615      1523.35915        29.50015  26305442.52424     16979.62424      1137.34324        27.10024
R15  21761906.44924  14438198.51324      -822.15324        26.70024
R17  22300781.29324   6548128.57424      3311.87624        27.60024
E16  24754456.949 4     89924.274 4     -1052.928 4        25.600 4                                                                
R07  23506224.28224  55656728.97524     -3849.36624        25.50024
R16  23531544.45424   -121609.47824      2720.76824        26.20024
R14  22865950.33523  -5703439.88823     -3791.26823        21.90023
> 2026 04 21 13 34 46.9999725  0 29                      
G10  22159050.81107     91001.96707     -2238.56707        47.10007  22159057.10706    135234.94406     -1671.68506        36.40006
G27  22236753.71907    124246.70507     -3218.63307        41.70007  22236756.11705    160753.92205     -2403.41005        35.00005
G32  22910790.59306    -50736.34706      1942.35906        40.80006  22910778.60114     28201.29514      1445.98114        23.80014
G08  20452169.86006     62981.55206     -1415.42406        40.50006  20452171.35906    113667.50406     -1056.90106        38.40006
G23  24648887.43306    135507.97706     -3547.24806        40.10006  24648891.03114    867103.91814     -2646.48314        25.70014
G02  20677779.27406     -8022.43506       683.05106        38.40006                                                                
G14  23666035.84724    -56592.15524      1863.97124        27.40024  23666041.54313     25351.96013      1393.07713        20.80013
G01  22095606.63324    166012.84024      2597.38024        25.70024                                                                
G22  24898369.02123     85998.31223      2411.71423        21.60023                                                                
C33  22901877.46307     14384.37407        16.87207        44.90007  22901905.94306     63724.45106        12.62306        37.50006
E33  24295639.58207    138037.96007     -1601.94407        41.80007  24295656.97005    128479.88605     -1196.23105        33.10005
R24  19471084.35206   3383721.51706       634.11206        41.00006
R08  20510386.85806   5129087.79206      -702.18206        40.20006
C28  21892777.24906    128997.35706     -1332.84106        40.40006  21892776.34914     89305.59414      -994.03614        28.90014
C42  25862547.13406    102172.81006     -2825.24606        38.20006  25862560.92524    135911.51324     -2105.32124        25.40024
R23  22077965.94506   3225165.35606     -3098.03506        37.20006
C27  21684099.81306    -30698.90506      1106.97106        36.40006  21684107.60806     37816.06406       826.69806        37.30006
E29  26360112.67705     31128.12205      1575.96705        35.30005  26360118.07305    375446.48905      1176.77505        30.90005
R01  20851453.54205   2485996.42805      3326.54305        35.20005
E07  27336258.80505     47294.10805      -951.26705        33.90005  27336277.09205     87371.39705      -710.20105        33.00005
E12  23658250.83705     53100.67605       927.46805        31.30005  23658248.13905    732999.08605       692.55905        35.40005
C41  23811709.20005    -80690.66405      2825.49505        31.80005  23811721.49105     45937.62505      2109.98005        32.90005
E25  26305131.93905     32958.21405      1518.77105        29.50005  26305135.23704     15842.67404      1136.33204        27.30004
R15  21762018.57124  14439019.31824      -821.69624        26.60024
E16  24754647.617 4     90980.783 4     -1057.020 4        25.800 4                                                                
R17  22300101.06424   6544817.67424      3310.04624        27.40024
R07  23506924.29824  55660582.48924     -3858.34224        25.40024
R16  23531118.14924   -124332.36124      2721.02824        25.80024
R14  22866630.26423  -5699650.29823     -3791.85723        22.10023
> 2026 04 21 13 34 47.9999705  0 29                      
G10  22159479.81407     93241.15207     -2239.91407        47.10007  22159488.50806    136907.07106     -1672.67406        36.50006
G27  22237366.19507    127465.75407     -3219.68707        41.70007  22237373.98905    163157.81705     -2404.44005        34.90005
G32  22910420.34906    -52678.00906      1940.88706        40.70006  22910412.25514     26750.83614      1451.98914        23.90014
G08  20452442.37206     64397.65206     -1416.91306        40.50006  20452445.37006    114724.99906     -1058.12506        38.40006
G02  20677647.06606     -8704.88906       681.74506        38.40006                                                                
G14  23665691.08624    -58460.79924      1869.84124        27.40024  23665686.28913     23952.94813      1399.84613        20.60013
G01  22095133.26024    163413.76924      2600.05124        25.90024                                                                
G22  24897919.93223     83585.82023      2411.31923        21.40023                                                                
G23  24649567.36306    139055.66206     -3548.25006        40.10006  24649571.26004    869753.32704     -2649.98504        26.50004
C33  22901875.06507     14368.28307        15.24707        44.80007  22901907.44206     63712.52406        11.23606        37.50006
E33  24295956.76207    139640.33607     -1602.96307        41.80007  24295965.15605    129676.50105     -1197.08305        33.10005
R24  19470966.83306   3383088.13306       632.58206        41.10006
R08  20510521.16506   5129790.73406      -703.90406        40.40006
C28  21893035.67006    130330.73206     -1334.05106        40.40006  21893035.37004     90301.04204      -993.19704        28.90004
C42  25863091.85706    104998.65506     -2826.53606        38.20006  25863105.04814    138022.62814     -2106.85514        25.50014
R23  22078537.35006   3228263.98106     -3099.31306        37.10006
C27  21683894.75506    -31805.27406      1105.66606        36.40006  21683901.65006     36989.89506       825.61206        37.30006
E29  26359814.98306     29552.74206      1574.68106        35.60006  26359822.17805    374270.11105      1175.85605        31.10005
R01  20850838.06805   2482670.49205      3325.10605        35.20005
E07  27336444.37605     48245.72905      -952.26905        34.10005  27336464.76205     88082.08105      -711.25005        33.00005
E12  23658082.35305     52173.76905       926.25005        31.30005  23658076.35705    732306.85505       691.77605        35.40005
C41  23811182.16525    -83515.08625      2824.81625        31.70025  23811188.16005     43827.99905      2109.15805        32.80005
E25  26304849.23524     31437.34324      1519.39224        29.40024  26304851.33304     14706.68004      1135.51804        27.30004
R15  21762204.44224  14439840.18024      -819.89224        26.60024
E16  24754858.671 4     92039.066 4     -1059.673 4        26.000 4                                                                
R17  22299480.79424   6541505.73724      3307.46124        27.10024
R07  23507649.49624  55664436.91624     -3854.39124        25.20024
R16  23530613.59824   -127055.24424      2721.88924        25.40024
R14  22867303.59823  -5695857.04623     -3794.34123        22.20023
> 2026 04 21 13 34 48.9999686  0 29                      
G10  22159922.30807     95483.69107     -2244.22107        47.30007  22159931.90106    138581.70206     -1675.88606        36.60006
G27  22237996.35807    130688.15507     -3224.08407        41.60007  22238003.55305    165564.17205     -2407.59105        34.80005
G32  22910070.19106    -54616.21106      1936.47606        40.70006  22910056.40114     25301.10714      1450.86614        23.90014
G08  20452723.87706     65817.23906     -1421.33306        40.40006  20452732.27106    115785.06706     -1061.35706        38.50006
G02  20677540.34006     -9383.95206       677.36906        38.40006                                                                
G14  23665361.91424    -60326.17024      1865.23824        27.40024  23665347.52413     22560.34013      1391.41013        20.60013
G01  22094665.88424    160816.78924      2598.68824        25.90024                                                                
G22  24897489.72923     81180.05523      2406.40623        21.20023                                                                
G23  24650258.98406    142606.53506     -3552.47406        40.00006  24650264.68014    872403.72014     -2649.89014        26.50014
C33  22901891.55307     14355.72607        10.79007        44.80007  22901922.13206     63703.08006         8.20306        37.70006
E33  24296273.04307    141245.82507     -1607.04907        41.90007  24296289.53205    130875.43205     -1200.09105        33.10005
R24  19470863.10506   3382458.09206       628.37106        41.20006
R08  20510669.56206   5130497.47106      -708.63506        40.50006
C28  21893305.48306    131667.44306     -1338.38106        40.30006  21893305.78304     91299.15104     -1000.44004        28.90004
C42  25863650.97006    107827.75306     -2830.73006        38.20006  25863656.06614    140133.72714     -2109.09414        25.60014
R23  22079127.94106   3231365.83906     -3103.48006        37.00006
C27  21683695.99306    -32908.49206      1101.64506        36.40006  21683708.58406     36166.07806       822.64206        37.30006
E29  26359532.27806     27980.89506      1570.08306        35.80006  26359539.47305    373096.28805      1172.54905        31.30005
R01  20850237.28405   2479348.04905      3320.70305        35.20005
E07  27336639.54105     49200.87805      -956.91505        34.10005  27336662.62505     88795.29305      -714.47805        33.00005
C41  23810659.02705    -86337.15105      2818.89305        31.60005  23810668.92005     41721.00005      2105.69105        32.70005
E12  23657918.96625     51249.87125       922.39425        31.30025  23657918.06705    731617.05505       688.58505        35.40005
E25  26304563.83204     29919.37004      1518.52704        29.30004  26304581.52004     13573.28904      1132.09204        27.40004
R15  21762364.23224  14440667.59324      -833.19024        26.50024
E16  24755077.519 4     93099.222 4     -1061.093 4        26.100 4                                                                
R17  22298932.77324   6538196.02824      3310.10224        26.90024
R07  23508380.39024  55668291.41724     -3857.54624        24.90024
R16  23530163.61024   -129778.96924      2722.65124        25.10024
R14  22868085.75723  -5692059.70823     -3797.88823        22.20023
> 2026 04 21 13 34 49.9999665  0 29                      
G10  22160323.13007     97716.72707     -2228.28907        47.40007  22160331.22506    140249.24006     -1663.99606        36.60006
G27  22238586.05007    133900.96307     -3208.01807        41.50007  22238589.34805    167963.32705     -2395.56005        34.70005
G32  22909675.96406    -56563.89306      1952.42706        40.60006  22909667.27014     23855.71514      1456.22814        23.90014
G08  20452963.11106     67227.49006     -1405.58606        40.40006  20452975.40306    116838.14806     -1049.58906        38.60006
G02  20677383.54806    -10072.75506       693.67506        38.40006                                                                
G14  23664969.48524    -62199.19424      1874.10524        27.40024  23664969.78513     21166.06513      1391.61113        21.00013
G01  22094136.75024    158213.17324      2609.69124        25.90024                                                                
G22  24897016.65723     78771.30923      2417.24223        21.00023                                                                
G23  24650906.23606    146147.49106     -3536.00506        40.00006  24650908.63414    875049.14614     -2637.44814        26.50014
C33  22901862.77307     14333.82807        26.56807        44.70007  22901893.05206     63686.77006        19.74206        37.70006
E33  24296551.55007    142841.60107     -1590.92207        42.00007  24296567.73905    132067.08605     -1188.01805        33.00005
R24  19470714.70806   3381818.56306       644.27406        41.20006
R08  20510776.88806   5131195.19806      -693.22406        40.50006
C28  21893531.22706    132994.59606     -1322.37806        40.30006  21893534.52404     92290.22804      -987.56504        28.90004
C42  25864158.21906    110647.21906     -2814.65806        38.10006  25864167.81214    142239.59514     -2098.75714        25.60014
C27  21683472.04806    -34021.14806      1117.37606        36.50006  21683471.44806     35335.15206       834.48206        37.30006
R23  22079699.94506   3234457.81906     -3087.04806        36.90006
E29  26359206.40406     26399.44706      1586.25206        36.10006  26359212.40005    371915.35905      1184.48305        31.40005
R01  20849588.83305   2476016.19505      3336.56705        35.20005
E07  27336801.72905     50146.53205      -940.90905        34.10005  27336816.11905     89501.50405      -702.71105        33.00005
C41  23810088.82105    -89168.39005      2836.33205        31.60005  23810102.31205     39606.72005      2117.92505        32.60005
E12  23657713.90805     50316.41605       938.23605        31.40005  23657715.10806    730919.99406       700.69306        35.50006
E25  26304248.75004     28392.71604      1528.99804        29.30004  26304265.23924     12433.26724      1140.34024        27.40024
R15  21762512.02924  14441485.42324      -816.04024        26.60024
E16  24755254.097 4     94150.101 4     -1049.243 4        26.200 4                                                                
R17  22298302.30924   6534869.99624      3330.45224        26.60024
R07  23509060.01924  55672128.10424     -3829.03824        24.70024
R16  23529642.57024   -132507.07924      2734.80924        24.80024
R14  22868768.08423  -5688272.21923     -3784.57223        22.20023
> 2026 04 21 13 34 50.9999647  0 29                      
G10  22160775.81708     99947.50308     -2229.64908        47.50008  22160784.21106    141915.06606     -1664.97206        36.80006
G27  22239226.70707    137111.40307     -3209.26107        41.50007  22239228.50505    170360.70905     -2396.49905        34.60005
G32  22909329.10406    -58513.73906      1950.93106        40.50006  22909327.60514     22401.43514      1454.22614        23.80014
G08  20453265.60206     68635.58406     -1407.01806        40.30006  20453271.29806    117889.64506     -1050.70706        38.70006
G02  20677271.72606    -10763.60706       691.87706        38.40006                                                                
G14  23664642.11224    -64073.22424      1869.28724        27.40024  23664640.01413     19766.30413      1399.00713        21.00013
G01  22093687.36124    155609.84324      2600.44124        25.90024                                                                
G22  24896599.64623     76364.07023      2405.99023        20.90023                                                                
G23  24651607.15006    149685.87606     -3537.10506        40.00006  24651610.74804    877691.24004     -2642.43204        26.70004
C33  22901887.35607     14309.93607        24.89007        44.70007  22901916.13606     63668.91306        18.63006        37.80006
E33  24296884.32007    144434.90007     -1592.06407        42.10007  24296898.41005    133256.89405     -1188.88805        32.90005
R24  19470626.26906   3381176.72506       642.99406        41.20006
R08  20510927.68306   5131891.14806      -695.06406        40.60006
C28  21893817.22906    134319.33106     -1323.52706        40.20006  21893813.63104     93279.51804      -988.39604        28.80004
C42  25864718.23106    113464.43506     -2816.09406        38.10006  25864734.42024    144342.51424     -2103.44924        25.60024
C27  21683277.18206    -35136.27306      1116.36206        36.50006  21683287.07606     34502.47506       833.55406        37.30006
R23  22080301.92806   3237547.39106     -3088.37406        36.90006
E29  26358929.09606     24815.68606      1584.92106        36.30006  26358940.18805    370732.63805      1183.61905        31.50005
R01  20848993.44505   2472682.26805      3334.96905        35.20005
E07  27337004.68805     51090.02305      -942.41005        34.10005  27337024.77405     90206.01605      -703.66505        33.00005
C41  23809585.77005    -92002.05505      2834.88205        31.70005  23809593.56405     37490.80705      2116.73305        32.70005
E12  23657568.20905     49380.66805       936.89505        31.50005  23657564.61206    730221.12206       699.77806        35.60006
E25  26303986.43204     26862.72704      1523.15904        29.20004  26303998.72404     11290.58804      1143.51004        27.40004
R15  21762677.21524  14442302.03524      -814.75424        26.60024
E16  24755469.948 4     95199.685 4     -1052.439 4        26.500 4                                                                
R17  22297741.09824   6531555.87224      3318.42424        26.40024
R07  23509830.18624  55675962.09624     -3831.90024        24.50024
R16  23529085.25624   -135231.69324      2726.87024        24.50024
R14  22869525.66023  -5684488.06923     -3787.23723        22.20023
> 2026 04 21 13 34 51.9999628  0 29                      
G10  22161197.02508    102179.35808     -2232.40008        47.60008  22161205.42006    143581.72006     -1667.07106        37.00006
G27  22239833.78606    140322.88706     -3212.01106        41.40006  22239838.28305    172758.91205     -2398.61805        34.40005
G32  22908958.86106    -60462.34006      1947.98206        40.50006  22908949.26714     20940.06814      1463.41414        23.50014
G08  20453532.71706     70045.01806     -1410.10706        40.30006  20453537.21406    118942.17306     -1053.04406        38.70006
G02  20677152.40806    -11453.51906       689.44306        38.40006                                                                
G14  23664284.16024    -65946.75224      1875.28024        27.60024  23664283.56013     18368.30213      1397.12613        21.00013
G01  22093195.40224    153001.15524      2607.37124        26.10024                                                                
G22  24896143.06223     73957.48523      2401.01223        20.80023                                                                
G23  24652278.98506    153225.09906     -3539.64906        39.90006  24652281.68324    880335.02224     -2641.63124        26.90024
C33  22901878.06307     14287.31107        21.99007        44.70007  22901909.24106     63652.00406        16.43606        37.80006
E33  24297181.71407    146029.04807     -1594.57607        42.10007  24297201.20105    134447.31805     -1190.73405        32.80005
R24  19470503.35406   3380536.12006       639.99006        41.20006
R08  20511058.39306   5132588.63906      -698.26106        40.60006
C28  21894063.35806    135645.16106     -1326.38006        40.20006  21894065.75704     94269.63604      -990.53604        29.00004
C42  25865254.86006    116282.53906     -2818.55506        38.10006  25865266.55114    146446.29314     -2102.71314        25.50014
R23  22080873.03306   3240637.86606     -3090.93206        36.80006
E29  26358629.90306     23233.16006      1581.91106        36.40006  26358637.09805    369550.91305      1181.23005        31.50005
C27  21683055.33606    -36250.25106      1113.40806        36.50006  21683072.72406     33670.61206       831.45706        37.30006
R01  20848371.07605   2469349.62805      3332.00305        35.40005
E07  27337175.57005     52034.74405      -945.33805        34.20005  27337202.25205     90911.52105      -706.00305        32.90005
C41  23809037.14905    -94834.42105      2831.72305        31.90005  23809053.03805     35375.57205      2114.90005        33.20005
E12  23657382.93705     48445.76905       934.47705        31.60005  23657385.03606    729522.94806       697.82606        35.70006
E25  26303710.02304     25334.31504      1524.62504        29.10004  26303708.82404     10149.19504      1141.25304        27.70004
R15  21762830.70924  14443116.43424      -811.04424        26.60024
E16  24755679.503 4     96249.504 4     -1048.438 4        26.500 4                                                                
R17  22297100.14224   6528238.28524      3309.57624        26.10024
R07  23510538.59624  55679797.09924     -3834.01724        24.40024
R16  23528563.01824   -137953.38624      2723.73724        24.20024
R14  22870127.64323  -5680703.97923     -3785.31823        22.30023
> 2026 04 21 13 34 52.9999608  0 29                      
G10  22161610.13908    104413.29308     -2234.97908        47.70008  22161616.73506    145249.90206     -1668.95006        37.00006
G27  22240433.07106    143536.34906     -3214.45806        41.40006  22240436.96905    175158.60605     -2400.44505        34.30005
G32  22908568.83106    -62408.88606      1945.52206        40.40006  22908565.83313     19479.21713      1467.09713        23.20013
G08  20453784.24306     71456.66906     -1412.76206        40.20006  20453792.63706    119996.29406     -1054.92106        38.70006
G23  24652935.23106    156766.03206     -3541.79506        39.90006  24652943.62504    882979.57804     -2644.44804        27.20004
G02  20677011.80506    -12141.50906       687.03106        38.40006                                                                
G14  23663909.12024    -67819.36124      1874.40324        27.70024  23663910.91813     16969.01713      1394.42813        20.90013
G01  22092680.65824    150393.78124      2614.97424        26.10024                                                                
G22  24895664.89323     71557.96323      2397.49423        20.80023                                                                
C33  22901858.57607     14266.92707        19.26507        44.60007  22901892.75206     63636.81906        14.32306        37.80006
E33  24297474.61107    147625.09207     -1596.99407        42.10007  24297492.29905    135639.15205     -1192.54205        32.70005
R24  19470371.74506   3379897.61006       637.46206        41.20006
R08  20511177.11006   5133288.78306      -701.47306        40.70006
C28  21894307.09006    136972.98706     -1328.82706        40.10006  21894303.49204     95261.24404      -992.35304        29.10004
C42  25865779.49606    119102.64306     -2821.10906        38.10006  25865789.68924    148552.64224     -2100.63924        25.40024
E29  26358315.12106     21652.51606      1579.70706        36.60006  26358321.71605    368370.60605      1179.60105        31.60005
R23  22081430.64706   3243730.15706     -3093.20506        36.70006
C27  21682845.18206    -37362.31206      1111.10406        36.50006  21682847.88006     32840.23706       829.63206        37.30006
R01  20847736.41505   2466019.32805      3329.13705        35.40005
E07  27337347.95105     52981.50405      -947.78305        34.20005  27337369.83605     91618.52905      -707.76105        32.90005
C41  23808493.62605    -97664.95605      2829.62505        31.90005  23808499.92105     33261.93405      2112.84405        33.20005
E12  23657197.06605     47512.72105       932.12505        31.60005  23657194.06806    728826.23006       695.99206        35.80006
E25  26303400.33814     23808.83814      1527.51314        29.00014  26303404.53504      9009.43604      1138.94304        27.70004
R15  21762985.70124  14443938.40524      -819.76024        26.90024
E16  24755876.466 4     97302.550 4     -1050.162 4        26.500 4                                                                
R07  23511185.54824  55683634.00724     -3836.86724        24.30024
R17  22296437.00124   6524922.85324      3314.36124        25.80024
R16  23528026.08924   -140670.53224      2716.87824        24.00024
R14  22870807.57223  -5676913.54523     -3788.11323        22.30023
> 2026 04 21 13 34 53.9999589  0 29                      
G10  22162034.64608    106647.05408     -2233.67808        47.90008  22162041.24106    146917.97106     -1668.01606        37.00006
G27  22241044.34806    146749.52206     -3213.03506        41.30006  22241047.94605    177557.95705     -2399.18305        34.30005
G32  22908200.08606    -64355.49706      1946.64706        40.30006  22908200.68613     18028.53213      1445.10413        22.70013
G08  20454056.75406     72868.19906     -1411.47206        40.20006  20454059.45206    121050.34906     -1054.02306        38.70006
G23  24653606.76606    160306.48006     -3540.21206        39.90006  24653616.35904    885624.40504     -2643.96604        27.80004
G02  20676878.99706    -12829.79006       688.42706        38.50006                                                                
G14  23663549.06924    -69691.10224      1871.31024        27.70024  23663551.46713     15574.94213      1397.97413        20.90013
G01  22092172.21024    147788.43824      2605.83124        26.10024                                                                
G22  24895194.51823     69162.81023      2394.47423        20.70023                                                                
C33  22901857.37707     14246.60307        20.29307        44.60007  22901887.05606     63621.61906        15.20706        37.90006
E33  24297773.80407    149220.61207     -1595.26207        42.10007  24297792.39105    136830.64105     -1191.31805        32.60005
R24  19470250.02906   3379258.99306       638.67306        41.30006
R08  20511303.62306   5133989.23206      -700.60306        40.70006
C28  21894555.61706    138300.57706     -1327.47506        40.10006  21894555.31804     96252.45104      -991.01004        29.10004
C42  25866315.22506    121922.47106     -2819.69506        38.10006  25866327.21714    150656.79914     -2099.56314        25.40014
E29  26358009.93206     20071.74606      1580.83606        36.70006  26358019.82505    367190.17105      1180.50105        31.60005
R23  22082017.94006   3246822.21506     -3091.94806        36.60006
C27  21682619.43806    -38474.48206      1112.22606        36.40006  21682634.72706     32009.60006       830.77006        37.30006
R01  20847099.35605   2462689.10305      3330.19305        35.40005
E07  27337530.52405     53928.12805      -946.55705        34.40005  27337548.21205     92325.39005      -706.78805        33.10005
C41  23807956.39825   -100495.80125      2831.00525        31.90025  23807960.29505     31148.05005      2114.01005        33.10005
E12  23657004.00005     46579.30705       933.59805        31.60005  23657014.19306    728129.18606       697.20806        35.80006
E25  26303114.63604     22282.98304      1524.04804        29.00004  26303111.63804      7869.45104      1140.10004        27.70004
R15  21763144.89124  14444757.16724      -822.40824        27.00024
E16  24756066.53514     98359.01814     -1059.68014        26.40014                                                                
R07  23511889.76024  55687472.36524     -3837.34024        24.40024
R17  22295776.85824   6521609.01224      3310.80224        25.50024
R16  23527494.25824   -143384.84424      2712.40024        23.80024
R14  22871595.72723  -5673127.30423     -3790.90223        22.30023
> 2026 04 21 13 34 54.9999571  0 29                      
G10  22162467.24608    108875.01008     -2225.05808        48.00008  22162474.74106    148581.72106     -1661.59406        37.10006
G27  22241662.82006    149956.78606     -3204.31406        41.30006  22241667.61705    179953.04805     -2392.96505        34.50005
G08  20454333.16306     74274.13106     -1403.13406        40.10006  20454337.06006    122100.25006     -1047.82706        38.70006
G32  22907840.93506    -66307.83706      1955.20906        40.30006  22907833.44014     16572.79714      1451.76314        23.80014
G23  24654288.19406    163840.85506     -3531.34406        39.90006  24654300.18604    888263.67304     -2636.99504        28.30004
G02  20676752.78506    -13523.77606       696.84006        38.50006                                                                
G14  23663217.19924    -71568.12324      1880.16524        27.90024  23663207.60513     14171.87513      1403.06413        20.90013
G01  22091691.94324    145178.48324      2609.51624        26.00024                                                                
G22  24894752.02523     66756.42023      2401.76323        20.70023                                                                
C33  22901860.97407     14220.67007        28.73907        44.60007  22901891.85306     63602.26106        21.43606        37.90006
E33  24298086.18807    150810.23307     -1586.67407        42.00007  24298104.47505    138017.65305     -1184.77605        32.50005
R24  19470141.80406   3378614.61906       647.25306        41.30006
R08  20511451.72006   5134684.28106      -692.35006        40.80006
C28  21894816.43706    139622.30006     -1318.79106        40.00006  21894816.73704     97239.58404      -985.09704        29.30004
C42  25866859.64906    124736.41906     -2811.01406        38.10006  25866872.83914    152757.78914     -2096.91214        25.30014
E29  26357724.23006     18485.12306      1589.55206        36.80006  26357728.72705    366005.35005      1187.01705        31.60005
R23  22082614.82706   3249908.09906     -3082.80306        36.60006
C27  21682424.87306    -39592.67506      1121.20806        36.40006  21682431.76806     31174.60806       837.17206        37.30006
R01  20846479.98505   2459353.14605      3338.82905        35.30005
E07  27337712.79805     54869.05905      -938.08605        34.40005  27337737.08105     93028.07505      -700.60005        33.10005
C41  23807422.16725   -103332.26925      2843.78525        31.90025  23807430.56205     29029.80405      2120.43105        33.10005
E12  23656847.20805     45639.55205       939.92605        31.70005  23656845.11006    727427.76406       703.61206        35.80006
E25  26302830.43204     20750.55504      1533.21604        28.90004  26302830.73204      6725.16504      1146.44004        27.70004
R15  21763301.38324  14445571.39424      -809.46124        27.30024
E16  24756269.79414     99407.05814     -1051.32914        26.40014                                                                
R07  23512632.94624  55691302.79824     -3827.22724        24.90024
R17  22295186.26724   6518285.25824      3325.96524        25.20024
R16  23527034.97624   -146106.02824      2720.62424        23.70024
R14  22872329.91823  -5669345.66423     -3777.59623        22.20023
> 2026 04 21 13 34 55.9999552  0 29                      
G10  22162889.95308    111104.22108     -2229.84208        48.10008  22162897.74806    150246.32806     -1665.03706        37.20006
G27  22242271.39906    153165.25306     -3209.07506        41.30006  22242275.29605    182348.92505     -2396.27505        34.80005
G08  20454591.28406     75681.41606     -1407.96506        40.10006  20454602.37606    123151.14306     -1051.39006        38.80006
G23  24654961.22806    167376.27006     -3535.94306        39.80006  24654972.62124    890902.36724     -2644.41224        28.30024
G32  22907469.79206    -68258.78806      1950.26006        40.20006  22907458.39914     15111.89814      1456.48414        23.70014
G02  20676615.18006    -14216.59506       692.23706        38.70006                                                                
G14  23662843.65724    -73443.78624      1873.98724        27.90024  23662850.55213     12772.26213      1395.89013        20.90013
G01  22091178.09924    142569.47924      2606.03324        26.00024                                                                
G22  24894287.94623     64360.97023      2396.23423        20.60023                                                                
C33  22901856.47807     14196.26907        23.63507        44.50007  22901884.95806     63584.02406        17.67706        37.90006
E33  24298391.67607    152400.84307     -1591.10807        42.00007  24298406.66605    139205.47205     -1188.22505        32.40005
R24  19470020.38806   3377971.57006       642.38806        41.40006
R08  20511569.23906   5135381.08106      -697.67706        40.80006
C28  21895073.05906    140945.33506     -1323.69406        40.00006  21895065.86404     98227.47704      -988.27604        29.30004
C42  25867393.87906    127551.62206     -2815.83606        38.00006  25867404.97124    154861.04024     -2099.88524        25.30024
E29  26357413.34526     16900.03026      1584.33226        36.80026  26357425.63705    364821.53805      1183.30905        31.60005
R23  22083177.23706   3252995.21506     -3087.73806        36.50006
C27  21682215.61706    -40709.72906      1116.48506        36.30006  21682216.21706     30340.48206       833.69306        37.30006
R01  20845868.70805   2456018.71205      3333.67905        35.30005
E07  27337899.86905     55811.31305      -942.91805        34.40005  27337913.95905     93731.66005      -704.03505        33.10005
C41  23806880.44325   -106167.57525      2833.23025        31.80025  23806888.23705     26912.61305      2116.66805        33.00005
E12  23656660.43825     44701.66525       936.45625        31.70025  23656664.33506    726727.13206       700.23806        35.80006
E25  26302549.82704     19219.49304      1531.38204        28.80004  26302538.43424      5581.61424      1141.68524        27.70024
R15  21763475.26224  14446386.85024      -820.32324        27.50024
E16  24756451.16814    100455.62914     -1047.83814        26.30014                                                                
R07  23513347.95124  55695128.23624     -3825.19924        24.90024
R17  22294509.33524   6514958.71424      3328.44724        24.90024
R16  23526477.36224   -148825.08224      2718.49424        23.50024
R14  22873051.51923  -5665566.67223     -3784.42523        22.10023
> 2026 04 21 13 34 56.9999533  0 29                      
G10  22163312.06108    113334.42408     -2230.70408        48.20008  22163321.05506    151911.82606     -1665.94806        37.20006
G27  22242879.67806    156374.68006     -3209.91406        41.30006  22242883.87505    184745.52005     -2396.95805        34.80005
G08  20454866.19406     77089.96206     -1409.18006        40.00006  20454868.89206    124202.94406     -1052.25806        38.90006
G23  24655631.56406    170912.27506     -3536.30606        39.80006  24655641.45704    893543.27004     -2641.51304        28.30004
G32  22907094.75106    -70208.70906      1949.40906        40.10006  22907087.85614     13658.11614      1450.22714        24.50014
G02  20676484.47106    -14908.45906       691.38706        38.80006                                                                
G14  23662493.50024    -75318.19324      1874.78324        27.90024  23662492.90013     11374.34713      1395.06913        20.80013
G01  22090680.74324    139961.97524      2607.01024        26.00024                                                                
G22  24893804.68123     61958.03723      2393.68023        20.50023                                                                
C33  22901847.78407     14172.96807        22.75107        44.50007  22901878.66206     63566.63206        16.97006        38.00006
E33  24298692.36807    153992.24307     -1591.79807        42.00007  24298708.25705    140393.83505     -1188.63605        32.30005
R24  19469899.87207   3377329.61907       641.40307        41.50007
R08  20511699.04906   5136079.43006      -699.12406        40.90006
C28  21895318.88906    142269.22406     -1324.31806        40.00006  21895317.09004     99216.16004      -989.07904        29.30004
C42  25867924.81106    130367.64906     -2816.44306        38.00006  25867936.80324    156963.23824     -2100.67524        25.20024
E29  26357114.15206     15315.64506      1584.03406        36.90006  26357121.34705    363638.46505      1182.70605        31.60005
R23  22083760.33406   3256083.01406     -3088.14706        36.50006
C27  21681994.67006    -41825.64506      1115.35006        36.30006  21682002.46506     29507.15106       832.93506        37.30006
R01  20845227.45205   2452685.39505      3332.76505        35.20005
E07  27338062.95605     56754.69505      -943.94605        34.40005  27338092.03605     94436.10605      -704.87805        33.10005
C41  23806345.01325   -109001.89525      2836.83225        31.80025  23806347.71105     24795.98105      2116.35705        33.00005
E12  23656490.45505     43764.25105       937.67905        31.70005  23656484.16006    726027.14506       699.66606        35.80006
E25  26302250.33414     17689.32414      1532.72614        28.80014  26302246.13704      4438.31504      1139.17504        27.70004
R15  21763614.06624  14447203.63024      -817.69324        27.80024
E16  24756655.02714    101503.70714     -1050.33414        26.20014                                                                
R07  23514084.24124  55698966.44524     -3835.60124        24.80024
R16  23525992.29723   -151548.72623      2720.94423        23.40023
R17  22293911.24924   6511624.16724      3332.80324        24.60024
R14  22873783.61223  -5661781.00223     -3781.51723        22.10023
> 2026 04 21 13 34 57.9999515  0 29                      
G10  22163745.86108    115566.42308     -2232.90108        48.20008  22163755.45406    153578.56906     -1667.36806        37.20006
G27  22243504.74506    159585.75706     -3211.90606        41.30006  22243506.24405    187143.48405     -2398.65305        34.80005
G08  20455153.09506     78500.37106     -1411.34206        40.00006  20455147.39906    125256.19606     -1053.97906        38.90006
G23  24656315.99106    174449.82606     -3538.33006        39.80006  24656327.08304    896184.97204     -2641.60504        28.20004
G32  22906735.60006    -72156.79506      1947.17206        40.00006  22906724.20814     12204.71114      1451.21914        24.40014
G02  20676363.05506    -15598.58506       689.25906        39.00006                                                                
G14  23662148.13924    -77189.84724      1869.28024        28.00024  23662142.14313      9975.17813      1400.79813        20.80013
G01  22090186.68524    137352.05424      2606.88324        25.90024                                                                
G22  24893326.81123     59561.26123      2395.45123        20.40023                                                                
C33  22901855.87807     14151.70407        20.24607        44.50007  22901884.65806     63550.72806        15.16106        38.10006
E33  24299003.55307    155585.14307     -1593.65307        42.00007  24299018.84205    141583.36305     -1190.11305        32.30005
R24  19469794.64507   3376689.57007       639.09807        41.70007
R08  20511839.95206   5136780.09106      -701.81806        40.90006
C28  21895581.20706    143594.82706     -1326.46406        40.00006  21895579.10904    100205.99904      -990.41904        29.30004
C42  25868479.12706    133185.47006     -2818.72406        38.00006  25868486.32224    159067.19024     -2102.83324        25.20024
E29  26356821.55506     13733.15806      1581.54006        36.90006  26356829.94905    362456.74405      1181.04605        31.60005
R23  22084335.03606   3259172.53406     -3090.38606        36.50006
C27  21681800.70506    -42940.00406      1113.58306        36.20006  21681800.40506     28675.06106       831.47106        37.30006
R01  20844630.56505   2449354.07605      3330.32605        35.20005
E07  27338268.61305     57699.84105      -946.03005        34.40005  27338279.40605     95141.89705      -706.46505        33.10005
C41  23805799.99105   -111834.78505      2831.18105        31.90005  23805817.97805     22680.72005      2114.57905        33.00005
E12  23656308.18205     42828.54905       934.84705        31.70005  23656316.57606    725328.34106       698.21306        35.70006
E25  26301966.43004     16161.66004      1525.41304        28.70004  26301964.03204      3297.24704      1141.45604        27.60004
R15  21763767.26024  14448022.26224      -822.06024        28.00024
E16  24756869.37914    102553.81014     -1048.61614        26.10014                                                                
R07  23514831.92424  55702800.89024     -3840.56924        24.80024
R16  23525538.71123   -154270.08723      2723.47523        23.40023
R17  22293258.90124   6508290.35824      3335.44624        24.30024
R14  22874503.71323  -5657998.74023     -3784.56523        22.00023
> 2026 04 21 13 34 58.9999497  0 28                      
G10  22164161.97308    117797.39608     -2230.46508        48.40008  22164170.66706    155244.54006     -1665.58906        37.20006
G27  22244103.13106    162795.72606     -3209.42206        41.30006  22244106.72805    189540.58005     -2396.66605        34.70005
G23  24656982.42906    177986.01506     -3535.51506        39.70006  24656985.72704    898825.64104     -2640.15804        28.20004
G08  20455406.42006     79909.82806     -1408.98306        40.00006  20455407.01906    126308.81706     -1052.30706        38.90006
G02  20676221.25306    -16289.72406       691.64706        39.10006                                                                
G32  22906352.16506    -74105.71406      1949.33906        39.90006  22906347.06914     10749.95414      1448.93514        24.20014
G14  23661788.68724    -79063.59624      1874.30124        28.10024  23661779.39413      8570.08713      1402.05513        20.80013
G01  22089680.03624    134745.15924      2609.13624        25.90024                                                                
G22  24892885.21723     57157.60523      2396.60023        20.40023                                                                
C33  22901840.28907     14129.63607        22.47007        44.40007  22901872.36706     63534.27606        16.72506        38.10006
E33  24299296.45007    157176.86807     -1591.14007        42.00007  24299286.25705    142772.00105     -1188.19605        32.20005
R24  19469665.13407   3376048.53207       641.53407        41.80007
R08  20511964.66506   5137480.22406      -699.87006        41.00006
C28  21895821.94106    144919.38806     -1324.04206        39.90006  21895822.24104    101195.08504      -988.71104        29.30004
C42  25869004.36406    136002.08806     -2816.02006        37.90006  25869014.55714    161169.57114     -2105.60014        25.20014
E29  26356511.86906     12149.70506      1583.94006        36.90006  26356519.96405    361274.29805      1182.81105        31.60005
R23  22084913.33606   3262260.86306     -3087.73906        36.50006
C27  21681577.35906    -44055.30906      1115.77906        36.20006  21681580.05706     27842.14106       833.33706        37.30006
R01  20843983.01405   2446022.01705      3332.43505        35.10005
E07  27338432.60005     58644.10305      -943.82205        34.40005  27338452.38605     95847.02605      -704.79905        33.10005
C41  23805254.06825   -114668.35425      2835.41325        31.90025  23805271.45605     20564.58705      2116.57305        33.20005
E12  23656126.50705     41891.68105       937.45305        31.80005  23656129.20506    724628.67906       700.09206        35.70006
E25  26301651.64804     14631.98304      1527.68704        28.60004  26301665.13924      2153.29524      1145.39524        27.60024
R15  21763926.15024  14448839.10824      -818.70524        28.10024
E16  24757047.15614    103601.64014     -1048.69614        26.00014                                                                
R07  23515508.25524  55706634.11624     -3831.62424        24.80024
R16  23525013.47524   -156991.88124      2718.51524        23.80024
R14  22875193.83623  -5654212.52823     -3786.69423        22.00023
> 2026 04 21 13 34 59.9999479  0 28                      
G10  22164596.67208    120027.71808     -2230.00008        48.40008  22164605.36606    156910.08506     -1665.33506        37.20006
G27  22244722.50206    166004.97706     -3208.89706        41.30006  22244726.99905    191937.09205     -2396.22505        34.70005
G08  20455679.23106     81318.92806     -1408.92406        39.90006  20455685.22706    127361.04706     -1052.03706        38.90006
G02  20676100.13706    -16981.64106       692.30706        39.20006                                                                
G32  22905995.11206    -76055.40806      1950.08406        39.70006  22905985.81914      9296.75414      1454.92414        24.00014
G14  23661450.52224    -80937.68924      1875.26824        28.30024  23661428.63713      7161.56813      1413.73513        20.70013
G01  22089185.67824    132135.13924      2608.58824        25.80024                                                                
G22  24892446.32123     54757.09523      2400.44223        20.30023                                                                
G23  24657660.26006    181521.25806     -3534.77606        39.70006  24657672.55104    901465.47904     -2639.42704        28.20004
C33  22901843.88607     14107.06407        22.82407        44.40007  22901876.86306     63517.40306        17.08406        38.20006
E33  24299613.33107    158767.61207     -1590.25707        42.00007  24299626.52205    143959.87905     -1187.49905        32.10005
R24  19469553.31207   3375406.78107       642.10907        41.90007
R08  20512104.06906   5138180.19506      -699.89206        41.10006
C28  21896077.36406    146243.12606     -1323.32806        39.90006  21896083.36004    102183.64804      -988.30404        29.30004
C42  25869547.88806    138817.86706     -2815.36606        37.90006  25869559.57924    163272.11424     -2101.62824        25.10024
E29  26356225.56806     10565.42506      1584.69506        36.90006  26356228.56605    360091.29205      1183.28905        31.70005
R23  22085500.32906   3265348.32506     -3087.03406        36.50006
C27  21681377.39806    -45171.45406      1116.56706        36.20006  21681377.99706     27008.70506       833.69606        37.30006
R01  20843374.73505   2442689.49905      3332.75405        35.00005
E07  27338613.07505     59587.72305      -943.30105        34.30005  27338641.85505     96551.68005      -704.41805        33.00005
E12  23655957.42405     40953.80405       938.38305        31.90005  23655961.62106    723928.38506       700.61106        35.70006
C41  23804726.73405   -117502.93805      2836.09505        31.90005  23804741.12405     18447.92905      2116.92505        33.20005
E25  26301370.44304     13101.93804      1528.23204        28.60004  26301380.33604      1010.81004      1143.25404        27.50004
R15  21764069.45124  14449659.44724      -820.83524        28.10024
E16  24757264.80514    104649.66614     -1047.62614        25.90014                                                                
R07  23516200.17624  55710468.50124     -3835.47224        25.10024
R16  23524493.33524   -159712.31824      2722.26324        24.10024
R14  22875843.48623  -5650421.03523     -3788.39023        22.00023
> 2026 04 21 13 35 00.9999460  0 28                      
G10  22164999.59308    122259.45808     -2232.45308        48.50008  22165009.18606    158576.60906     -1667.01606        37.20006
G27  22245313.69306    169215.63106     -3211.36206        41.30006  22245319.38905    194334.59905     -2398.00805        34.70005
G08  20455926.26006     82729.66406     -1411.55806        39.90006  20455933.45506    128414.42106     -1053.94706        38.90006
G23  24658316.80506    185057.64406     -3536.96506        39.70006  24658327.29814    904106.34114     -2641.37914        28.30014
G02  20675952.63906    -17672.05706       689.66606        39.20006                                                                
G32  22905603.28406    -78003.35606      1947.08006        39.60006  22905596.08914      7845.45614      1448.85014        23.80014
G14  23661067.98624    -82810.50624      1877.93324        28.50024  23661051.79813      5758.76713      1409.94613        20.70013
G01  22088684.42524    129526.76824      2606.05024        25.70024                                                                
G22  24891966.35323     52351.92523      2402.25423        20.30023                                                                
C33  22901821.40207     14086.09507        20.16807        44.30007  22901853.18006     63501.77606        15.00406        38.20006
E33  24299893.33707    160359.60507     -1592.61907        42.10007  24299881.34505    145148.71105     -1189.31105        32.10005
R24  19469406.41307   3374766.62907       639.35507        41.90007
R08  20512217.09006   5138882.18206      -702.99706        41.20006
C28  21896318.99706    147568.28806     -1325.87706        39.90006  21896315.99904    103173.24004      -990.10704        29.40004
C42  25870071.92506    141635.07606     -2817.92806        38.00006  25870071.62524    165375.12824     -2100.25324        25.20024
E29  26355894.59706      8982.67806      1581.98306        36.90006  26355906.58805    358909.37805      1181.36905        32.00005
R23  22086045.65206   3268437.02006     -3089.31806        36.50006
C27  21681139.96206    -46286.22406      1114.08406        36.20006  21681144.45906     26176.21606       832.01706        37.30006
R01  20842734.67805   2439358.54105      3330.18405        34.90005
E07  27338782.15805     60532.95005      -946.03205        34.30005  27338800.44505     97257.49105      -706.39105        33.00005
E12  23655763.15905     40017.23305       935.92105        32.00005  23655762.25906    723229.05706       698.84706        35.70006
C41  23804180.81105   -120335.96805      2831.76005        31.90005  23804182.31005     16332.35005      2115.04405        33.40005
E25  26301061.35704     11573.48104      1527.16604        28.50004  26301071.85024      -130.30124      1138.42624        27.50024
R15  21764213.95124  14450482.36924      -826.46724        28.00024
R07  23516839.33424  55714304.95524     -3834.99524        25.20024
E16  24757456.37214    105700.70614     -1046.54914        25.80014                                                                
R16  23523924.02924   -162429.92324      2719.44524        24.10024
R14  22876594.46623  -5646631.40323     -3792.20823        21.90023
> 2026 04 21 13 35 01.9999441  0 28                      
G10  22165415.70508    124492.71808     -2234.02408        48.50008  22165426.49706    160244.31106     -1668.29406        37.20006
G27  22245914.47706    172427.64106     -3212.69306        41.30006  22245922.57105    196733.11905     -2399.03105        34.60005
G23  24658980.54606    188595.19306     -3538.13706        39.70006  24658987.74124    906748.22524     -2640.89924        28.30024
G08  20456187.97906     84141.92506     -1413.02606        39.80006  20456193.07506    129469.07106     -1055.29006        38.90006
G02  20675810.53706    -18361.13806       688.41506        39.20006                                                                
G14  23660689.64824    -84681.10324      1866.73924        28.60024                                                                
G22  24891497.77823     49947.02023      2406.77823        20.30023                                                                
G01  22088168.78224    126922.76424      2602.57624        25.50024                                                                
G32  22905224.64606    -79949.81606      1945.71906        39.50006  22905216.25214      6391.99814      1453.54114        23.70014
C33  22901811.20907     14066.88407        18.33207        44.30007  22901841.18806     63487.45806        13.66306        38.30006
E33  24300190.13107    161952.91307     -1593.96807        42.10007  24300205.12105    146338.50105     -1190.27205        32.10005
R24  19469287.39607   3374128.14607       637.64907        41.90007
R08  20512338.80606   5139586.31906      -705.21306        41.30006
C28  21896563.32806    148894.95306     -1327.41806        39.90006  21896560.62905    104163.86805      -991.14905        29.60005
C42  25870595.36206    144453.73706     -2819.39206        38.00006  25870604.65614    167477.95014     -2103.73014        25.40014
E29  26355588.80806      7401.35806      1580.61006        36.90006  26355598.10205    357728.54005      1180.30305        32.00005
R23  22086615.55706   3271527.15706     -3090.86306        36.50006
C27  21680916.61706    -47399.49006      1112.51506        36.20006  21680925.01106     25344.86406       830.78406        37.30006
E07  27338952.44005     61479.60005      -947.36305        34.30005  27338969.52805     97964.42405      -707.49405        33.00005
R01  20842098.81805   2436029.42905      3328.19405        34.80005
E12  23655573.99005     39082.36805       935.51205        32.00005  23655576.38806    722530.70706       697.86306        35.70006
C41  23803620.20025   -123167.23125      2833.38425        31.90025  23803635.78905     14217.89105      2113.90305        33.70005
E25  26300776.55404     10046.60404      1525.08904        28.50004  26300771.45804     -1270.77404      1137.65604        27.50004
R15  21764342.56224  14451307.91924      -826.11524        28.00024
R07  23517577.42324  55718141.53724     -3838.15224        25.80024
R16  23523385.30224   -165146.79224      2718.25524        24.10024
R14  22877342.74823  -5642841.78623     -3791.36823        21.90023
E16  24757641.34414    106754.38514     -1057.00014        25.70014                                                                
> 2026 04 21 13 35 02.9999424  0 28                      
G10  22165851.30308    126726.00008     -2233.29708        48.50008  22165861.49606    161912.02506     -1667.72306        37.20006
G27  22246539.84406    175639.63406     -3211.99006        41.30006  22246542.54205    199131.73205     -2398.66305        34.60005
G23  24659662.57406    192132.49806     -3537.18906        39.80006  24659669.16904    909389.53504     -2640.02804        28.30004
G08  20456464.98706     85554.43806     -1412.64106        39.80006  20456471.58206    130523.89606     -1054.91506        38.90006
G02  20675688.52206    -19050.22606       689.09206        39.20006                                                                
G14  23660340.39024    -86551.94024      1865.21124        28.60024                                                                
G22  24891032.79923     47541.55823      2407.24523        20.20023                                                                
G01  22087669.62724    124313.28924      2605.46524        25.40024                                                                
G32  22904869.09206    -81896.16806      1946.30106        39.30006  22904854.10214      4938.64614      1453.80114        23.50014
C33  22901818.10407     14047.96307        18.77707        44.20007  22901846.58406     63473.26506        14.13006        38.40006
E33  24300500.71607    163546.00407     -1592.98707        42.10007  24300517.80405    147528.12605     -1189.54405        32.00005
R24  19469174.67407   3373489.74707       638.35807        41.90007
R08  20512484.50507   5140290.95807      -704.89107        41.50007
C28  21896821.44906    150221.51506     -1326.51406        39.90006  21896821.14905    105154.54905      -990.70805        29.80005
C42  25871146.68106    147272.28806     -2818.50106        38.00006  25871152.67724    169582.90724     -2104.52824        25.50024
E29  26355298.90906      5820.19206      1581.09206        36.80006  26355306.70405    356547.75505      1180.76005        32.10005
R23  22087206.74806   3274617.12506     -3089.89006        36.40006
C27  21680722.95106    -48512.81006      1113.34906        36.20006  21680722.65106     24513.45406       831.44106        37.30006
E07  27339141.00905     62426.36805      -946.82905        34.30005  27339161.99505     98671.45305      -707.07805        33.00005
R01  20841492.93805   2432700.59605      3328.70005        34.60005
E12  23655405.80625     38146.88225       936.79925        32.00025  23655407.90506    721832.27706       698.47106        35.70006
C41  23803099.46025   -125999.13625      2829.73025        31.80025  23803106.65505     12103.40605      2114.50105        33.90005
E25  26300498.34704      8520.02704      1526.93104        28.40004  26300491.15224     -2409.95824      1142.54124        27.40024
R15  21764498.15424  14452132.60424      -823.50424        28.00024
R07  23518297.22524  55721978.53524     -3839.96324        26.40024
R16  23522878.05324   -167868.41624      2722.25624        24.30024
R14  22878018.48023  -5639049.65323     -3791.89723        21.80023
E16  24757845.503 4    107806.296 4     -1060.029 4        25.600 4                                                                
> 2026 04 21 13 35 03.9999407  0 28                      
G10  22166277.30808    128959.49408     -2233.60508        48.50008  22166289.60006    163579.87606     -1667.92306        37.10006
G27  22247153.81906    178851.68506     -3212.08606        41.30006  22247158.01605    201530.37005     -2398.65605        34.70005
G23  24660337.70606    195669.69106     -3537.14306        39.90006  24660346.40004    912030.93904     -2641.95504        28.40004
G08  20456738.99706     86967.25906     -1412.97806        39.70006  20456743.79406    131578.88206     -1055.06706        38.90006
G02  20675560.51006    -19739.18406       688.89406        39.30006                                                                
G32  22904496.45006    -83842.27306      1945.98506        39.20006  22904487.15613      3486.70813      1454.23313        23.40013
G14  23659986.93524    -88420.62424      1868.11024        28.60024                                                                
G01  22087159.08124    121700.59824      2612.05324        25.30024                                                                
G22  24890562.42523     45131.51723      2409.58423        20.20023                                                                
C33  22901815.40607     14029.37807        18.41707        44.20007  22901846.88406     63459.42106        13.67006        38.60006
E33  24300806.20507    165139.01507     -1592.97307        42.10007  24300823.59305    148717.81205     -1189.71905        32.00005
R24  19469056.25607   3372851.58507       638.04607        41.90007
R08  20512617.61307   5140996.16507      -705.49307        41.60007
C28  21897079.27006    151548.37206     -1327.00606        39.80006  21897078.67105    106145.29205      -990.77705        29.80005
C42  25871683.60906    150090.96006     -2818.73706        38.10006  25871693.50224    171687.77024     -2103.81924        25.60024
E29  26355003.01406      4239.36906      1580.65406        36.80006  26355009.01005    355367.11705      1180.56705        32.20005
R23  22087775.15406   3277707.11506     -3090.00506        36.40006
C27  21680505.30106    -49626.05406      1113.20906        36.20006  21680514.29506     23682.16506       831.23006        37.30006
E07  27339322.08405     63373.35305      -947.09505        34.30005  27339346.06705     99378.63205      -707.25505        33.20005
R01  20840883.75905   2429372.24805      3328.11005        34.50005
E12  23655225.93105     37211.52705       934.79105        31.90005  23655232.52606    721133.85406       698.42106        35.70006
C41  23802555.03705   -128830.54305      2831.66405        31.80005  23802570.32605      9988.89605      2114.52605        33.90005
E25  26300220.13904      6993.10504      1521.09704        28.30004  26300200.95304     -3550.00304      1140.97804        27.40004
R15  21764650.74924  14452954.84324      -819.76824        27.90024
R07  23519030.81724  55725816.39624     -3842.55024        26.80024
E16  24758046.96414    108859.95614     -1054.53714        25.50014                                                                
R16  23522372.00424   -170587.43724      2717.97424        24.60024
R14  22878690.91523  -5635254.12323     -3794.48423        21.70023
> 2026 04 21 13 35 04.9999389  0 28                      
G10  22166694.62008    131193.27408     -2233.92708        48.50008  22166706.31106    165248.01206     -1668.28206        37.10006
G27  22247752.20506    182064.11706     -3212.62906        41.30006  22247759.69905    203929.19905     -2398.92805        34.90005
G23  24661006.54306    199206.95706     -3537.30906        40.10006  24661011.04004    914673.34904     -2641.41804        28.40004
G08  20456995.32006     88380.66706     -1413.70406        39.70006  20457004.31406    132634.28706     -1055.61706        38.90006
G02  20675419.30806    -20427.71006       688.31106        39.30006                                                                
G32  22904117.51206    -85788.04206      1945.60406        39.10006  22904109.71823      2033.18323      1451.82223        23.40023
G14  23659619.68924    -90292.19724      1873.52224        28.60024                                                                
G01  22086659.32724    119088.90424      2612.70024        25.10024                                                                
G22  24890082.45723     42723.10623      2409.85123        20.20023                                                                
C33  22901804.61307     14011.33407        17.77307        44.10007  22901835.49206     63445.96706        13.25906        38.70006
R24  19468930.64307   3372213.79207       637.60807        42.00007
E33  24301104.49807    166732.17507     -1593.23807        42.00007  24301119.18805    149907.47705     -1189.65705        32.00005
R08  20512744.12607   5141702.20607      -706.45807        41.70007
C28  21897322.10206    152875.24406     -1326.88406        39.80006  21897323.00205    107136.25605      -991.07605        29.90005
C42  25872210.94406    152909.79706     -2818.92506        38.10006  25872223.83514    173796.07614     -2104.53214        25.60014
E29  26354685.83406      2658.51006      1579.37806        36.70006  26354700.82305    354186.79505      1180.16605        32.40005
C27  21680292.14906    -50738.96906      1112.75206        36.20006  21680294.24806     22851.12006       830.92506        37.30006
R23  22088350.45606   3280797.22806     -3090.18006        36.40006
E07  27339489.66805     64321.02005      -948.00905        34.20005  27339518.14805    100086.20605      -707.77305        33.20005
R01  20840247.30005   2426044.46705      3327.50505        34.30005
E12  23655045.75505     36276.73405       934.51505        32.00005  23655046.65506    720435.62006       698.14106        35.60006
C41  23802005.51705   -131661.83205      2831.23505        31.80005  23802022.90505      7874.76205      2113.95005        33.90005
E25  26299906.25704      5466.42604      1533.06104        28.30004  26299904.75804     -4689.80304      1139.18004        27.40004
R15  21764837.22024  14453779.62424      -826.55324        27.90024
R07  23519701.45224  55729654.95324     -3834.91224        26.90024
E16  24758248.42414    109914.54814     -1060.05914        25.40014                                                                
R16  23521897.13224   -173305.80924      2717.30424        24.60024
R14  22879368.74623  -5631461.03823     -3795.12123        21.60023
> 2026 04 21 13 35 05.9999372  0 28                      
G10  22167122.12408    133423.93308     -2229.10108        48.50008  22167132.61606    166913.77406     -1664.57806        37.10006
G27  22248371.57606    185273.18706     -3207.39306        41.30006  22248374.87305    206325.60405     -2395.19905        35.20005
G23  24661678.07806    202740.71306     -3532.00606        40.30006  24661680.17714    917313.63014     -2639.72014        28.30014
G08  20457262.13506     89790.86306     -1408.59206        39.70006  20457275.92506    133687.43006     -1052.01306        38.90006
G02  20675295.49406    -21119.60506       693.58106        39.30006                                                                
G32  22903751.46606    -87736.64206      1950.01906        38.90006  22903742.17224       577.82924      1455.27124        23.70024
G14  23659258.43924    -92164.96024      1874.11124        28.50024                                                                
G01  22086188.05324    116479.92924      2612.87024        25.00024                                                                
G22  24889637.26623     40308.47423      2414.99623        20.10023                                                                
C33  22901799.21707     13990.32307        22.49507        44.00007  22901834.59306     63430.30606        16.76406        38.70006
R24  19468809.82607   3371572.94407       642.37807        42.20007
E33  24301409.08707    168321.95307     -1588.09007        42.00007  24301426.47505    151094.66805     -1185.95605        32.00005
R08  20512870.63807   5142405.59807      -702.07007        41.70007
C28  21897580.22406    154199.05506     -1322.28106        39.80006  21897578.12505    108124.70505      -987.19305        30.10005
C42  25872746.37306    155725.51506     -2814.16206        38.10006  25872765.86014    175899.14014     -2105.44614        25.60014
E29  26354393.83606      1074.65706      1585.85406        36.70006  26354402.82905    353004.01005      1184.01905        32.50005
C27  21680083.49306    -51855.09106      1117.72706        36.10006  21680084.09306     22017.56206       834.81406        37.20006
R23  22088934.45206   3283884.00906     -3085.12006        36.30006
E07  27339672.54105     65264.94505      -943.55505        34.20005  27339701.02205    100791.43205      -704.05205        33.20005
R01  20839626.13005   2422713.45505      3332.63205        34.20005
E12  23654872.77505     35338.13405       940.50405        32.00005  23654870.07706    719734.82306       702.08006        35.60006
C41  23801473.38605   -134496.16705      2835.86205        31.70005  23801486.87605      5758.14205      2117.86605        33.80005
R15  21764991.91324  14454601.79724      -820.87124        28.20024
R07  23520413.16024  55733489.70924     -3834.36124        26.90024
R16  23521372.79524   -176020.41924      2716.73224        24.60024
R14  22880017.79623  -5627669.29023     -3789.58523        21.40023
E25  26299627.15004      3936.85104      1534.02404        28.20004  26299617.55724     -5830.91624      1143.27124        27.30024
E16  24758466.37314    110968.98614     -1058.36414        25.30014                                                                
> 2026 04 21 13 35 06.9999355  0 28                      
G10  22167567.61508    135653.54708     -2229.09708        48.50008  22167579.30706    168578.71106     -1664.52806        37.10006
G27  22249001.74006    188481.14106     -3207.40206        41.20006  22249006.23605    208721.16805     -2395.14605        35.20005
G23  24662369.40006    206273.10406     -3531.71506        40.30006  24662376.59514    919950.09114     -2636.05614        28.20014
G02  20675181.57306    -21812.54006       693.45606        39.40006                                                                
G32  22903399.80906    -89686.43306      1950.39006        38.90006  22903390.81524      -877.23424      1456.91924        24.90024
G14  23658929.26724    -94037.23824      1872.53724        28.50024                                                                
G01  22085683.20324    113859.90524      2614.05324        24.90024                                                                
G22  24889175.58523     37897.25723      2413.26423        20.00023                                                                
G08  20457555.93206     91200.27906     -1409.02906        39.60006  20457565.82506    134739.87806     -1052.10306        39.00006
C33  22901819.00407     13968.49807        22.23207        44.00007  22901851.98106     63414.01906        16.60006        38.70006
R24  19468710.59507   3370931.08007       642.37307        42.30007
R08  20513026.23007   5143108.38707      -702.48807        41.90007
E33  24301733.76307    169910.46707     -1587.88307        42.00007  24301719.37305    152280.90505     -1185.76305        32.00005
C28  21897848.23806    155521.68906     -1322.04906        39.90006  21897851.53605    109112.47805      -987.43605        30.10005
C42  25873303.98706    158540.10706     -2814.03406        38.10006  25873312.08214    177998.63114     -2101.20814        25.50014
E29  26354098.24006      -510.27906      1585.47906        36.60006  26354121.92405    351820.54005      1183.81405        32.70005
C27  21679888.02906    -52972.41506      1117.92606        36.10006  21679893.72506     21183.23906       834.70806        37.20006
R23  22089535.83506   3286969.51806     -3084.87806        36.30006
E07  27339880.59725     66208.68225      -940.14625        34.10025  27339900.08405    101495.90005      -704.09105        33.20005
R01  20839005.85905   2419381.63405      3330.73105        34.10005
E12  23654717.48305     34398.53305       940.10405        32.30005  23654713.58506    719033.19606       702.04406        35.60006
C41  23800948.74905   -137331.81005      2836.30205        31.80005  23800969.13505      3640.75505      2117.77305        33.90005
R15  21765153.20124  14455422.89924      -819.06724        28.80024
E25  26299360.93404      2407.20504      1528.18404        28.20004  26299347.14414     -6974.82414      1147.80614        27.30014
R07  23521174.03324  55737329.12424     -3840.75224        26.90024
R16  23520884.73324   -178740.68124      2721.84324        24.50024
E16  24758677.72714    112021.34214     -1056.81514        25.10014                                                                
R14  22880870.70623  -5623872.60723     -3794.15723        21.20023
> 2026 04 21 13 35 07.9999337  0 28                      
G10  22167967.83808    137883.14708     -2229.59608        48.50008  22167977.13206    170243.68906     -1665.00206        37.10006
G27  22249583.33706    191689.10006     -3207.96706        41.20006  22249590.23205    211116.67905     -2395.49005        35.20005
G23  24663019.94906    209805.19106     -3531.94206        40.30006  24663023.84714    922588.86614     -2639.43814        28.00014
G02  20675025.08106    -22505.43106       692.87106        39.50006                                                                
G32  22903000.48606    -91635.99906      1949.45606        39.20006  22902994.49024     -2333.84924      1458.39424        25.70024
G08  20457796.96506     92609.90506     -1409.73306        39.60006  20457807.15806    135792.57906     -1052.82806        39.00006
G01  22085152.27024    111242.65424      2622.11924        24.70024                                                                
G22  24888670.43523     35490.56923      2410.92823        19.90023                                                                
G14  23658542.53524    -95909.07724      1870.62424        28.50024                                                                
C33  22901787.22607     13946.88707        21.50507        43.90007  22901820.20306     63397.83306        16.13506        38.70006
R24  19468566.39507   3370289.28107       641.76807        42.30007
R08  20513133.25607   5143811.81107      -703.74307        41.90007
E33  24302002.97607    171498.75007     -1588.17107        41.90007  24301995.78105    153466.93105     -1185.92205        31.90005
C28  21898075.78006    156844.33506     -1322.65406        40.00006  21898076.38005    110100.13105      -987.59505        30.10005
C42  25873817.83206    161354.61406     -2814.47106        38.00006  25873820.53024    180100.52524     -2101.60024        25.70024
E29  26353781.95906     -2095.16506      1584.86506        36.60006  26353794.25105    350637.02005      1183.54805        32.70005
C27  21679650.29306    -54089.70906      1117.28206        36.10006  21679653.89106     20348.88406       834.37206        37.20006
R23  22090090.75106   3290054.86306     -3085.26906        36.20006
R15  21765278.21425  14456244.36425      -822.14825        34.10025
E07  27340027.19605     67152.14905      -944.33405        34.10005  27340052.07905    102200.40805      -704.52905        33.20005
R01  20838369.70005   2416050.20605      3331.73905        34.00005
E12  23654511.52505     33458.76405       939.85405        32.50005  23654508.22806    718331.40306       701.87706        35.50006
C41  23800395.93205   -140167.23105      2835.31505        32.20005  23800402.82705      1523.31105      2117.47705        34.10005
E25  26299032.66104       876.04904      1531.91504        28.20004  26299029.66414     -8118.97314      1141.77314        27.20014
R07  23521893.83524  55741166.89724     -3839.45824        26.80024
R16  23520368.49124   -181459.21524      2718.42524        24.50024
E16  24758860.00114    113070.19114     -1047.59914        25.00014                                                                
R14  22881627.38223  -5620077.48923     -3795.34323        20.90023
> 2026 04 21 13 35 08.9999320  0 29                      
G10  22168413.33008    140114.71808     -2232.56108        48.50008  22168421.72406    171910.14606     -1667.19806        37.10006
G27  22250213.20106    194898.84106     -3210.63906        41.10006  22250222.79405    213513.63405     -2397.68005        35.20005
G23  24663713.36906    213339.02506     -3534.71406        40.20006  24663719.66514    925226.52014     -2640.09714        27.80014
G02  20674918.35506    -23196.50006       690.15906        39.60006                                                                
G32  22902647.93006    -93583.54206      1946.53606        39.40006  22902644.03224     -3788.58924      1457.80524        25.80024
G14  23658209.16624    -97781.46624      1875.16724        28.50024                                                                
G01  22084663.60824    108626.90024      2617.75924        24.60024                                                                
G22  24888219.84723     33080.37323      2409.45323        19.80023                                                                
G08  20458084.46606     94021.58206     -1412.70506        39.50006  20458097.35706    136846.78106     -1054.95506        39.10006
C33  22901808.21107     13927.37407        18.46207        43.80007  22901838.19006     63383.31506        13.68506        38.70006
R24  19468465.06507   3369649.41507       638.90107        42.30007
R08  20513285.85107   5144517.64707      -707.04307        42.00007
E33  24302333.64707    173088.77707     -1590.90107        41.90007  24302321.05605    154654.31405     -1188.06305        31.90005
C28  21898349.49106    158168.86906     -1325.48006        40.10006  21898350.39005    111089.38005      -990.04905        30.00005
C42  25874371.54806    164170.70306     -2816.88306        38.00006  25874385.93814    182203.09314     -2102.90814        25.70014
E29  26353500.75406     -3678.08506      1581.93806        36.50006  26353513.94505    349454.92805      1181.38005        32.70005
C27  21679458.12606    -55205.26506      1114.68806        36.10006  21679462.62306     19515.91506       832.27806        37.20006
R23  22090674.44706   3293141.87506     -3087.85206        36.20006
R15  21765458.09015  14457068.53215      -825.52015        34.10015
E07  27340232.85425     68097.51825      -944.82225        33.90025  27340255.33805    102906.51605      -706.91005        33.20005
R01  20837744.93205   2412721.36705      3328.29905        33.90005
E12  23654344.54105     32520.72605       937.17505        32.70005  23654351.13606    717630.99006       699.72506        35.50006
C41  23799878.19005   -143000.90705      2832.80805        32.50005  23799884.18605      -592.74705      2115.36905        34.10005
E25  26298764.64704      -652.32004      1528.47704        28.10004  26298758.951 4     -9260.261 4      1146.358 4        27.100 4
R07  23522609.73924  55745001.94324     -3829.93924        26.70024
E16  24759079.44914    114120.72214     -1044.37314        24.90014                                                                
R16  23519911.30724   -184176.45624      2720.84924        24.50024
R17  22286540.85223 151060758.10923      3337.00223        22.20023
R14  22882357.97623  -5616277.21423     -3795.61023        20.70023
> 2026 04 21 13 35 09.9999302  0 29                      
G10  22168842.63208    142346.79608     -2232.33508        48.50008  22168849.22806    173576.95606     -1666.98906        37.00006
G27  22250833.47106    198109.06006     -3210.46206        41.10006  22250835.87005    215910.83205     -2397.32405        35.30005
G23  24664387.00306    216873.12806     -3534.24306        40.20006  24664395.69714    927866.82914     -2634.64114        27.60014
G32  22902281.28306    -95530.46806      1946.61906        39.60006  22902277.68604     -5242.86404      1454.04604        26.10004
G02  20674786.74606    -23887.04406       690.28306        39.60006                                                                
G08  20458361.77406     95433.93706     -1412.69706        39.50006  20458369.26906    137901.48306     -1054.95406        39.10006
G14  23657858.10924    -99652.36524      1873.90724        28.70024                                                                
G01  22084166.25324    106007.95224      2619.30024        24.40024                                                                
G22  24887747.67423     30670.44023      2411.30623        19.60023                                                                
C33  22901811.20907     13908.70907        18.24107        43.70007  22901837.89006     63369.34106        13.70106        38.60006
R24  19468351.44407   3369010.35607       638.65607        42.40007
R08  20513417.16007   5145224.57007      -707.46707        42.10007
E33  24302632.54007    174679.04107     -1590.38507        41.80007  24302622.94705    155841.86905     -1187.64405        31.90005
C28  21898607.91206    159493.91106     -1325.29706        40.10006  21898606.41305    112078.73605      -989.41005        30.00005
C42  25874916.57106    166987.54806     -2817.22906        38.00006  25874927.06414    184305.70114     -2104.13214        25.70014
C27  21679249.77106    -56320.29106      1114.76306        36.20006  21679254.56706     18683.31706       832.41206        37.20006
E29  26353206.95706     -5260.41806      1582.04406        36.50006  26353216.85105    348273.27605      1181.43405        32.80005
R23  22091256.04506   3296229.46306     -3087.88006        36.20006
R15  21765623.87525  14457893.62625      -825.55825        34.00025
E12  23654179.95505     31583.20005       937.27205        32.80005  23654176.65705    716930.83005       700.03505        35.40005
R01  20837137.25305   2409392.64005      3329.17805        33.70005
C41  23799339.16305   -145834.01305      2832.82705        32.70005  23799348.75705     -2708.40805      2115.46505        34.10005
E25  26298474.44804     -2179.74404      1524.95504        28.30004  26298472.05014    -10400.21114      1138.78414        27.00014
E07  27340401.93605     69043.99205      -952.02705        33.50005  27340439.11105    103612.94505      -706.59005        33.10005
R07  23523322.64524  55748837.44424     -3834.48424        26.60024
R17  22285871.11524 151057427.05624      3332.29824        24.30024
E16  24759275.51314    115173.11514     -1047.82614        24.70014                                                                
R16  23519357.29124   -186891.98624      2710.93024        24.40024
R14  22883024.71523  -5612480.36623     -3799.14023        20.40023
> 2026 04 21 13 35 10.9999285  0 29                      
G10  22169239.55808    144582.28408     -2237.19608        48.50008  22169247.35206    175246.24506     -1670.53206        37.00006
G27  22251420.46506    201322.55106     -3215.13406        41.00006  22251421.06505    218310.43605     -2400.81105        35.30005
G32  22901889.75506    -97474.03006      1941.88506        39.60006  22901882.85924     -6694.34124      1451.07924        26.70024
G23  24665037.25306    220410.13006     -3538.45706        40.10006  24665043.24904    930507.88304     -2641.93104        27.50004
G02  20674624.25806    -24574.28806       685.59406        39.60006                                                                
G08  20458603.70606     96849.80506     -1417.62606        39.40006  20458612.10006    138958.71806     -1058.50406        39.10006
G14  23657471.67624   -101519.41924      1864.38524        28.70024                                                                
G01  22083643.41524    103397.79824      2616.26124        24.20024                                                                
G22  24887300.08423     28264.09623      2410.05323        19.50023                                                                
C33  22901776.43307     13893.52107        13.45107        43.70007  22901808.21106     63357.99106        10.03906        38.60006
R24  19468204.24607   3368374.72507       633.91907        42.40007
R08  20513522.68707   5145935.39907      -712.78307        42.20007
E33  24302913.74607    176272.50507     -1595.06707        41.70007  24302902.65305    157031.72805     -1191.01205        31.80005
C28  21898830.95806    160822.24006     -1329.97606        40.10006  21898830.95805    113070.63005      -993.16505        30.00005
C42  25875413.62706    169807.58006     -2821.63106        37.90006  25875430.71514    186411.52014     -2103.92714        25.70014
C27  21679010.53606    -57431.93106      1109.94906        36.30006  21679016.23206     17853.10506       829.02206        37.10006
E29  26352875.68706     -6839.46506      1577.40606        36.40006  26352887.07905    347094.03705      1178.03405        32.90005
R23  22091820.85406   3299320.30606     -3092.47806        36.10006
R15  21765738.39625  14458722.66325      -831.01025        33.90025
C41  23798775.55305   -148663.86205      2828.22605        32.70005  23798783.34805     -4821.54405      2111.87905        34.00005
E12  23653966.20305     30648.76705       932.88705        32.80005  23653971.59905    716233.01805       696.63905        35.40005
R01  20836504.09105   2406067.97605      3322.38905        33.60005
E07  27340569.82005     69993.57205      -952.63605        32.70005  27340592.00505    104321.99005      -710.35505        33.10005
E25  26298155.46904     -3704.96404      1526.12004        28.30004  26298155.469 4    -11538.478 4      1136.927 4        26.900 4
R07  23524063.43324  55752671.40424     -3834.69724        26.50024
R17  22285196.88224 151054098.62524      3328.93724        25.10024
R16  23518803.87424   -189605.30824      2712.22324        24.30024
E16  24759460.48514    116227.71914     -1053.71114        24.60014                                                                
R14  22883696.25023  -5608675.55623     -3803.04823        20.10023
> 2026 04 21 13 35 11.9999268  0 29                      
G10  22169685.94908    146817.38208     -2234.90808        48.50008  22169694.94206    176915.32506     -1668.97906        37.00006
G27  22252053.32706    204535.62206     -3212.86606        40.90006  22252054.52605    220709.83405     -2399.30005        35.30005
G32  22901540.49606    -99417.87006      1943.98106        40.00006  22901534.20104     -8146.84004      1452.51304        27.30004
G02  20674515.43406    -25262.03406       687.99906        39.60006                                                                
G23  24665719.28106    223946.52306     -3536.09506        40.00006  24665739.66704    933148.66404     -2641.14904        27.40004
G08  20458897.50306     98265.49606     -1415.60506        39.40006  20458903.19906    140015.91206     -1057.17406        39.10006
G14  23657129.01324   -103385.20724      1861.15924        28.70024                                                                
G01  22083182.33424    100791.86424      2605.57824        24.00024                                                                
G22  24886872.28023     25859.28923      2405.79323        19.40023                                                                
C33  22901796.81907     13878.16907        15.43207        43.60007  22901826.49806     63346.54106        11.49906        38.50006
R08  20513673.18207   5146646.42007      -711.11907        42.20007
R24  19468107.11307   3367738.75207       636.14507        42.40007
E33  24303235.42307    177865.33207     -1592.51107        41.60007  24303227.02905    158221.22205     -1189.31505        31.80005
C28  21899103.76906    162150.09306     -1327.61806        40.10006  21899106.16705    114062.29505      -991.55205        29.90005
C42  25875984.13206    172627.07406     -2819.23006        37.80006  25875987.72914    188515.81514     -2104.53714        26.20014
C27  21678819.86806    -58543.94106      1112.19606        36.60006  21678826.16406     17022.64406       830.58606        37.10006
E29  26352595.38106     -8418.92606      1579.67006        36.40006  26352608.87105    345914.60805      1179.52605        32.90005
R23  22092414.44306   3302410.57106     -3089.98006        36.10006
R15  21765899.98425  14459551.79025      -829.17425        33.80025
C41  23798256.91205   -151494.05405      2830.36805        32.80005  23798267.40505     -6935.12705      2113.80905        34.00005
E12  23653814.20805     29713.71705       935.36105        32.80005  23653815.70705    715534.85505       698.34005        35.40005
R01  20835890.11605   2402741.73005      3324.04205        33.40005
E07  27340758.09025     70942.45325      -947.53325        32.10025  27340793.16605    105030.78205      -708.66705        33.20005
E25  26297900.94504     -5229.90004      1522.79704        28.30004  26297885.95514    -12675.48314      1139.37614        26.80014
R07  23524751.45624  55756506.92024     -3840.55124        26.40024
R17  22284587.10424 151050769.72524      3322.89024        25.50024
R16  23518310.11624   -192317.39824      2707.97924        24.30024
E16  24759676.33614    117283.03914     -1057.18014        24.50014                                                                
R14  22884380.97623  -5604872.78123     -3807.26523        19.90023
> 2026 04 21 13 35 12.9999251  0 28                      
G10  22170115.85108    149053.24008     -2236.24108        48.60008  22170124.24526    178585.26626     -1668.87426        36.90026
G27  22252664.30406    207749.29606     -3213.98106        40.90006  22252669.70025    223109.69725     -2400.09825        35.30025
G02  20674388.92106    -25949.03206       686.62406        39.70006                                                                
G23  24666403.10706    227483.39206     -3537.11406        39.90006  24666418.69704    935789.81804     -2641.34504        27.90004
G08  20459169.71406     99682.11306     -1417.08306        39.40006  20459175.11106    141073.77806     -1058.20406        39.10006
G14  23656780.65424   -105251.61324      1866.46724        28.70024                                                                
G01  22082654.39924     98185.17924      2603.81624        23.90024                                                                
G22  24886389.01423     23450.08923      2407.15123        19.50023                                                                
G32  22901172.35106   -101360.78806      1942.46006        40.20006  22901167.25524     -9597.73624      1450.09724        27.60024
C33  22901794.42107     13863.81007        13.86307        43.50007  22901827.09806     63335.78206        10.41406        38.50006
R08  20513817.38307   5147358.63007      -712.80507        42.20007
R24  19467986.89607   3367103.64507       634.67507        42.30007
E33  24303539.11307    179459.07407     -1594.20307        41.50007  24303533.11705    159411.10905     -1190.08505        31.80005
C28  21899361.59006    163478.75206     -1329.06306        40.10006  21899362.49025    115053.98325      -993.20325        29.90025
C42  25876517.16306    175447.28606     -2820.57606        37.80006  25876529.45414    190623.11414     -2105.80414        26.30014
C27  21678616.30906    -59655.44006      1111.24506        36.70006  21678617.50806     16192.61906       829.81006        37.10006
E29  26352294.98906     -9997.29006      1577.81806        36.30006  26352311.77705    344735.75305      1178.57005        33.00005
R23  22092998.73806   3305501.43906     -3091.17506        36.10006
R15  21766073.56425  14460382.10725      -831.66325        33.70025
C41  23797719.98425   -154323.87425      2828.14025        33.00025  23797731.07605     -9048.08805      2112.65405        33.90005
E12  23653644.22605     28779.86805       931.74905        32.80005  23653639.72905    714837.13505       697.50005        35.30005
E07  27340953.85405     71892.51905      -950.66005        31.60005  27340976.93805    105740.22405      -709.76705        33.30005
E25  26297612.24504     -6753.51804      1524.96204        28.30004  26297598.754 4    -13815.423 4      1137.410 4        26.800 4
R17  22284005.50724 151047441.51524      3327.62024        25.70024
R07  23525437.38124  55760348.05524     -3843.95024        26.30024
R16  23517801.96724   -195030.76524      2714.50924        24.60024
E16  24759873.59914    118338.21714     -1055.10914        24.50014                                                                
R14  22885109.77123  -5601070.73923     -3803.43123        19.60023
> 2026 04 21 13 35 13.9999234  0 29                      
G10  22170525.96708    151288.15208     -2234.44308        48.60008  22170533.162 6    180253.905 6     -1660.990 6        36.800 6
G27  22253263.28906    210962.03106     -3212.27106        40.80006  22253264.78825    225509.01525     -2399.04925        35.30025
G02  20674240.22406    -26636.81906       688.18206        39.70006                                                                
G23  24667066.24806    231019.09206     -3535.12106        39.90006  24667077.04104    938432.10904     -2639.86404        28.20004
G08  20459423.93806    101097.96906     -1415.47606        39.40006  20459429.63406    142131.07806     -1057.01906        39.10006
G14  23656420.00424   -107119.31924      1871.10924        28.70024                                                                
G01  22082142.65424     95581.21224      2605.36224        23.70024                                                                
G22  24885953.71623     21042.55423      2406.20623        19.50023                                                                
G32  22900788.01706   -103304.53406      1944.16506        40.50006  22900783.22104    -11049.13504      1454.65304        27.90004
C33  22901782.42907     13848.74007        15.42607        43.40007  22901808.51106     63324.56306        11.44806        38.50006
R08  20513933.10307   5148070.42307      -711.58707        42.30007
R24  19467856.78607   3366467.67107       636.40807        42.30007
E33  24303827.21326    181051.01726     -1591.04626        41.40026  24303821.21805    160600.16205     -1188.63705        31.70005
C28  21899597.22706    164806.30206     -1326.99906        40.10006  21899600.22505    116045.78705      -991.36305        29.90005
C42  25877037.60306    178266.47006     -2818.67406        37.70006  25877048.095 4    192728.235 4     -2094.536 4        26.500 4
C27  21678386.96806    -60767.82706      1112.83406        36.90006  21678390.86506     15362.01606       830.89306        37.10006
E29  26351973.61126    -11577.13726      1580.59226        36.30026  26351996.69505    343556.28005      1179.78505        33.00005
R23  22093548.25806   3308591.14306     -3089.12906        36.00006
C41  23797165.66825   -157154.10825      2830.94425        33.10025  23797178.25905    -11161.69905      2113.94005        33.90005
R15  21766224.35925  14461211.63225      -829.63025        33.60025
E12  23653446.06325     27844.17325       935.61925        32.80025  23653447.26205    714138.68805       698.81105        35.30005
E07  27341121.13925     72841.51825      -949.96725        31.20025  27341143.02305    106449.08305      -708.56905        33.30005
E25  26297295.36404     -8278.96004      1527.35504        28.30004  26297293.56514    -14955.22714      1139.23814        26.80014
R17  22283365.15024 151044112.25224      3327.54624        25.90024
R01  20834639.98225   2396094.17925      3320.72125        32.40025
R07  23526109.21624  55764187.75024     -3838.48224        26.20024
R16  23517309.10924   -197743.82424      2713.91124        24.80024
E16  24760060.96914    119391.32414     -1049.07414        24.40014                                                                
R14  22885803.49123  -5597266.29423     -3803.90323        19.30023
> 2026 04 21 13 35 14.9999217  0 30                      
G10  22170954.07108    153523.71108     -2235.88708        48.70008  22170961.86506    181923.33306     -1672.32606        36.70006
G32  22900421.07106   -105247.66206      1942.82106        40.80006  22900414.47624    -12500.16224      1449.84324        28.20024
G27  22253875.46506    214175.38606     -3213.66906        40.80006  22253880.26205    227908.37605     -2399.38705        35.30005
G02  20674115.51106    -27324.20106       687.18206        39.80006                                                                
G23  24667743.18006    234555.07306     -3536.12806        39.80006  24667753.07304    941072.63304     -2640.64604        28.70004
G14  23656058.15524   -108987.39424      1872.76324        28.70024                                                                
G01  22081650.09524     92978.35624      2601.55524        23.60024                                                                
G22  24885493.83423     18635.07023      2405.71323        19.50023                                                                
G08  20459698.24906    102514.55906     -1416.96006        39.40006  20459702.44606    143188.84306     -1058.00006        39.10006
C33  22901781.52907     13834.49307        13.83407        43.30007  22901808.81106     63313.93106        10.33906        38.40006
R08  20514073.10607   5148783.32507      -713.45707        42.40007
R24  19467741.06607   3365832.30507       635.06407        42.20007
E33  24304135.40006    182643.72006     -1593.08606        41.20006  24304124.90705    161789.47105     -1189.43905        31.70005
C28  21899849.95206    166134.42906     -1328.41706        40.10006  21899855.64805    117037.61005      -991.83405        29.90005
C42  25877575.43006    181086.27206     -2820.11706        37.60006  25877588.62114    194831.95214     -2109.51914        26.50014
C27  21678177.71306    -61879.70606      1111.62606        36.90006  21678181.91006     14531.71106       830.15806        37.20006
E29  26351688.50906    -13156.16306      1578.61806        36.20006  26351698.40205    342377.17905      1178.91705        33.00005
R23  22094138.84906   3311681.21906     -3090.26606        36.00006
C41  23796620.94505   -159983.92705      2829.61705        33.10005  23796642.23005    -13274.99705      2113.14405        33.90005
R15  21766378.75225  14462042.50225      -832.04425        33.40025
E12  23653266.48705     26908.82305       937.18005        32.70005  23653271.88405    713440.47705       698.09405        35.30005
E07  27341311.50705     73791.42505      -948.36205        30.90005  27341327.39605    107158.44605      -709.61605        33.30005
E25  26297022.55314     -9804.76214      1525.48614        28.30014  26297005.46514    -16092.65614      1133.74314        26.70014
R01  20834009.21825   2392770.02525      3322.98825        31.40025
R17  22282699.31124 151040782.45524      3331.81924        26.10024
R07  23526844.30824  55768030.29124     -3844.72124        26.10024
R16  23516818.34824   -200458.69524      2716.28024        24.80024
E16  24760264.52814    120447.46414     -1046.65914        24.40014                                                                
R14  22886504.10623  -5593463.11323     -3802.80623        19.00023
E10                                                                 639792595.20613    262828.54313      1414.76413        22.60013
> 2026 04 21 13 35 15.9999201  0 29                      
G10  22171395.96508    155757.16108     -2232.39808        48.70008  22171401.36106    183591.07806     -1666.90606        36.60006
G32  22900067.01606   -107192.73106      1946.04306        41.00006  22900060.72124    -13952.87624      1452.06124        28.20024
G27  22254505.92906    217386.38606     -3209.82906        40.70006  22254505.62905    230306.20005     -2397.05905        35.30005
G02  20673999.79106    -28013.67806       690.52406        39.90006                                                                
G23  24668428.50506    238088.54306     -3532.21906        39.80006  24668441.99624    943711.38824     -2636.37424        29.00024
G08  20459974.35706    103929.16806     -1413.62106        39.40006  20459986.64906    144245.29906     -1055.80206        39.10006
G14  23655728.68324   -110856.49924      1868.62324        28.70024                                                                
G22  24885036.05123     16226.71223      2406.54823        19.40023                                                                
G01  22081152.73923     90375.02723      2599.07023        23.40023  22081212.39813    610265.43713      1949.44413        19.70013
C33  22901789.02407     13818.29607        17.17307        43.20007  22901820.80206     63301.82906        12.83606        38.40006
R08  20514219.70407   5149494.80807      -710.77407        42.40007
R24  19467634.94007   3365195.03807       638.21707        42.20007
C28  21900123.96306    167460.59906     -1325.19406        40.10006  21900123.96325    118028.22025      -991.50625        29.90025
E33  24304448.38306    184233.79306     -1588.75906        41.10006  24304443.28725    162976.82125     -1181.87325        31.70025
C27  21677973.85406    -62993.77906      1115.17106        36.90006  21677985.54606     13699.77806       832.74706        37.20006
C42  25878127.04806    183903.76206     -2816.33806        37.50006  25878132.744 4    196935.661 4     -2104.208 4        26.400 4
E29  26351404.30506    -14737.18306      1582.01906        36.20006  26351412.99925    341196.37525      1186.15725        33.00025
R23  22094729.44006   3314769.20506     -3086.94606        36.00006
C41  23796105.30225   -162816.44425      2835.37025        33.00025  23796118.79305    -15389.87705      2115.67405        33.80005
R15  21766540.64025  14462871.70425      -828.11925        33.30025
E12  23653108.19725     25971.93725       938.65425        32.70025  23653108.49705    712740.56005       700.77205        35.30005
E07  27341503.97425     74739.32625      -945.89925        30.70025  27341522.56105    107866.11305      -706.82005        33.40005
E25  26296737.45004    -11330.36704      1527.00904        28.30004  26296728.45714    -17232.14814      1143.02614        26.60014
R01  20833409.03425   2389445.10625      3326.05725        30.80025
R17  22282098.82724 151037450.15524      3334.80824        26.40024
R07  23527654.34724  55771863.73924     -3834.65624        26.00024
R16  23516297.90924   -203172.17524      2714.79024        25.00024
E16  24760477.98114    121500.59314     -1048.12414        24.40014                                                                
R14  22887264.37923  -5589662.69723     -3802.78923        18.80023
> 2026 04 21 13 35 16.9999183  0 29                      
G10  22171792.59008    157991.59908     -2234.93608        48.80008  22171800.08506    185259.69206     -1669.05106        36.60006
G27  22255086.92706    220598.51606     -3212.70106        40.70006  22255090.82405    232704.78005     -2398.96305        35.30005
G02  20673845.09806    -28702.27506       688.15806        40.00006                                                                
G08  20460220.78706    105345.03006     -1416.49206        39.50006  20460228.58106    145302.47406     -1057.53706        39.00006
G23  24669068.56206    241622.84306     -3534.72206        39.80006  24669088.34804    946350.43104     -2639.69204        29.10004
G14  23655361.43724   -112724.16724      1865.20224        28.80024                                                                
G01  22080647.28923     87776.03623      2598.32623        23.20023  22080697.35413    608318.03613      1944.37613        19.60013
G22  24884568.97423     13820.81823      2405.66723        19.40023                                                                
G32  22899667.09306   -109136.77006      1943.52706        41.00006  22899663.79624    -15404.43724      1451.48824        28.40024
R08  20514319.83507   5150207.68207      -713.57207        42.50007
C33  22901762.94207     13803.38507        14.26807        43.10007  22901790.82306     63290.64406        10.72706        38.30006
R24  19467488.64107   3364558.79007       635.74007        42.10007
C28  21900348.20706    168787.51706     -1327.29506        40.10006  21900348.20705    119018.67705      -994.38205        29.90005
E33  24304728.39006    185825.08406     -1591.90406        40.90006  24304718.79605    164165.10505     -1188.75305        31.60005
C27  21677740.91506    -64106.91106      1112.66406        36.90006  21677746.91106     12868.56106       830.86106        37.40006
C42  25878637.29506    186722.21606     -2818.94106        37.40006  25878646.88814    199040.04714     -2105.72914        26.30014
R23  22095282.25706   3317857.88306     -3089.03106        36.00006
E29  26351063.74106    -16317.12806      1579.41006        36.20006  26351085.92605    340016.59705      1179.26705        33.00005
C41  23795542.59205   -165647.17705      2829.34705        33.00005  23795553.08405    -17503.97605      2113.71405        33.80005
R15  21766668.95225  14463702.67825      -831.86225        33.20025
E12  23652899.84105     25035.77205       933.80705        32.60005  23652903.73805    712041.31005       698.91705        35.30005
E07  27341652.07105     75688.22205      -949.89605        30.50005  27341676.95405    108574.72205      -709.08105        33.40005
E25  26296422.96804    -12855.69104      1523.18504        28.30004  26296412.775 4    -18372.979 4      1148.502 4        26.500 4
R01  20832764.18025   2386120.41725      3326.08125        30.40025
R17  22281460.56924 151034117.02224      3334.55524        26.40024
R16  23515764.87824   -205884.57624      2711.86624        25.20024
R07  23528295.60324  55775696.45624     -3831.10924        25.80024
E16  24760657.55614    122553.63014     -1050.99414        24.40014                                                                
R14  22887917.32723  -5585868.25423     -3797.71523        18.50023
> 2026 04 21 13 35 17.9999167  0 29                      
G10  22172233.58508    160227.61608     -2236.81008        48.80008  22172241.38006    186929.55806     -1670.49506        36.50006
G32  22899314.83706   -111079.13806      1941.53606        41.10006  22899308.54124    -16855.29924      1452.01324        29.00024
G27  22255714.09306    223811.99406     -3214.15606        40.60006  22255716.49105    235104.52405     -2400.32905        35.30005
G02  20673725.78006    -29389.20606       686.10006        40.00006                                                                
G08  20460513.38406    106762.55706     -1418.36106        39.60006  20460513.68406    146361.11006     -1059.36906        39.00006
G23  24669764.38006    245158.41006     -3536.20506        39.70006  24669777.27124    948990.95024     -2641.26124        29.10024
G14  23655018.47424   -114589.29324      1865.85824        28.90024                                                                
G22  24884141.47023     11417.04823      2401.96123        19.50023                                                                
R08  20514467.93207   5150922.68507      -716.06807        42.50007
C33  22901775.83307     13790.20307        12.31907        43.00007  22901803.71406     63280.84606         9.10506        38.30006
R24  19467388.21007   3363924.18307       633.78907        42.10007
C28  21900615.32206    170115.90406     -1329.12306        40.10006  21900615.92205    120010.87405      -991.56905        30.00005
E33  24305043.17206    187417.45806     -1592.91806        40.70006  24305036.87605    165354.33605     -1190.20605        31.60005
C27  21677538.55506    -65218.47206      1110.77806        36.90006  21677549.34806     12038.48406       829.50806        37.40006
C42  25879188.91306    189542.16206     -2820.69606        37.30006  25879197.30714    201146.55814     -2110.07714        26.20014
R23  22095871.94906   3320948.01806     -3090.86806        36.00006
E29  26350786.73306    -17895.67006      1577.84406        36.10006  26350801.42305    338837.93205      1177.61005        33.00005
C41  23795015.85605   -168476.79905      2829.07005        33.20005  23795029.94605    -19616.97505      2112.45205        33.80005
R15  21766842.83125  14464534.89525      -832.08925        33.10025
E12  23652743.05025     24100.56025       932.23725        32.60025  23652741.25105    711343.20705       697.53105        35.20005
E07  27341856.82905     76638.75505      -951.35305        30.40005  27341870.32005    109284.63105      -710.55905        33.40005
E25  26296157.05204    -14380.28904      1523.23804        28.30004  26296138.76524    -19510.39524      1133.21124        26.50024
R01  20832147.20725   2382798.97725      3322.31925        30.00025
R17  22280843.29624 151030788.65024      3329.24724        26.40024
R16  23515263.62524   -208595.83924      2711.94824        25.40024
R07  23529045.98324  55779538.35924     -3844.00224        25.70024
E16  24760872.20814    123609.09814     -1056.68514        24.40014  24760844.92712    639731.17612      -773.95712        15.80012
R14  22888605.95123  -5582071.95223     -3794.73723        18.30023
G01                                                                  22080220.68413    606390.42613      1931.61413        19.30013
> 2026 04 21 13 35 18.9999150  0 29                      
G10  22172661.38908    162466.97708     -2241.03708        48.80008  22172671.28206    188601.77906     -1673.40206        36.40006
G32  22898948.19106   -113018.05206      1937.19006        41.30006  22898942.49504    -18301.71404      1445.19504        29.10004
G27  22256327.46806    227028.72306     -3218.36106        40.60006  22256331.66505    237506.63005     -2403.29105        35.30005
G02  20673595.37106    -30072.96806       682.17806        40.00006                                                                
G08  20460786.79506    108183.61806     -1422.83106        39.70006  20460787.39506    147422.22106     -1062.34906        39.00006
G23  24670445.80906    248696.97706     -3540.07406        39.70006  24670450.006 5    951633.271 5     -2650.727 5        29.500 5
G14  23654658.72324   -116451.50924      1863.26524        29.00024                                                                
G22  24883657.60523      9008.11523      2405.02023        19.50023                                                                
R08  20514608.23507   5151641.57707      -720.83707        42.60007
C33  22901774.93407     13780.55207         7.88507        42.90007  22901804.91306     63273.67106         5.86206        38.30006
R24  19467270.99207   3363293.04007       629.41107        42.00007
C28  21900872.24506    171447.60106     -1333.35406        40.10006  21900871.04505    121005.27105      -995.49805        30.00005
E33  24305350.45906    189013.01906     -1597.15706        40.60006  24305343.86305    166545.80105     -1192.58305        31.50005
C27  21677339.19306    -66326.81106      1106.72906        36.90006  21677342.49106     11210.85706       826.40406        37.40006
C42  25879725.84206    192365.34006     -2824.80006        37.20006  25879737.23414    203254.86214     -2109.70314        26.20014
R23  22096448.45006   3324041.34106     -3094.92206        36.00006
E29  26350481.24406    -19470.74506      1573.34406        36.10006  26350503.72905    337661.66505      1175.07005        33.00005
C41  23794482.22605   -171303.02205      2824.52805        33.20005  23794495.71605    -21727.50805      2109.30305        33.80005
E12  23652563.47405     23168.72505       931.14805        32.50005  23652566.77205    710647.38505       694.68205        35.20005
R15  21766986.43225  14465371.42725      -839.69225        33.00025
E07  27342046.59805     77592.89405      -955.94405        30.30005  27342057.39005    109997.01405      -713.62205        33.40005
R01  20831534.13225   2379479.40125      3319.15025        29.70025
E25  26295871.05004    -15902.77904      1527.93804        28.30004  26295854.26224    -20646.20524      1126.00824        26.40024
R17  22280213.43224 151027460.36424      3329.24924        26.40024
R16  23514808.54024   -211304.57224      2708.47324        25.70024
R07  23529767.88424  55783376.08724     -3837.14724        25.60024
E16  24761084.761 4    124669.188 4     -1056.902 4        24.500 4  24761031.69712    640475.56412      -723.49312        15.70012
R14  22889370.42123  -5578276.98523     -3791.30523        18.30023
G01                                                                  22079714.63513    604461.41613      1926.21213        18.90013
> 2026 04 21 13 35 19.9999133  0 29                      
G10  22173072.40408    164707.66808     -2241.36008        48.80008  22173082.29706    190274.96506     -1673.67106        36.40006
G32  22898560.25906   -114955.58106      1936.84006        41.40006  22898559.96005    -19748.59705      1446.61905        29.50005
G27  22256924.05506    230246.65706     -3218.54106        40.50006  22256928.55205    239909.66005     -2403.49705        35.30005
G02  20673454.76806    -30755.37806       681.73506        40.00006                                                                
G08  20461041.01906    109606.07206     -1423.15406        39.70006  20461043.41706    148484.47706     -1062.83106        39.00006
G14  23654286.08124   -118312.80224      1862.83424        29.00024                                                                
G22  24883171.64223      6605.35923      2404.17123        19.40023                                                                
G23  24671100.25606    252236.54306     -3540.07006        39.60006  24671108.95005    954276.26805     -2640.84005        29.80005
R08  20514726.35307   5152362.37607      -721.75307        42.60007
C33  22901757.84607     13772.46607         7.30407        42.80007  22901788.42506     63267.58306         5.54606        38.20006
R24  19467137.58407   3362663.33607       628.98507        42.00007
C28  21901106.98206    172780.76706     -1333.90306        40.10006  21901110.28005    122000.69605      -995.94205        30.00005
E33  24305640.35806    190609.68906     -1597.22706        40.40006  24305631.36405    167738.15205     -1192.79705        31.50005
C27  21677121.54406    -67433.82906      1106.35906        37.00006  21677115.84806     10384.14006       826.26406        37.40006
C42  25880251.37806    195189.72506     -2824.99206        37.10006  25880257.67324    205363.59724     -2112.95524        26.10024
R23  22097020.75406   3327135.97506     -3095.29406        36.00006
E29  26350170.95906    -21044.57306      1573.20606        36.00006  26350187.74805    336486.40805      1174.75505        33.00005
C41  23793925.21105   -174128.16605      2824.61005        33.20005  23793942.89905    -23837.12305      2109.16005        34.10005
E12  23652377.60325     22238.25925       926.78425        32.40025  23652374.30505    709952.42605       694.53005        35.20005
R15  21767143.82325  14466210.86125      -847.38525        32.80025
E07  27342208.18605     78547.86405      -950.88705        30.20005  27342224.07505    110710.42505      -713.92605        33.40005
R01  20830900.67025   2376161.66725      3314.06925        29.50025
E25  26295559.56604    -17421.63304      1521.03804        28.30004  26295549.37324    -21780.37224      1127.34724        26.30024
R17  22279594.06124 151024134.29424      3326.46724        26.40024
R16  23514255.12324   -214011.23924      2705.13824        25.70024
R07  23530467.29924  55787216.46824     -3840.71524        25.60024
R14  22890081.82923  -5574480.44923     -3796.07723        19.10023
E16  24761270.632 4    125729.546 4     -1062.495 4        24.800 4                                                                
G01                                                                  22079215.18013    602516.87213      1943.81613        18.70013
> 2026 04 21 13 35 20.9999117  0 29                      
G10  22173495.41108    166948.43108     -2240.80308        48.80008  22173505.00506    191948.30006     -1673.41206        36.30006
G32  22898186.11907   -116892.95807      1937.30407        41.50007  22898186.41805    -21195.35505      1446.69905        29.50005
G27  22257535.03206    233464.62206     -3217.98506        40.50006  22257538.03005    242312.68205     -2403.02005        35.30005
G02  20673314.76506    -31437.83806       682.48506        40.00006                                                                
G08  20461309.33306    111028.74806     -1422.78906        39.90006  20461309.63306    149546.93506     -1062.56006        39.00006
G23  24671763.99606    255775.88706     -3539.23906        39.60006  24671782.58305    956919.33405     -2643.10505        30.00005
G14  23653926.63024   -120174.00024      1857.90424        29.00024                                                                
G22  24882706.66423      4205.61223      2401.99623        19.40023                                                                
R08  20514861.56007   5153083.66107      -721.53007        42.60007
C33  22901750.65107     13764.67307         7.64607        42.70007  22901782.42906     63261.74206         5.71606        38.20006
R24  19467014.06907   3362033.76907       629.50107        41.90007
C28  21901356.11006    174113.75906     -1332.90706        40.00006  21901360.90605    122996.14905      -995.46705        30.00005
E33  24305936.25306    192206.12606     -1596.32406        40.30006  24305931.45705    168930.30505     -1192.05505        31.40005
C27  21676902.69506    -68540.85306      1107.02906        37.00006  21676901.79606      9557.47506       826.64106        37.40006
C42  25880782.91006    198014.14306     -2824.43906        37.00006  25880790.10514    207473.44914     -2113.41414        26.00014
E29  26349873.26506    -22618.34406      1573.74506        36.00006  26349886.15605    335311.21605      1175.16105        33.00005
R23  22097600.25306   3330230.34606     -3094.24506        35.90006
C41  23793391.28105   -176953.10905      2824.84705        33.30005  23793402.07305    -25946.67605      2109.52505        34.20005
E12  23652193.23005     21307.51405       931.88505        32.30005  23652193.53005    709257.47805       694.94305        35.20005
R15  21767309.90825  14467049.46225      -835.18825        32.60025
E07  27342387.16205     79503.57805      -957.58705        30.20005  27342400.95305    111423.88005      -713.47805        33.30005
R01  20830273.50524   2372844.60124      3315.23624        29.40024
E25  26295284.35614    -18942.19214      1514.91414        28.20014  26295253.77824    -22914.13524      1129.06424        26.20024
R17  22278960.30024 151020809.45024      3324.23724        26.30024
R16  23513733.78424   -216717.37724      2705.12824        25.70024
E16  24761473.292 4    126791.046 4     -1066.572 4        25.200 4                                                                
R07  23531169.41324  55791062.84124     -3847.37424        25.50024
R14  22890819.61823  -5570683.69023     -3797.62623        19.80023
G01                                                                  22078724.42013    600576.56113      1939.69713        18.60013
> 2026 04 21 13 35 21.9999101  0 29                      
G10  22173937.00608    169191.43508     -2244.12808        48.90008  22173946.59906    193623.19606     -1675.67806        36.30006
G32  22897835.96107   -118828.00707      1933.88807        41.60007  22897833.86224    -22640.79424      1444.78124        29.40024
G27  22258163.69706    236684.74506     -3221.20706        40.40006  22258166.39505    244717.31105     -2405.43705        35.20005
G08  20461596.83406    112453.91306     -1426.41106        40.00006  20461595.63506    150611.10306     -1065.02506        38.90006
G02  20673200.54406    -32118.09306       679.15406        40.00006                                                                
G23  24672452.91906    259317.11306     -3542.17306        39.60006  24672473.90505    959563.74805     -2645.09205        30.00005
G14  23653572.27624   -122029.30924      1853.11724        29.00024                                                                
G22  24882286.35423      1811.35423      2397.51723        19.40023                                                                
R08  20515009.95707   5153807.85407      -725.64807        42.70007
C33  22901766.54007     13759.27207         4.20507        42.60007  22901797.41806     63257.69906         3.14406        38.10006
R24  19466921.73307   3361406.58907       625.98607        41.90007
C28  21901622.92506    175448.97906     -1336.33506        40.00006  21901630.71905    123993.21105      -997.86905        29.90005
E33  24306263.02706    193804.68806     -1599.62606        40.10006  24306249.53605    170123.95905     -1194.40705        31.40005
C27  21676706.93106    -69645.70906      1103.77406        37.10006  21676706.93106      8732.36406       824.33406        37.40006
C42  25881343.52206    200840.62506     -2827.51906        36.90006  25881344.72114    209583.07214     -2114.01214        26.00014
E29  26349589.66206    -24190.10906      1569.26506        35.90006  26349602.55305    334137.72205      1172.64705        33.10005
R01  20829673.92025   2369529.55025      3314.80025        34.90025
R23  22098175.55406   3333326.82606     -3097.53906        35.90006
C41  23792869.34205   -179775.88905      2821.70305        33.50005  23792879.53505    -28054.68005      2107.23305        34.20005
E12  23652038.53705     20378.91705       927.52505        32.30005  23652031.64205    708563.93205       692.84505        35.20005
R15  21767472.09625  14467891.35025      -843.03225        32.50025
E07  27342588.62305     80461.25805      -958.66505        30.60005  27342599.71505    112139.02405      -715.99105        33.30005
E25  26295010.64614    -20458.66414      1512.93114        28.20014  26294978.26824    -24046.60424      1131.32324        26.20024
R17  22278373.90624 151017485.31824      3323.53124        26.30024
R16  23513232.23124   -219420.21424      2702.94124        25.80024
E16  24761681.947 4    127854.665 4     -1064.680 4        25.400 4                                                                
R07  23531915.29724  55794908.77724     -3847.97424        25.40024
R14  22891501.64623  -5566891.34923     -3795.38823        20.20023
G01                                                                  22078242.05413    598623.14013      1961.98013        18.50013
> 2026 04 21 13 35 22.9999085  0 29                      
G10  22174379.20008    171432.78208     -2240.52108        48.90008  22174388.19306    195296.99106     -1673.24806        36.20006
G32  22897482.20607   -120764.59707      1937.36407        41.80007  22897480.107 5    -24085.744 5      1450.707 5        29.500 5
G08  20461880.43806    113877.54806     -1422.87306        40.20006  20461881.93706    151674.18906     -1062.54606        38.90006
G27  22258785.76606    239903.17406     -3217.58906        40.40006  22258793.26105    247120.66705     -2402.72505        35.20005
G02  20673078.22906    -32799.96706       682.68506        40.00006                                                                
G23  24673141.84206    262856.53906     -3538.53006        39.60006  24673158.93005    962206.82905     -2642.41805        30.10005
G14  23653225.71524   -123887.09824      1854.53224        28.90024                                                                
G01  22077767.78224    276331.46424      2605.27824        24.10024  22077747.99613    596677.29813      1949.05513        18.40013
G22  24881833.96823      -579.01523      2392.67923        19.50023                                                                
R08  20515160.15307   5154530.73007      -722.21907        42.70007
C33  22901784.52707     13752.43507         7.55607        42.50007  22901809.71006     63252.62906         5.58406        38.10006
R24  19466814.70807   3360777.74107       629.68407        41.80007
C28  21901888.54106    176782.52906     -1332.71806        39.90006  21901897.83505    124988.11805      -995.33105        29.90005
E33  24306572.41306    195401.32106     -1595.67106        40.00006  24306568.21605    171316.26005     -1191.62605        31.40005
C27  21676513.26506    -70752.38806      1107.59206        37.30006  21676511.46606      7906.06206       826.89906        37.40006
C42  25881887.64506    203665.49706     -2824.07206        36.80006  25881896.93814    211693.58014     -2119.45414        25.90014
E29  26349297.66426    -25762.95426      1573.88926        35.90026  26349317.45005    332963.00505      1175.33105        33.20005
R23  22098778.73706   3336421.59106     -3093.91206        35.80006
R01  20829068.339 5   2366213.253 5      3316.925 5        34.900 5
C41  23792344.10605   -182600.47305      2825.49005        33.50005  23792356.09805    -30163.85205      2109.75805        34.20005
E12  23651876.94905     19448.47405       931.36605        32.30005  23651869.75405    707869.22305       695.29305        35.20005
R15  21767646.27525  14468731.93825      -839.44025        32.30025
E07  27342783.18805     81417.50005      -955.52405        31.00005  27342794.88005    112853.14105      -713.60405        33.20005
E25  26294720.74714    -21974.34014      1507.28014        28.10014  26294707.25624    -25179.65624      1132.84524        26.10024
R17  22277732.35024 151014159.06024      3325.82724        26.40024
R07  23532648.58924  55798754.29224     -3847.06024        25.60024
R16  23512774.44824   -222120.66024      2697.25524        25.80024
E16  24761892.70114    128915.64014     -1060.65614        25.40014                                                                
R14  22892242.13323  -5563101.36523     -3790.81323        20.60023
> 2026 04 21 13 35 23.9999069  0 29                      
G10  22174804.00608    173671.97508     -2238.12008        48.90008  22174810.60106    196969.12106     -1671.29906        36.20006
G32  22897110.46307   -122703.26607      1939.71307        41.90007  22897107.76505    -25534.26305      1446.80605        29.50005
G08  20462145.15506    115299.25206     -1420.74106        40.30006  20462148.15306    152735.83206     -1060.92406        38.90006
G27  22259393.14606    243119.39506     -3215.12106        40.30006  22259401.84005    249522.39505     -2400.91605        35.10005
G02  20672947.51906    -33484.02606       685.15206        40.00006                                                                
G23  24673809.78006    266393.42906     -3535.62906        39.60006  24673824.76925    964849.04325     -2634.28525        30.10025
G01  22077245.84424    273728.60424      2603.32624        24.40024  22077248.54213    594726.32413      1946.54413        19.00013
G22  24881377.98323     -2972.55823      2392.13323        19.50023                                                                
G14  23652873.75924   -125747.69924      1862.01124        28.90024                                                                
R08  20515293.56107   5155252.01707      -720.49407        42.80007
C33  22901773.73507     13743.67107         9.72707        42.50007  22901805.21306     63246.09306         7.26906        38.00006
R24  19466686.69607   3360146.86607       631.88907        41.80007
E33  24306879.70006    196995.57106     -1593.06306        39.90006  24306868.00805    172506.83105     -1189.70705        31.30005
C28  21902144.86406    178113.76906     -1330.08806        39.80006  21902149.36005    125982.16805      -993.12205        29.80005
C27  21676292.61806    -71861.05806      1109.66706        37.30006  21676295.91506      7078.08106       828.82306        37.40006
C42  25882420.07606    206488.04406     -2821.38906        36.70006  25882431.16914    213802.73314     -2116.97914        25.80014
E29  26348993.97406    -27338.14506      1576.36606        35.80006  26349014.36005    331786.61605      1177.22705        33.20005
R23  22099358.23606   3339513.74606     -3090.85506        35.70006
R01  20828440.574 5   2362894.913 5      3319.366 5        34.900 5
C41  23791803.88005   -185427.13705      2827.70805        33.80005  23791814.67205    -32274.63805      2111.59705        34.20005
E12  23651685.68205     18515.77605       933.82805        32.20005  23651687.78005    707172.69305       697.44005        35.10005
E07  27342955.86805     82371.66605      -953.13005        31.40005  27342972.65705    113565.64505      -711.69905        33.10005
R15  21767788.67625  14469569.86825      -836.10325        32.20025
E25  26294429.64814    -23494.15614      1512.88914        27.90014  26294414.35924    -26314.70224      1135.04524        26.00024
R17  22277123.77124 151010829.06224      3333.12324        26.60024
R07  23533366.59224  55802597.54824     -3839.88224        26.10024
R16  23512240.81724   -224825.28924      2702.72524        25.80024
E16  24762094.16214    129974.57214     -1055.91114        25.40014                                                                
R14  22892919.66423  -5559311.91623     -3790.93723        20.60023
> 2026 04 21 13 35 24.9999052  0 29                      
G10  22175215.32108    175913.38108     -2242.51608        48.90008  22175222.81606    198642.85306     -1674.53706        36.20006
G32  22896729.12707   -124639.65707      1935.25507        41.90007  22896723.43104    -26980.25004      1445.22304        29.40004
G08  20462401.77706    116723.17906     -1425.04006        40.30006  20462404.17506    153799.17606     -1064.19506        38.80006
G27  22259989.73306    246337.71206     -3219.37106        40.30006  22259999.62605    251925.63805     -2404.00605        35.10005
G02  20672807.81606    -34166.01106       680.94906        39.90006                                                                
G23  24674467.82406    269932.21606     -3539.74206        39.60006  24674481.91505    967491.63305     -2642.28305        30.10005
G01  22076741.89324    271125.92524      2601.18424        24.40024  22076743.09213    592789.02113      1943.97113        19.10013
G22  24880915.40423     -5361.57623      2389.26123        19.50023                                                                
G14  23652512.80924   -127608.54324      1860.71824        28.80024                                                                
R08  20515413.47807   5155976.11507      -725.50407        42.80007
C33  22901752.74907     13737.33007         5.12907        42.40007  22901788.72406     63241.29906         3.92306        38.00006
R24  19466558.08507   3359518.17507       627.60007        41.80007
E33  24307169.60006    198591.76006     -1597.16006        39.80006  24307157.00805    173698.75705     -1192.60605        31.30005
C28  21902386.49606    179447.28406     -1334.65506        39.70006  21902387.69505    126978.89705      -996.57105        29.70005
C27  21676069.57206    -72967.69606      1105.62406        37.30006  21676070.77106      6251.64406       825.66606        37.40006
C42  25882945.01306    209312.75406     -2825.79606        36.60006  25882956.70514    215914.41414     -2119.44814        25.70014
E29  26348675.29506    -28911.18606      1571.96906        35.80006  26348700.17705    330611.91105      1173.86505        33.20005
R23  22099909.25406   3342608.79906     -3095.75806        35.50006
R01  20827813.10805   2359579.08305      3314.58205        34.80005
C41  23791248.96405   -188251.77805      2823.63405        34.00005  23791261.55505    -34383.94705      2108.57405        34.20005
E12  23651493.81405     17585.02505       929.77905        32.20005  23651496.81205    706477.66005       694.28605        35.10005
E07  27343126.45005     83327.98505      -957.39605        31.60005  27343140.54105    114279.78305      -714.95605        33.10005
R15  21767938.57325  14470413.53025      -848.27925        32.10025
R17  22276526.58424 151007502.81524      3323.37724        27.00024
E25  26294150.24114    -25012.98914      1517.84414        27.80014  26294108.87024    -27449.17024      1133.18124        26.00024
R07  23534083.39624  55806442.85524     -3844.59024        26.50024
R16  23511719.17824   -227529.47024      2705.46124        26.10024
E16  24762268.64114    131035.08214     -1054.30114        25.40014                                                                
R14  22893642.16423  -5555523.72423     -3788.07023        20.60023
> 2026 04 21 13 35 25.9999036  0 29                      
G10  22175637.72808    178153.15408     -2238.96008        48.90008  22175645.52306    200315.43906     -1672.01606        36.10006
G32  22896353.78707   -126577.53207      1938.62007        42.00007  22896351.38924    -28428.60524      1448.04324        29.40024
G08  20462671.89006    118145.67506     -1421.78406        40.40006  20462671.59006    154861.48406     -1061.79206        38.80006
G27  22260601.90906    249554.28406     -3215.70506        40.30006  22260607.90505    254327.63105     -2401.37105        35.00005
G23  24675139.06006    273469.14106     -3535.99806        39.60006  24675155.24805    970132.77505     -2641.42205        30.50005
G02  20672675.00806    -34849.60706       684.40206        39.90006                                                                
G14  23652165.94924   -129469.25724      1858.65224        28.80024                                                                
G01  22076249.63324    268528.15724      2599.81624        24.30024  22076244.53713    590841.61113      1946.96713        19.60013
G22  24880441.73223     -7746.63523      2385.33223        19.40023                                                                
R08  20515543.58807   5156699.04607      -722.34907        42.90007
C33  22901747.35307     13729.54907         8.50207        42.40007  22901783.32806     63235.50806         6.28906        37.90006
R24  19466439.36707   3358887.94507       631.00107        41.70007
E33  24307463.99606    200186.24306     -1593.63406        39.70006  24307457.40005    174889.46605     -1190.10305        31.30005
C28  21902633.82506    180779.04506     -1330.88606        39.60006  21902638.32225    127973.54525      -994.10825        29.70025
C27  21675861.51606    -74075.99506      1109.13206        37.30006  21675856.42006      5423.99006       828.26306        37.50006
C42  25883475.34606    212135.78006     -2822.18906        36.60006  25883487.63714    218024.60514     -2120.95114        25.70014
E29  26348374.60306    -30485.92606      1575.59106        35.70006  26348397.08705    329436.06205      1176.42205        33.20005
C41  23790705.44005   -191077.78405      2826.69405        34.00005  23790720.73005    -36494.38405      2111.00505        34.20005
R01  20827185.04305   2356261.87505      3317.90105        34.60005
E12  23651316.33705     16652.79805       934.46605        32.20005  23651316.03805    705781.36505       696.92705        35.10005
E07  27343302.72805     84282.94905      -954.28905        31.70005  27343318.61705    114992.83805      -712.51405        33.10005
R15  21768077.67625  14471254.52525      -842.91325        31.90025
R23  22100482.75725   3345701.66425     -3089.77525        35.00025
R17  22275909.31224 151004175.16924      3327.85224        27.30024
R07  23534795.10324  55810287.16224     -3845.31224        26.80024
E25  26293859.14314    -26534.07514      1520.71514        27.60014  26293817.47224    -28584.35724      1133.04824        25.90024
R16  23511198.43924   -230236.24524      2709.57624        26.40024
E16  24762459.30914    132092.46714     -1053.82314        25.30014  24762471.60113    592014.07713      -793.74913        21.00013
R14  22894375.45723  -5551733.20623     -3790.43623        20.80023
> 2026 04 21 13 35 26.9999020  0 29                      
G10  22176059.53608    180391.93608     -2238.28908        48.90008  22176068.53006    201987.29106     -1671.48606        36.10006
G08  20462935.70706    119567.30706     -1421.20206        40.50006  20462938.40506    155923.14906     -1061.34606        38.80006
G27  22261212.88606    252769.72406     -3214.87806        40.20006  22261216.78305    256728.86105     -2400.85305        35.00005
G23  24675803.99906    277004.63006     -3534.77706        39.70006  24675821.38705    972773.04705     -2639.84205        30.50005
G02  20672537.40306    -35534.21506       685.11506        39.80006                                                                
G14  23651816.69124   -131328.78324      1858.18424        28.70024                                                                
G01  22075729.19424    265927.94324      2600.94124        24.20024  22075745.68213    588886.00413      1952.70813        19.60013
G22  24879979.45223    -10135.95023      2386.69723        19.30023                                                                
G32  22895982.04407   -128516.37807      1939.33407        42.10007  22895980.54504    -29876.19004      1447.70204        29.40004
R08  20515673.39807   5157421.41007      -722.08207        43.00007
C33  22901746.45407     13720.95107         9.00507        42.30007  22901778.83106     63229.12906         6.67406        37.90006
R24  19466316.75207   3358256.73507       631.70007        41.70007
E33  24307768.28506    201779.32906     -1592.38906        39.60006  24307756.89305    176079.14105     -1189.15805        31.20005
C28  21902880.25406    182109.79106     -1330.24106        39.50006  21902887.74905    128967.20905      -993.17305        29.70005
C27  21675645.36606    -75185.45206      1110.03706        37.20006  21675641.76806      4595.59906       828.76206        37.50006
C42  25884016.77106    214957.55806     -2821.15706        36.50006  25884025.76514    220137.37714     -2121.06514        25.60014
E29  26348071.81206    -32061.57106      1576.10006        35.70006  26348093.99705    328259.40705      1177.06005        33.20005
C41  23790162.51605   -193905.17305      2828.08405        34.30005  23790178.40505    -38605.66805      2111.71005        34.20005
R01  20826561.17505   2352943.61005      3318.80005        34.50005
E12  23651135.56225     15718.84225       934.32225        32.10025  23651133.76405    705084.17605       697.63705        35.10005
E07  27343484.70205     85236.72205      -953.17805        31.90005  27343495.49505    115705.20205      -712.02005        33.00005
R15  21768236.26725  14472093.88525      -838.04425        31.80025
R23  22101055.36125   3348792.01025     -3090.59225        34.20025
R17  22275265.05824 151000845.02624      3330.89624        27.40024
R07  23535513.70624  55814129.67324     -3841.37024        27.10024
R16  23510714.57424   -232945.36924      2712.80424        26.50024
E25  26293544.06114    -28056.65314      1524.32714        27.40014  26293526.07414    -29719.86914      1133.67614        25.90014
E16  24762679.95614    133152.44714     -1055.28114        25.10014  24762667.36523    592806.46623      -791.87723        23.00023
R14  22894993.92823  -5547938.64323     -3791.59223        21.00023
> 2026 04 21 13 35 27.9999005  0 29                      
G10  22176493.93608    182632.84008     -2241.97008        48.80008  22176503.52906    203660.65006     -1674.11606        36.00006
G32  22895622.59307   -130453.02107      1935.54507        42.20007  22895618.69604    -31322.24004      1445.28304        29.40004
G23  24676489.92406    280542.06106     -3538.40806        39.80006  24676501.01705    975414.59305     -2642.18605        30.50005
G27  22261826.56106    255987.26706     -3218.60006        40.20006  22261835.25505    259131.55205     -2403.42505        35.00005
G02  20672412.39006    -36216.81906       681.60406        39.70006                                                                
G14  23651461.73724   -133185.87024      1854.87024        28.70024                                                                
G01  22075211.15224    263326.79424      2596.87024        24.00024  22075253.72313    586943.48413      1948.98113        19.60013
G22  24879514.17423    -12516.25923      2380.81123        19.30023                                                                
G08  20463219.01106    120991.24606     -1425.09406        40.60006  20463217.21206    156986.44106     -1064.10706        38.80006
R08  20515819.99607   5158146.46807      -726.40607        43.00007
C33  22901754.24807     13714.73207         5.03107        42.20007  22901785.12706     63224.47106         3.79606        37.80006
R24  19466210.32607   3357627.84907       627.72507        41.70007
E33  24308083.36706    203374.40306     -1596.07006        39.50006  24308068.37705    177270.25905     -1191.84205        31.20005
C28  21903149.46806    183442.54206     -1333.75406        39.40006  21903149.76805    129962.50605      -996.11505        30.00005
C27  21675441.20706    -76292.84306      1106.36006        37.20006  21675439.10906      3768.62806       826.26106        37.50006
C42  25884565.09106    217781.41006     -2824.89406        36.50006  25884567.19014    222245.58014     -2115.42214        25.50014
E29  26347768.42206    -33635.14106      1572.53506        35.60006  26347802.89905    327084.36305      1174.24205        33.20005
C41  23789632.18305   -196730.39005      2824.13605        34.40005  23789649.57105    -40715.37005      2108.91505        34.10005
R01  20825936.40705   2349627.32605      3314.54705        34.40005
R07  23536248.19725  55817974.24925     -3845.61425        31.40025
E07  27343670.27405     86192.90405      -957.38805        32.10005  27343686.46305    116419.11705      -714.69205        33.00005
E12  23650963.18205     14787.23005       930.44205        32.10005  23650964.98105    704388.46505       694.97405        35.00005
R15  21768388.26125  14472936.09225      -842.63225        31.60025
R23  22101656.14525   3351885.39625     -3093.91125        33.60025
R17  22274646.88624 150997516.44024      3328.81324        27.60024
R16  23510219.31724   -235650.28724      2699.56724        27.00024
E25  26293242.17014    -29578.53414      1524.53414        27.20014  26293243.36924    -30853.70624      1134.00224        25.80024
E16  24762888.01214    134215.24114     -1065.20114        25.00014  24762874.52213    593598.67713      -792.21213        22.90013
R14  22895749.70523  -5544146.09923     -3794.04023        21.30023
> 2026 04 21 13 35 28.9998989  0 29                      
G10  22176917.84208    184874.56308     -2242.13508        48.80008  22176924.43806    205334.66106     -1674.34006        36.00006
G32  22895249.05207   -132388.72507      1935.23707        42.20007  22895246.35424    -32767.70424      1454.17524        29.30024
G08  20463487.62506    122416.21006     -1425.47906        40.70006  20463485.22706    158050.48706     -1064.42506        38.80006
G27  22262438.43706    259205.58006     -3218.70206        40.10006  22262445.33305    261534.83005     -2403.57505        35.00005
G02  20672285.87706    -36898.64206       681.43306        39.60006                                                                
G14  23651098.68824   -135044.63724      1860.11124        28.60024                                                                
G01  22074702.10524    260722.13324      2604.17124        23.90024  22074749.17213    584996.05813      1946.38113        19.50013
G22  24879071.98023    -14896.84823      2376.48223        19.20023                                                                
G23  24677161.16006    284079.98906     -3538.18206        40.00006  24677175.55005    978056.49905     -2642.09005        30.40005
R08  20515951.30507   5158872.86007      -727.06107        43.00007
C33  22901747.35307     13709.47007         4.78307        42.20007  22901779.73106     63220.55806         3.54106        37.80006
R24  19466084.71307   3356999.79907       627.63407        41.70007
E33  24308375.66506    204969.99906     -1595.86006        39.50006  24308368.47005    178461.78505     -1191.73205        31.20005
C28  21903393.49906    184776.03306     -1333.86406        39.30006  21903399.49505    130958.26605      -995.99405        30.10005
C27  21675224.15706    -77399.43106      1106.18906        37.20006  21675225.35706      2942.31706       825.98306        37.50006
C42  25885093.92506    220606.04706     -2825.03406        36.40006  25885102.02014    224354.55514     -2109.36314        25.40014
E29  26347473.12706    -35207.99306      1572.49606        35.50006  26347500.10805    325909.86005      1174.23305        33.40005
C41  23789092.85705   -199554.73605      2823.91505        34.50005  23789108.74605    -42824.49305      2108.83705        34.10005
R01  20825327.22905   2346313.17505      3314.09005        34.20005
E07  27343848.35105     87149.80205      -957.25805        32.30005  27343864.83905    117133.78505      -715.04605        33.00005
E12  23650791.10105     13856.14505       930.82305        32.20005  23650784.80505    703693.21005       695.02805        35.00005
R07  23536964.40225  55821819.67125     -3845.85125        31.60025
R15  21768597.51625  14473779.78125      -840.18125        31.40025
R23  22102229.64825   3354978.75625     -3094.35125        33.00025
R17  22274046.10224 150994188.47624      3330.40724        27.70024
R16  23509675.79324   -238353.57124      2702.47324        27.50024
E16  24763081.97814    135279.98314     -1066.21814        24.90014  24763077.78113    594393.48613      -793.10913        22.80013
R14  22896460.81323  -5540352.00623     -3793.87423        21.40023
E25  26292958.26714    -31096.90114      1521.61314        27.00014  26292950.77214    -31988.76114      1131.16614        25.80014
> 2026 04 21 13 35 29.9998973  0 28                      
G10  22177342.34808    187116.75808     -2242.43508        48.80008  22177345.94606    207009.04006     -1674.56506        35.90006
G32  22894879.70707   -134323.88607      1934.89307        42.10007  22894873.41214    -34213.74014      1449.32314        29.20014
G08  20463754.44006    123841.83006     -1425.95106        40.80006  20463753.84106    159115.06606     -1064.84706        38.70006
G23  24677830.89606    287618.08806     -3538.18906        40.20006  24677844.38705    980698.58505     -2642.18005        30.30005
G27  22263051.21306    262424.31806     -3218.95606        40.10006  22263054.21105    263938.42305     -2403.75405        35.00005
G02  20672149.47206    -37579.98306       681.10206        39.50006                                                                
G14  23650743.73424   -136902.65324      1856.89324        28.60024                                                                
G01  22074238.92524    258116.65224      2605.64624        23.80024  22074247.61913    583048.41613      1946.25313        19.50013
G22  24878616.59523    -17270.58323      2375.06223        19.10023                                                                
R08  20516084.71307   5159600.38307      -728.08907        43.10007
C33  22901749.15207     13704.96607         4.12607        42.10007  22901776.13306     63217.18406         3.10506        37.70006
R24  19465963.29707   3356372.41907       627.04607        41.70007
E33  24308682.95206    206566.04106     -1596.26706        39.40006  24308669.16105    179653.56705     -1191.91205        31.10005
C28  21903647.42306    186110.05506     -1334.28906        39.10006  21903649.22205    131954.42705      -996.36205        30.10005
C27  21675008.30706    -78505.66806      1106.06206        37.20006  21675011.60506      2116.27006       825.91606        37.60006
C42  25885625.75706    223431.06206     -2825.20706        36.40006  25885638.34824    226466.22524     -2111.52224        25.40024
C41  23788555.62905   -202378.66405      2823.72305        34.70005  23788568.52005    -44933.31505      2108.67505        34.10005
E29  26347175.43305    -36780.25505      1571.97005        35.40005  26347198.21705    324735.82805      1173.79905        33.50005
R01  20824707.55805   2342999.26205      3313.54805        34.10005
E12  23650603.43105     12925.52805       930.38405        32.30005  23650603.73105    702998.20205       694.88605        35.00005
E07  27344023.42905     88107.40705      -957.95905        32.30005  27344045.01405    117848.81805      -715.21505        32.90005
R07  23537672.81125  55825665.71025     -3847.10525        31.60025
R23  22102810.94525   3358074.63225     -3096.89025        32.50025
R17  22273435.42424 150990861.30124      3325.78624        27.80024
R16  23509168.84424   -241053.10924      2692.66824        27.60024
E25  26292674.36314    -32614.53714      1519.77314        26.70014  26292656.97524    -33121.84624      1130.60124        25.80024
E16  24763283.43914    136344.30614     -1070.11614        24.80014  24763278.04213    595184.65113      -788.84513        22.70013
R14  22897208.79523  -5536560.45223     -3795.04123        21.50023
> 2026 04 21 13 35 30.9998957  0 29                      
G10  22177765.65508    189359.69108     -2243.30608        48.80008  22177769.55306    208683.95806     -1675.19006        35.80006
G32  22894503.76807   -136258.22807      1933.93607        42.10007  22894501.96914    -35661.59014      1446.76114        29.00014
G08  20464023.05506    125268.26406     -1426.84306        41.00006  20464021.25606    160180.24806     -1065.48506        38.70006
G23  24678499.13306    291156.61106     -3538.74206        40.30006  24678516.82125    983340.98225     -2648.55625        30.20025
G27  22263660.39206    265643.71106     -3219.72506        40.00006  22263663.38905    266342.47205     -2404.28005        35.00005
G02  20672017.56306    -38260.66906       680.35906        39.40006                                                                
G14  23650401.37124   -138759.45124      1854.94224        28.50024                                                                
G01  22073739.17124    255516.28024      2604.32124        23.60024  22073762.25513    581113.24513      1935.44013        19.50013
G22  24878169.30523    -19646.72623      2372.35023        19.00023                                                                
R08  20516213.02407   5160328.97307      -729.12507        43.10007
C33  22901737.16007     13701.39307         3.10607        42.00007  22901772.23606     63214.50406         2.33306        37.70006
R24  19465841.88107   3355745.78707       626.25807        41.60007
E33  24308978.24706    208162.38606     -1596.49906        39.30006  24308969.55325    180845.73825     -1193.86725        31.00025
C28  21903894.75206    187444.65406     -1334.89006        39.00006  21903901.04805    132951.08905      -996.91405        30.10005
C27  21674793.35606    -79611.13406      1105.08306        37.20006  21674797.85306      1290.70906       825.32006        37.60006
C42  25886162.68506    226256.66506     -2825.90306        36.40006  25886170.48014    228574.85714     -2110.11614        25.40014
C41  23788015.10305   -205201.93405      2822.94505        34.90005  23788027.39405    -47041.57905      2107.98905        34.10005
E29  26346875.04105    -38351.76205      1571.13205        35.30005  26346895.12705    323562.26705      1173.32605        33.50005
R01  20824080.39205   2339686.37605      3312.37905        34.00005
E12  23650426.55305     11995.53605       929.68105        32.40005  23650423.85505    702303.64205       694.33705        34.90005
E07  27344197.30905     89065.75105      -958.71605        32.30005  27344221.89205    118564.43205      -715.90705        32.90005
R07  23538387.21725  55829512.19325     -3847.96025        31.50025
R23  22103375.15525   3361169.58725     -3093.74825        32.10025
R16  23508677.18424   -243753.94724      2703.99324        28.00024
R17  22272764.48924 150987533.07324      3330.26024        27.90024
E25  26292359.28114    -34131.04314      1515.94414        26.50014  26292367.97524    -34253.93724      1129.59624        25.70024
R15  21768901.50625  14475461.59325      -841.01225        29.90025
E16  24763460.91614    137409.99714     -1065.87514        24.80014  24763479.80313    595976.76513      -785.58813        22.50013
R14  22897914.20723  -5532768.86623     -3794.60823        22.00023
> 2026 04 21 13 35 31.9998942  0 29                      
G10  22178198.55608    191603.50808     -2244.26208        48.80008  22178206.65006    210359.50406     -1675.86306        35.80006
G32  22894143.41707   -138191.53607      1932.79407        42.00007  22894139.82014    -37105.16814      1441.44314        28.70014
G08  20464304.26006    126695.75806     -1428.02506        41.10006  20464301.26206    161246.22206     -1066.37206        38.70006
G23  24679177.26406    294695.72006     -3539.40606        40.30006  24679189.85505    985983.85205     -2645.61205        30.00005
G02  20671894.04806    -38940.35406       679.18506        39.40006                                                                
G14  23650032.32624   -140615.31324      1853.64724        28.50024                                                                
G01  22073264.90024    252912.84324      2601.47424        23.50024  22073280.18913    579178.01713      1930.25813        19.50013
G22  24877703.42723    -22019.57123      2370.20023        18.90023                                                                
G27  22264279.16306    268863.87706     -3220.55706        40.00006  22264284.85905    268747.14005     -2404.98205        35.00005
R08  20516356.92507   5161059.11507      -730.91907        43.10007
C33  22901748.55207     13698.86707         2.00407        41.90007  22901780.03006     63212.61306         1.49606        37.60006
R24  19465730.35807   3355120.04407       625.30107        41.60007
E33  24309293.03006    209759.55306     -1597.58006        39.20006  24309282.83705    182038.27105     -1193.71605        30.90005
C28  21904159.16906    188780.11306     -1335.89206        38.90006  21904161.86705    133948.37005      -997.59205        30.20005
C27  21674589.79706    -80715.83006      1104.31206        37.10006  21674595.49306       465.76206       824.64106        37.60006
C42  25886712.20506    229083.26206     -2827.09806        36.30006  25886714.30314    230684.46914     -2109.10514        25.30014
C41  23787489.56705   -208024.41705      2822.09305        35.00005  23787497.36105    -49149.24105      2107.36305        34.10005
E29  26346582.74305    -39922.36205      1570.14805        35.20005  26346604.92805    322389.36205      1172.57905        33.50005
R01  20823461.02105   2336374.58105      3311.25405        33.80005
E12  23650249.37605     11066.17405       929.04805        32.40005  23650254.47205    701609.57405       693.82205        34.90005
E07  27344394.27305     90025.17705      -959.96805        32.20005  27344413.75905    119280.79705      -716.74105        32.90005
R07  23539123.80725  55833359.96125     -3846.41625        31.70025
R23  22103948.95725   3364265.00025     -3092.14825        31.70025
R16  23508174.73224   -246453.85624      2699.19924        28.40024
R17  22272144.21824 150984205.10224      3328.84824        27.90024
R15  21769043.90724  14476305.31924      -843.36024        29.00024
E25  26292073.57914    -35634.59814      1511.58214        26.20014  26292088.56924    -35385.85224      1131.32824        25.70024
E16  24763706.14614    138470.51114     -1061.92814        24.70014  24763688.15813    596771.63513      -795.75013        22.30013
R14  22898626.51423  -5528976.10523     -3791.85523        22.30023
> 2026 04 21 13 35 32.9998926  0 29                      
G10  22178622.16208    193846.31808     -2242.31108        48.80008  22178630.55606    212034.33806     -1674.48006        35.60006
G08  20464568.97706    128122.37706     -1426.18406        41.20006  20464568.37706    162311.60506     -1065.08906        38.60006
G32  22893772.27407   -140125.84707      1934.81607        41.90007  22893769.87614    -38552.36114      1446.00414        28.40014
G23  24679847.00006    298233.53306     -3537.17206        40.30006  24679864.98805    988625.76605     -2639.94005        29.90005
G27  22264887.74206    272082.87906     -3218.42506        40.00006  22264894.93705    271151.00305     -2403.46305        35.20005
G02  20671759.14206    -39621.41906       681.75706        39.30006                                                                
G22  24877229.15623    -24393.21523      2369.54823        18.70023                                                                
G14  23649676.47324   -142471.65424      1855.08424        28.60024                                                                
R08  20516491.23207   5161788.67107      -729.26507        43.10007
C33  22901740.45807     13695.60107         3.63507        41.80007  22901775.83306     63210.20306         2.67006        37.50006
R24  19465612.84007   3354493.49607       626.95107        41.60007
E33  24309591.62306    211355.30606     -1595.04806        39.20006  24309582.62905    183230.06605     -1190.92805        30.80005
C28  21904406.79806    190114.56906     -1333.95606        38.80006  21904412.49405    134944.85205      -996.08505        30.40005
C27  21674372.44706    -81821.55506      1106.24106        37.10006  21674382.04006      -359.93706       826.07606        37.60006
C42  25887247.33406    231908.56706     -2824.66306        36.30006  25887249.43314    232795.17314     -2112.75414        25.30014
C41  23786949.04105   -210847.86205      2823.93105        35.10005  23786956.53605    -51257.66505      2108.80905        34.10005
E29  26346283.85005    -41494.04305      1572.22405        35.10005  26346302.73705    321215.79505      1173.90005        33.50005
R01  20822838.05205   2333061.70305      3313.42405        33.70005
E12  23650069.20105     10135.54105       931.26905        32.40005  23650074.59705    700914.76205       695.18605        34.90005
R07  23539830.41725  55837206.66025     -3847.42125        32.00025
E07  27344576.54605     90983.04105      -957.08505        32.20005  27344590.93705    119996.47005      -715.32805        32.80005
R23  22104544.34525   3367360.13825     -3098.50525        31.40025
R16  23507672.28024   -249154.32724      2699.25524        28.60024
R17  22271537.73824 150980878.99124      3321.68624        27.90024
R15  21769176.71524  14477154.06124      -850.25224        28.30024
E25  26291816.05714    -37146.04514      1507.39514        26.00014  26291795.97124    -36518.15524      1130.00024        25.60024
E16  24763867.73414    139535.38114     -1061.04914        24.60014  24763886.92113    597563.57913      -798.98313        22.20013
R14  22899383.49023  -5525185.53323     -3793.23323        22.60023
G01                                                                  22072767.24413    577233.48813      1936.68313        19.40013
> 2026 04 21 13 35 33.9998911  0 29                      
G10  22179056.86108    196091.08008     -2245.74108        48.80008  22179065.55506    213710.64406     -1677.04406        35.50006
G08  20464852.28006    129551.07706     -1429.74306        41.30006  20464848.98306    163378.43406     -1067.55306        38.60006
G32  22893405.02807   -142058.14807      1931.29807        41.80007  22893411.92404    -39994.58504      1442.24104        28.10004
G23  24680531.42706    301772.90006     -3540.14806        40.40006  24680546.71605    991268.78505     -2643.57505        29.80005
G27  22265510.41106    275303.79106     -3221.87106        39.90006  22265516.10705    273556.18805     -2405.85105        35.40005
G02  20671638.62506    -40300.31506       678.56306        39.20006                                                                
G01  22072248.60323    247716.64923      2598.81523        22.30023                                                                
G22  24876775.27023    -26769.04423      2370.42423        18.60023                                                                
G14  23649334.70924   -144328.42524      1862.23824        28.60024                                                                
R08  20516638.43007   5162520.68707      -733.24707        43.10007
C33  22901748.25207     13694.36107         0.22707        41.80007  22901783.32806     63209.29806         0.15306        37.40006
R24  19465505.21407   3353868.77907       623.80207        41.50007
E33  24309899.21006    212952.86706     -1598.46806        39.10006  24309894.41325    184423.31625     -1193.97925        30.60025
C28  21904675.11206    191450.91506     -1337.29306        38.70006  21904673.01305    135942.69405      -998.52305        30.60005
C27  21674172.18606    -82925.41806      1102.93306        37.10006  21674179.98006     -1184.28306       823.67006        37.60006
C42  25887796.55406    234735.67106     -2828.00706        36.20006  25887796.55424    234906.11324     -2113.56224        25.30024
C41  23786419.00805   -213669.55505      2820.82105        35.20005  23786428.00105    -53364.74305      2106.40805        34.10005
E29  26345982.55905    -43063.71605      1568.67305        35.00005  26346011.93805    320043.54405      1171.59405        33.50005
R01  20822239.66605   2329751.23105      3309.27405        33.60005
E12  23649901.61705      9206.82005       929.26805        32.40005  23649905.81405    700221.15105       693.01105        34.80005
R07  23540556.81525  55841055.22825     -3849.25725        32.10025
E07  27344763.31725     91943.60625      -960.41725        32.10025  27344782.80405    120713.57605      -717.82405        32.80005
R23  22105141.23225   3370452.93625     -3089.38325        31.10025
R16  23507162.63324   -251852.67224      2697.03724        28.90024
R17  22270885.09024 150977553.47524      3320.22424        27.90024
R15  21769331.40824  14477999.17724      -843.05424        27.80024
E16  24764082.38514    140596.64214     -1062.45814        24.40014  24764094.37713    598357.60113      -798.56213        22.20013
R14  22900080.80723  -5521390.27823     -3792.60223        22.70023
E25  26291513.26714    -38655.09314      1505.85014        25.70014  26291515.66524    -37649.00424      1132.62324        25.60024
> 2026 04 21 13 35 34.9998896  0 29                      
G10  22179493.95908    198337.35908     -2247.04108        48.70008  22179502.05305    215388.05205     -1677.96105        35.40005
G08  20465134.38507    130981.52207     -1431.32007        41.50007  20465129.28906    164446.65306     -1068.91606        38.50006
G32  22893049.47507   -143988.73807      1930.48807        41.60007  22893049.17524    -41436.59024      1439.89724        27.80024
G23  24681212.85506    305313.61906     -3541.40006        40.50006  24681225.14625    993912.81425     -2640.03825        29.80025
G27  22266126.48406    278526.22406     -3223.19906        39.90006  22266135.77806    275962.48906     -2406.86206        35.50006
G02  20671514.51106    -40977.81206       676.54806        39.10006                                                                
G01  22071762.64023    245120.33323      2596.75723        22.30023                                                                
G22  24876354.66123    -29138.82223      2370.25623        18.40023                                                                
G14  23648980.65424   -146181.93924      1850.38824        28.60024                                                                
R08  20516781.13107   5163254.81307      -735.18207        43.10007
C33  22901757.24607     13694.90807        -1.44107        41.70007  22901792.32206     63209.69906        -1.05506        37.30006
R24  19465402.08507   3353245.93907       621.90307        41.50007
E33  24310218.78906    214551.73906     -1599.53006        39.00006  24310206.79705    185616.96205     -1193.84505        30.50005
C28  21904938.62906    192788.62506     -1338.39406        38.60006  21904937.13005    136941.70805      -999.60105        30.90005
C27  21673966.82806    -84027.88806      1101.77706        37.20006  21673978.22006     -2007.51206       822.67206        37.70006
C42  25888336.48006    237564.29106     -2829.38206        36.20006  25888341.57714    237020.37014     -2114.91714        25.20014
C41  23785886.87605   -216489.55805      2819.16205        35.40005  23785899.16805    -55470.65005      2105.32505        34.00005
E29  26345698.95505    -44631.79805      1567.28705        35.00005  26345720.84005    318872.56905      1170.34005        33.60005
R01  20821619.69605   2326442.54005      3307.80505        33.50005
E12  23649737.93005      8279.45905       926.18105        32.40005  23649737.03105    699528.62405       691.98605        34.80005
R07  23541288.30825  55844905.29125     -3850.81725        32.10025
E07  27344951.58705     92905.45005      -965.98405        32.10005  27344974.07105    121431.94505      -719.00105        32.80005
R23  22105703.94325   3373550.27025     -3101.60625        30.90025
R16  23506681.76624   -254549.37724      2691.63924        29.10024
R17  22270293.59924 150974230.91124      3323.84224        27.90024
R15  21769529.87124  14478849.72524      -849.76624        27.20024
E16  24764283.54614    141661.91514     -1065.28114        24.30014  24764305.43123    599157.20923      -800.40223        22.20023
R14  22900776.02623  -5517592.24923     -3799.92223        22.80023
E25  26291217.07214    -40171.20514      1507.14714        25.40014  26291235.35924    -38778.71524      1131.64324        25.60024
> 2026 04 21 13 35 35.9998881  0 28                      
G10  22179910.67008    200584.84608     -2248.09508        48.70008  22179919.66405    217066.38405     -1678.79705        35.30005
G08  20465394.00507    132413.25307     -1432.37607        41.70007  20465390.70806    165515.80006     -1069.61306        38.40006
G32  22892675.93307   -145918.09007      1928.48607        41.50007  22892676.53304    -42876.94004      1440.02504        27.60004
G23  24681872.39806    308855.12306     -3541.90306        40.50006  24681889.48605    996557.41405     -2644.89005        29.90005
G27  22266736.86206    281749.66306     -3223.94606        40.00006  22266740.15906    278369.66806     -2407.62206        35.60006
G02  20671381.40306    -41654.28206       675.95706        39.00006                                                                
G14  23648635.89324   -148033.91424      1849.70924        28.60024                                                                
G22  24875863.00123    -31512.40623      2369.99023        18.30023                                                                
R08  20516906.14407   5163990.66807      -736.72007        43.00007
R24  19465271.97607   3352624.32907       620.99507        41.50007
C33  22901754.54807     13696.90607        -2.72307        41.70007  22901781.82906     63211.18506        -2.02706        37.30006
C28  21905178.46306    194127.58506     -1339.58706        38.50006  21905182.96005    137942.48005     -1000.15205        30.90005
E33  24310513.18506    216151.63106     -1600.40506        38.90006  24310500.89305    186811.59105     -1195.12205        30.30005
C27  21673749.77806    -85129.14406      1100.64906        37.20006  21673758.77206     -2829.87806       821.93606        37.70006
C42  25888866.81306    240394.05906     -2830.34706        36.10006  25888868.91224    239133.53024     -2115.61624        25.40024
C41  23785344.55206   -219308.53906      2818.47406        35.50006  23785353.24505    -57575.70205      2104.62705        34.00005
E29  26345388.97005    -46198.83205      1566.51205        34.90005  26345411.75405    317702.41805      1169.74005        33.70005
R01  20821011.41705   2323135.14905      3306.74605        33.50005
E12  23649548.76105      7352.97605       926.04605        32.40005  23649550.56005    698836.84305       691.41005        34.80005
R07  23542012.60725  55848756.54325     -3851.85225        32.30025
E07  27345126.06625     93868.92625      -963.29425        32.00025  27345148.25105    122151.21405      -719.72105        32.70005
R16  23506159.82724   -257244.30224      2697.03924        29.30024
R23  22106289.13725   3376648.75825     -3102.32025        30.60025
R17  22269652.94324 150970905.78724      3324.66024        27.80024
R15  21769682.16624  14479705.48424      -859.61624        26.80024
E25  26290941.56314    -41679.39214      1507.22814        25.10014  26290936.46624    -39908.32924      1131.56824        25.60024
R14  22901437.36823  -5513793.61323     -3801.44523        23.10023
E16  24764494.60014    142730.25914     -1067.38114        24.10014  24764498.19813    599954.47813      -803.60113        22.40013
> 2026 04 21 13 35 36.9998865  0 28                      
G10  22180347.46808    202830.24708     -2244.36108        48.70008  22180355.56205    218743.15005     -1675.98605        35.10005
G08  20465670.11407    133843.10707     -1428.91707        41.70007  20465671.31306    166583.51706     -1067.00206        38.40006
G23  24682556.52506    312394.39306     -3538.15806        40.50006  24682573.01305    999200.37705     -2642.64805        29.90005
G32  22892315.28306   -147849.41806      1932.31906        41.30006  22892316.78214    -44319.03814      1444.47514        27.40014
G27  22267350.83706    284971.04006     -3220.35206        40.00006  22267361.62906    280775.21806     -2404.73906        35.70006
G02  20671262.38606    -42332.81906       679.57206        38.90006                                                                
G14  23648293.53024   -149888.18924      1853.67724        28.50024                                                                
G22  24875443.29223    -33887.81023      2372.81823        18.20023                                                                
R08  20517055.74107   5164724.86507      -733.36907        43.00007
R24  19465164.95006   3352000.53306       624.89006        41.40006
C33  22901759.34507     13697.00907         0.84407        41.60007  22901790.52306     63211.26906         0.61706        37.30006
C28  21905440.48206    195464.39206     -1335.73306        38.50006  21905445.87805    138940.74605      -997.51505        30.90005
E33  24310824.07006    217749.04906     -1596.18406        38.70006  24310813.87705    188004.60205     -1192.20505        30.20005
C27  21673550.11606    -86232.59606      1104.55306        37.30006  21673557.01206     -3653.85206       824.77906        37.70006
C42  25889406.14006    243221.62006     -2826.46206        36.10006  25889418.43114    241245.47914     -2114.84614        25.40014
C41  23784811.22106   -222129.64906      2822.17906        35.50006  23784825.01105    -59682.34605      2107.44405        34.20005
E29  26345094.27405    -47767.48305      1570.96305        34.80005  26345120.65505    316530.71405      1172.48305        33.90005
R01  20820395.34305   2319825.93405      3310.13305        33.40005
R07  23542717.11905  55852605.86805     -3848.36705        32.50005
E12  23649377.28005      6424.43905       929.56405        32.50005  23649382.67605    698143.45405       694.19405        34.70005
E07  27345312.23705     94829.72305      -962.45905        32.00005  27345338.01905    122868.98805      -717.02605        32.70005
R16  23505684.95624   -259941.67724      2695.85324        29.40024
R23  22106863.54025   3379743.63125     -3092.57125        30.40025
R17  22269031.47324 150967579.71224      3330.80524        27.80024
R15  21769793.38924  14480563.65424      -858.62624        26.40024
R14  22902164.96423  -5509997.93723     -3797.20123        23.20023
E25  26290656.46014    -43186.42914      1508.46314        24.80014  26290657.06024    -41039.24824      1132.07324        26.00024
E16  24764711.65014    143795.07114     -1068.54914        23.90014  24764713.14913    600752.09113      -801.28613        22.40013
> 2026 04 21 13 35 37.9998851  0 28                      
G10  22180782.46708    205074.48508     -2243.66008        48.60008  22180791.76005    220419.11905     -1675.57205        35.00005
G08  20465954.91707    135271.99907     -1428.41407        41.70007  20465951.91906    167650.53806     -1066.67506        38.30006
G23  24683237.65306    315932.14706     -3537.00206        40.40006  24683256.24025   1001841.77325     -2639.11725        29.90025
G27  22267979.80106    288191.13206     -3219.45506        40.00006  22267983.09906    283179.86306     -2404.19506        35.70006
G32  22891949.83606   -149781.84306      1932.97706        41.10006  22891957.33114    -45762.22814      1441.73714        27.30014
G02  20671139.47106    -43012.48106       680.22506        38.80006                                                                
G14  23647949.36824   -151741.33424      1851.83224        28.50024                                                                
G22  24874995.40223    -36262.14823      2371.80823        18.10023                                                                
R08  20517202.33907   5165458.55507      -733.43807        43.00007
R24  19465057.62407   3351375.77407       625.24207        41.50007
C33  22901768.93807     13696.22207         1.23107        41.60007  22901797.71806     63210.65806         0.95806        37.20006
C28  21905703.40006    196799.89306     -1334.84906        38.40006  21905707.29705    139938.20205      -997.05305        30.90005
E33  24311133.15606    219345.32806     -1595.71206        38.60006  24311127.46025    189196.80725     -1190.30425        30.10025
C27  21673343.85906    -87337.16306      1105.12606        37.30006  21673354.95106     -4478.72606       825.32406        37.70006
C42  25889955.95906    246048.02306     -2825.82706        36.10006  25889962.85524    243355.90524     -2114.16824        25.30024
C41  23784282.98606   -224951.88706      2822.80606        35.50006  23784297.07705    -61789.83805      2107.91905        34.30005
E29  26344806.17325    -49337.88625      1566.28125        34.70025  26344831.95505    315358.20805      1172.90805        33.90005
R01  20819762.78105   2316515.96205      3310.35505        33.40005
R07  23543455.80805  55856453.86905     -3847.34505        32.70005
E12  23649213.59305      5494.23805       931.03505        32.50005  23649213.89305    697449.01405       694.96705        34.70005
E07  27345509.50105     95790.30405      -959.47605        32.00005  27345529.88605    123586.00405      -716.64005        32.60005
R16  23505179.20624   -262639.83824      2699.30924        29.40024
R23  22107434.64425   3382837.55325     -3094.70025        30.20025
R17  22268431.88824 150964252.26424      3323.14024        27.70024
R15  21770004.44224  14481418.18724      -857.46724        26.00024
R14  22902869.47623  -5506193.34923     -3806.29923        23.20023
E25  26290410.93014    -44683.78514      1501.01814        24.60014  26290379.15224    -42169.57024      1131.02624        26.00024
E16  24764904.41614    144861.19814     -1066.78414        23.80014  24764928.40013    601548.02113      -806.59013        22.40013
> 2026 04 21 13 35 38.9998836  0 27                      
G10  22181197.08008    207316.03408     -2240.20708        48.60008  22181207.57205    222092.97405     -1672.80105        34.80005
G08  20466215.73707    136698.31407     -1425.02807        41.70007  20466212.73906    168715.68206     -1064.20806        38.30006
G23  24683904.69106    319466.90206     -3533.26006        40.40006  24683922.37905   1004481.81405     -2638.36805        29.90005
G27  22268578.48706    291408.36106     -3215.80206        40.00006  22268585.68206    285582.39506     -2401.48006        35.90006
G02  20671004.26406    -43694.85606       683.73306        38.60006                                                                
G32  22891570.59806   -151716.75206      1936.15406        40.50006  22891579.59214    -47207.23014      1446.41114        27.10014
G14  23647561.13724   -153596.67524      1853.94224        28.50024                                                                
G22  24874535.52023    -38639.61423      2371.28523        18.10023                                                                
R08  20517327.05307   5166189.83607      -730.07607        43.10007
R24  19464930.21207   3350748.28607       628.85307        41.50007
C33  22901756.94607     13692.87507         4.62807        41.50007  22901787.22606     63208.18006         3.41206        37.20006
C28  21905954.32606    198132.74406     -1331.52906        38.30006  21905951.32825    140934.49425      -994.21125        30.80025
E33  24311426.65206    220938.50106     -1591.62106        38.50006  24311420.95605    190387.42905     -1188.83105        29.90005
C27  21673132.20606    -88444.63606      1108.92806        37.30006  21673133.70506     -5305.65606       827.96006        37.70006
C42  25890484.19406    248871.58306     -2822.14406        36.10006  25890488.69114    245463.80014     -2116.63214        25.30014
C41  23783731.06806   -227776.75306      2826.18506        35.50006  23783749.05605    -63899.37005      2110.55505        34.30005
E29  26344500.38505    -50910.85405      1575.75305        34.60005  26344520.17105    314183.70205      1175.50705        33.90005
R01  20819160.19805   2313203.26705      3314.06105        33.30005
R07  23544176.50905  55860299.20305     -3844.00705        32.90005
E12  23649029.82005      4561.74905       933.63605        32.50005  23649024.72405    696752.52605       697.51205        34.70005
E07  27345676.78505     96747.62105      -955.68605        32.00005  27345703.76605    124301.09005      -714.12205        32.60005
R16  23504666.26124   -265342.72924      2707.50924        29.30024
R17  22267797.22824 150960921.65724      3331.94124        27.70024
R15  21770167.23024  14482269.98624      -848.18324        25.70024
R14  22903589.27823  -5502392.58923     -3802.35223        23.20023
E16  24765125.36314    145927.35014     -1071.66714        23.60014  24765118.76813    602344.09113      -803.64113        22.30013
E25  26290101.84414    -46174.47314      1490.35714        24.30014  26290079.659 4    -43302.819 4      1131.214 4        26.100 4
> 2026 04 21 13 35 39.9998821  0 27                      
G10  22181631.47908    209562.59408     -2249.07008        48.50008  22181644.07005    223770.60105     -1679.51505        34.70005
G08  20466495.44307    138129.77007     -1434.02807        41.70007  20466493.64406    169784.60906     -1070.82006        38.20006
G23  24684581.32306    323006.32006     -3541.75506        40.40006  24684602.90805   1007124.85705     -2645.04705        29.90005
G27  22269200.85606    294630.67506     -3224.86106        40.00006  22269207.15206    287988.55506     -2407.97706        36.00006
G02  20670881.64906    -44372.29306       674.96906        38.50006                                                                
G32  22891211.44706   -153646.75906      1927.55806        39.70006  22891218.34214    -48649.39214      1440.74414        27.00014
G14  23647225.66924   -155446.92824      1856.96224        28.50024                                                                
G22  24874071.74123    -41018.13823      2379.80523        18.10023                                                                
R08  20517474.85107   5166926.72007      -739.68807        43.10007
R24  19464820.48807   3350125.97907       619.71707        41.60007
C33  22901767.13907     13694.77107        -4.51807        41.50007  22901796.51906     63209.57706        -3.33406        37.10006
C28  21906206.75206    199470.53106     -1340.25606        38.30006  21906212.74705    141933.37505      -997.67805        30.70005
E33  24311744.13306    222536.52006     -1600.44506        38.30006  24311732.44105    191580.66205     -1195.04105        29.80005
C27  21672918.15406    -89546.93406      1099.71106        37.30006  21672931.94406     -6128.93206       821.44906        37.70006
C42  25891033.71306    251699.90506     -2830.70806        36.00006  25891037.61114    247576.93714     -2113.26214        25.10014
C41  23783199.23705   -230596.82605      2817.68005        35.40005  23783219.92205    -66005.30205      2104.13505        34.30005
E29  26344217.98005    -52478.62605      1565.17505        34.50005  26344231.47105    313012.85205      1169.02405        33.90005
R01  20818545.32405   2309895.99005      3304.57305        33.30005
R07  23544886.41705  55864149.46305     -3852.72805        33.00005
E12  23648858.63905      3633.76405       925.73405        32.50005  23648857.14005    696059.59205       691.15905        34.60005
E07  27345868.05205     97710.26405      -965.30705        32.00005  27345894.43405    125019.77905      -720.49105        32.50005
R16  23504164.10924   -268037.88824      2697.29824        29.30024
R17  22267184.75224 150957594.44524      3331.27124        27.70024
R15  21770319.22524  14483122.32524      -854.35924        25.40024
R14  22904245.52423  -5498593.98423     -3798.03223        23.10023
E16  24765329.82213    146994.28613     -1068.33013        23.40013  24765323.82613    603140.60313      -795.73413        22.20013
E25  26289844.62214    -47661.75414      1483.58014        24.00014  26289798.75404    -44432.61904      1129.07704        26.10004
> 2026 04 21 13 35 40.9998804  0 27                      
G10  22182047.89108    211818.64508     -2260.80008        48.40008  22182059.58305    225455.34105     -1688.30005        34.60005
G08  20466750.86607    139570.91907     -1445.99807        41.60007  20466752.36506    170860.82006     -1079.85506        38.20006
G27  22269797.44306    297862.36706     -3236.38806        40.00006  22269805.83706    290401.83706     -2416.84706        36.00006
G23  24685235.17006    326554.91706     -3553.19306        40.30006  24685257.05525   1009775.96225     -2656.64125        29.80025
G02  20670730.25406    -45040.37206       664.15106        38.40006                                                                
G32  22890824.71506   -155567.02806      1915.40306        39.20006  22890838.80514    -50083.21114      1429.65014        26.90014
G14  23646868.61624   -157296.15224      1845.96324        28.40024                                                                
G22  24873562.09423    -43400.38723      2382.61723        18.00023                                                                
R08  20517595.06707   5167673.81607      -752.20307        43.20007
R24  19464696.07407   3349513.40907       607.70207        41.60007
C33  22901755.44806     13706.35606       -16.43006        41.40006  22901783.32806     63218.27706       -12.35206        37.00006
C28  21906451.08206    200817.69206     -1351.85106        38.20006  21906454.68005    142939.46405     -1010.69505        30.60005
E33  24312034.33206    224143.81506     -1611.93506        38.20006  24312024.43905    192780.94005     -1203.80305        29.60005
C27  21672705.60106    -90639.99506      1088.44606        37.20006  21672709.19906     -6945.08706       812.59606        37.80006
C42  25891559.54906    254537.79106     -2842.67306        36.00006  25891560.44914    249695.29014     -2114.46514        25.00014
C41  23782649.11805   -233407.35905      2805.76905        35.40005  23782671.60205    -68104.08705      2095.21505        34.30005
E29  26343901.69905    -54037.05805      1553.76605        34.40005  26343920.88605    311849.15805      1160.11805        34.00005
R01  20817901.66905   2306598.58105      3292.48205        33.30005
R07  23545591.22905  55868009.50005     -3864.93305        33.10005
E12  23648659.27705      2715.34405       913.63905        32.50005  23648667.37105    695373.67805       682.40405        34.60005
E07  27346042.83105     98682.21105      -976.60105        32.00005  27346063.81705    125745.74205      -729.60305        32.50005
R16  23503643.96924   -270722.93224      2677.74124        29.20024
R17  22266548.59224 150954279.29524      3311.87424        27.80024
R15  21770471.21924  14483985.28424      -863.27124        25.30024
R14  22904941.94223  -5494789.38023     -3801.11123        23.00023
E16  24765536.07913    148059.69813     -1063.65213        23.20013  24765511.49613    603940.06713      -793.94213        22.10013
E25  26289572.41114    -49141.49614      1478.97514        23.60014  26289497.16324    -45554.61024      1118.08824        26.20024
> 2026 04 21 13 35 41.9998788  0 27                      
G10  22182493.68208    214077.85908     -2260.79808        48.40008  22182505.37405    227142.34605     -1688.14005        34.50005
G08  20467040.16607    141015.25807     -1445.93607        41.60007  20467041.66506    171939.42606     -1079.80406        38.10006
G27  22270428.80606    301097.02906     -3236.15106        40.00006  22270436.00106    292817.39506     -2416.70006        36.10006
G23  24685926.79106    330106.44506     -3552.99906        40.20006  24685952.87305   1012427.75605     -2653.14305        29.80005
G02  20670623.22806    -45705.09106       662.79006        38.30006                                                                
G32  22890477.25506   -157484.11906      1915.50506        38.80006  22890489.24724    -51516.26424      1435.67124        27.10024
G14  23646535.24724   -159135.10424      1837.56824        28.30024                                                                
G22  24873110.60723    -45793.41823      2395.42623        18.00023                                                                
R08  20517752.45807   5168424.75307      -752.85807        43.30007
R24  19464587.54907   3348904.21707       607.50407        41.60007
C33  22901769.23806     13721.30806       -16.63406        41.40006  22901801.31606     63229.39306       -12.32306        37.00006
C28  21906722.39506    202168.06406     -1351.98106        38.20006  21906726.29225    143947.72125     -1009.34325        30.50025
E33  24312360.50606    225753.95206     -1611.56106        38.10006  24312344.91705    193983.32705     -1203.44205        29.50005
C27  21672511.63506    -91729.84406      1088.24406        37.20006  21672516.13206     -7758.99506       812.78706        37.90006
C42  25892102.47306    257378.76006     -2842.51406        35.90006  25892115.06514    251813.86814     -2113.19414        24.90014
C41  23782141.26905   -236214.93805      2806.10605        35.30005  23782152.36105    -70200.61105      2095.39705        34.30005
E29  26343627.38905    -55592.16905      1553.45305        34.20005  26343638.78105    310687.82205      1160.15905        34.00005
R01  20817310.77905   2303304.42105      3292.54005        33.40005
R07  23546324.82105  55871872.76205     -3864.88005        33.10005
E12  23648504.58405      1799.66605       914.30805        32.40005  23648508.18105    694689.94705       682.64105        34.80005
E07  27346238.59605     99657.71405      -977.28205        32.10005  27346264.37805    126474.14905      -729.63005        32.50005
R16  23503124.42824   -273403.45424      2676.01624        29.20024
R17  22265932.21924 150950966.05924      3308.53424        27.90024
R15  21770639.10324  14484852.70524      -865.15424        25.20024
R14  22905642.55723  -5490983.39523     -3804.93123        22.90023
E16  24765745.93413    149110.33313     -1052.24813        22.90013  24765731.84413    604746.24413      -802.53313        22.00013
E25  26289299.89913    -50612.42713      1477.52713        23.30013  26289227.94904    -46674.76304      1117.73704        26.30004
> 2026 04 21 13 35 42.9998772  0 27                      
G10  22182918.78808    216343.00808     -2268.12108        48.30008  22182930.48005    228833.84705     -1693.75205        34.40005
G08  20467313.27707    142465.82507     -1453.68407        41.50007  20467315.37506    173022.60406     -1085.46606        38.10006
G23  24686607.02006    333663.58206     -3559.94906        40.10006  24686623.50925   1015084.67625     -2658.98725        29.80025
G02  20670494.01806    -46364.10506       656.16206        38.20006                                                                
G32  22890118.70306   -159395.06806      1907.13206        38.50006  22890123.80004    -52942.93804      1426.98704        27.60004
G14  23646162.60524   -160968.93024      1829.26524        28.20024                                                                
G22  24872640.23223    -48184.08323      2399.73623        18.00023                                                                
G27  22271043.08106    304337.76606     -3244.53006        40.00006  22271049.67606    295237.23306     -2421.98206        36.10006
R08  20517887.66507   5169182.18507      -760.68207        43.30007
R24  19464478.72507   3348301.01807       600.20407        41.60007
C33  22901770.73706     13742.39506       -24.15606        41.30006  22901801.91506     63245.13106       -18.04906        36.90006
C28  21906978.11806    203524.28606     -1359.14906        38.10006  21906980.81625    144960.79425     -1013.98225        30.30025
E33  24312659.99906    227370.10506     -1619.16406        38.00006  24312648.90624    195190.10824     -1210.48124        29.40024
C27  21672303.57906    -92813.89406      1081.15306        37.10006  21672306.57706     -8568.52506       807.34106        37.90006
C42  25892650.19406    260225.53906     -2849.68906        35.80006  25892652.89214    253939.76414     -2123.05914        24.80014
C41  23781596.84625   -239016.35625      2798.34325        35.20025  23781614.83405    -72292.67705      2089.84005        34.50005
R01  20816686.61105   2300016.72105      3284.47505        33.60005
E29  26343312.00705    -57141.48605      1546.42105        34.10005  26343340.48805    309530.88905      1154.73305        34.20005
R07  23547052.11805  55875741.77905     -3873.40105        33.10005
E12  23648325.30805       890.23905       906.30205        32.40005  23648331.30405    694010.52605       677.26605        35.00005
E07  27346422.36905    100639.13105      -984.37605        32.20005  27346448.15105    127206.96605      -735.02205        32.50005
R16  23502631.86924   -276078.96324      2673.75724        29.40024
R17  22265330.83524 150947659.25224      3304.34824        27.90024
R15  21770831.87024  14485725.11524      -876.15524        25.10024
R14  22906319.48823  -5487172.81723     -3811.88123        22.70023
E25  26288962.63313    -52088.85813      1472.18413        23.00013  26288939.54924    -47789.18224      1112.05224        26.30024
E16  24765957.88713    150168.60913     -1050.09813        22.70013  24765937.80113    605557.90013      -808.39713        21.90013
> 2026 04 21 13 35 43.9998755  0 27                      
G10  22183335.20008    218611.07208     -2269.52408        48.20008  22183347.49105    230527.57805     -1694.84805        34.30005
G08  20467576.79407    143919.38407     -1455.05707        41.50007  20467576.79406    174108.06406     -1086.60306        38.10006
G27  22271640.56706    307581.10906     -3244.40106        39.90006  22271651.95906    297659.35806     -2423.27206        36.20006
G23  24687272.56006    337223.29306     -3561.00406        39.90006  24687279.75515   1017742.48215     -2656.75315        29.70015
G02  20670355.81306    -47020.30406       654.79206        38.10006                                                                
G32  22889734.37006   -161303.20506      1906.98406        38.30006  22889745.76204    -54367.72204      1422.34104        27.60004
G14  23645799.55624   -162796.87624      1822.26024        28.10024                                                                
G22  24872171.95723    -50588.84523      2402.81523        17.90023                                                                
R08  20518017.17507   5169943.04807      -762.57907        43.40007
R24  19464350.71307   3347700.84607       598.65807        41.50007
C33  22901757.84606     13766.58906       -25.74606        41.30006  22901791.12306     63263.26606       -19.33406        36.80006
C28  21907219.75006    204883.23606     -1360.31606        38.10006  21907224.24705    145975.41305     -1015.89505        30.20005
E33  24312952.59626    228988.68326     -1618.29426        38.00026  24312942.10304    196398.71504     -1212.02104        29.20004
C27  21672083.53206    -93895.14906      1079.85806        37.00006  21672085.33006     -9375.89006       806.28406        38.00006
C42  25893175.73006    263075.14306     -2851.02106        35.80006  25893180.82714    256068.66714     -2128.91014        24.80014
C41  23781050.62405   -241815.14005      2798.97205        35.00005  23781067.71205    -74382.61805      2088.88205        34.60005
R01  20816057.34605   2296732.02505      3283.20005        33.80005
E29  26343013.41405    -58687.82405      1544.85305        34.10005  26343031.40205    308376.19205      1153.58205        34.30005
R07  23547726.35105  55879614.06105     -3873.42205        33.10005
E12  23648128.64425       -17.17225       906.40525        32.40025  23648143.03405    693333.21705       676.25505        35.00005
E07  27346599.24605    101623.51805      -985.87305        32.20005  27346619.93205    127942.03405      -736.19605        32.60005
R16  23502123.42124   -278751.26324      2666.19924        29.40024
R17  22264684.48324 150944355.62024      3296.80024        28.00024
R15  21770931.10124  14486603.85024      -889.65024        25.10024
R14  22907039.88923  -5483356.78523     -3818.01523        22.50023
E25  26288653.24713    -53571.29413      1474.44113        22.70013  26288637.35804    -48903.41804      1111.14804        26.30004
E16  24766139.26113    151235.69113     -1053.48613        22.40013  24766132.66613    606370.80213      -810.52613        21.80013
> 2026 04 21 13 35 44.9998739  0 27                      
G10  22183783.08908    220879.52108     -2268.64508        48.10008  22183795.38105    232221.54305     -1694.08505        34.20005
G08  20467864.89506    145373.56406     -1454.49406        41.40006  20467868.19306    175193.95406     -1086.10706        38.20006
G27  22272271.93006    310824.78906     -3243.85406        39.90006  22272284.52106    300081.55106     -2422.23106        36.20006
G23  24687966.57906    340783.15706     -3559.94506        39.80006  24687977.37215   1020401.34115     -2659.89015        29.60015
G02  20670244.29106    -47676.02806       655.48806        37.90006                                                                
G32  22889389.30806   -163210.81906      1907.35506        38.10006  22889394.70504    -55792.31404      1424.49804        27.70004
G14  23645456.89424   -164630.39724      1831.31224        28.00024                                                                
G22  24871729.46323    -52999.24323      2409.97023        17.80023                                                                
R08  20518176.06507   5170705.02307      -762.53307        43.50007
R24  19464251.48207   3347101.22107       599.35407        41.50007
C33  22901780.33006     13791.39706       -25.11606        41.30006  22901810.31006     63281.73606       -18.63706        36.80006
C28  21907486.26606    206242.78706     -1359.85406        38.10006  21907498.55725    146991.31325     -1015.04125        30.10025
E33  24313273.07426    230607.39826     -1619.28626        37.90026  24313267.07824    197607.13624     -1210.33124        29.10024
C27  21671894.66206    -94975.92006      1080.53106        37.00006  21671894.66206    -10183.07206       807.09206        38.00006
C42  25893727.34806    265925.05306     -2850.06706        35.70006  25893737.84124    258195.96224     -2130.99524        24.80024
R01  20815467.95405   2293448.18405      3283.41905        34.10005
C41  23780534.68105   -244613.53105      2797.69805        34.80005  23780549.37105    -76472.32405      2089.59205        34.60005
E29  26342739.40405    -60233.75705      1545.73205        34.00005  26342751.09605    307221.73605      1154.33705        34.30005
R07  23548490.22205  55883486.69805     -3872.82005        33.00005
E12  23647992.23905      -923.95105       906.46505        32.40005  23647986.84205    692656.03305       677.12105        35.10005
E07  27346804.30405    102608.48905      -985.26605        32.30005  27346822.59205    128677.36705      -735.46705        32.60005
R16  23501642.25525   -281421.58125      2667.83125        29.50025
R17  22264081.60024 150941050.88924      3304.03624        28.00024
R15  21771166.43824  14487481.76824      -877.26124        25.30024
R14  22907810.65623  -5479531.84023     -3823.90723        22.20023
E25  26288367.24513    -55050.31713      1475.31913        22.40013  26288370.54324    -50016.86024      1112.54524        26.30024
E16  24766389.88813    152300.18513     -1064.20313        22.10013  24766355.41213    607182.05113      -806.42513        21.60013
> 2026 04 21 13 35 45.9998722  0 27                      
G10  22184200.10108    223147.62908     -2267.94208        48.00008  22184212.09205    233915.27605     -1693.62005        34.10005
G08  20468126.91306    146827.53906     -1453.87506        41.30006  20468129.91106    176279.72706     -1085.71606        38.20006
G27  22272877.21106    314068.14206     -3243.19506        39.80006  22272886.80406    302503.51906     -2421.85906        36.30006
G23  24688629.42006    344342.42306     -3558.97406        39.70006  24688638.714 5   1023060.611 5     -2654.980 5        29.500 5
G32  22889013.36906   -165118.67906      1907.98706        38.00006  22889018.46524    -57215.84724      1421.50624        27.80024
G02  20670107.28506    -48332.15106       656.32506        37.80006                                                                
G14  23645103.13924   -166464.54024      1838.70624        27.80024                                                                
G22  24871244.69823    -55408.80523      2413.14723        17.60023                                                                
R08  20518303.47707   5171467.05607      -762.06407        43.50007
R24  19464127.66807   3346501.33107       600.02307        41.50007
C33  22901767.13906     13816.10406       -24.65706        41.20006  22901800.11706     63300.18106       -18.43306        36.70006
C28  21907737.19206    207601.71706     -1358.62206        38.00006  21907740.790 5    148006.323 5     -1007.567 5        30.100 5
E33  24313566.87106    232225.57206     -1613.40606        37.90006  24313560.27504    198816.06204     -1211.18004        28.90004
C27  21671672.81606    -96057.15706      1081.47306        37.00006  21671674.01506    -10990.46106       807.49506        38.00006
C42  25894253.18406    268774.47106     -2849.17706        35.60006  25894265.17614    260325.08014     -2129.03414        24.80014
R01  20814824.00005   2290164.04905      3284.28805        34.10005
E29  26342433.91505    -61780.26505      1545.29905        34.00005  26342442.60905    306067.02805      1154.83605        34.30005
C41  23779979.46625   -247412.13725      2798.71925        34.70025  23780000.45105    -78562.29405      2090.10605        34.60005
R07  23549186.34005  55887359.50905     -3872.90405        33.00005
E12  23647801.57105     -1831.18705       908.96605        32.40005  23647797.97305    691978.52405       677.67405        35.10005
E07  27346969.49025    103592.92125      -979.66325        32.30025  27346994.07305    129412.61505      -735.20705        32.60005
R16  23501124.21325   -284092.82025      2668.95425        29.50025
R17  22263468.22524 150937744.78324      3309.30024        28.10024
R15  21771280.35924  14488361.07324      -876.99924        25.80024
E25  26288064.45513    -56539.24113      1479.37713        22.10013  26288071.35004    -51130.37504      1114.05404        26.30004
R14  22908543.04923  -5475708.18123     -3829.52323        22.00023
E16  24766561.36913    153376.51213     -1070.74413        21.80013  24766546.67913    607998.12313      -821.98413        21.50013
> 2026 04 21 13 35 46.9998706  0 26                      
G10  22184628.20408    225414.56508     -2266.35308        47.90008  22184641.99505    235608.13905     -1692.43105        33.90005
G08  20468401.82306    148280.52806     -1452.49706        41.20006  20468402.42306    177364.70206     -1084.57806        38.30006
G27  22273489.68706    317310.21606     -3241.44006        39.80006  22273500.77906    304924.53906     -2420.55006        36.30006
G23  24689301.25506    347900.21106     -3557.05406        39.60006  24689313.54704   1025717.24904     -2656.82704        29.40004
G32  22888641.92606   -167027.51706      1909.33006        37.90006  22888650.32004    -58641.50004      1422.71604        28.30004
G02  20669978.37506    -48989.44606       657.88106        37.70006                                                                
G14  23644717.30624   -168297.68324      1831.14524        27.70024                                                                
R08  20518438.08407   5172228.31707      -760.87607        43.70007
R24  19464000.55607   3345900.25307       601.67307        41.50007
C33  22901768.93806     13839.79306       -23.18006        41.20006  22901801.91506     63317.90306       -17.36106        36.60006
C28  21907991.71606    208959.49906     -1357.20906        38.00006  21907992.01615    149020.35715     -1016.04815        29.90015
E33  24313868.16206    233842.44306     -1617.72206        37.80006  24313864.26504    200023.38704     -1205.52504        28.80004
C27  21671458.76406    -97139.70506      1083.20406        36.90006  21671464.76006    -11798.80606       808.82406        37.90006
C42  25894793.71006    271622.74606     -2847.70806        35.50006  25894804.80324    262451.80024     -2128.52424        25.00024
R01  20814212.42305   2286878.99405      3285.51905        34.10005
E29  26342123.63025    -63327.35325      1546.37925        34.00025  26342145.21505    304911.52005      1155.90905        34.30005
C41  23779464.42225   -250212.33925      2798.00525        34.50025  23779464.72205    -80653.12405      2091.26205        34.60005
E07  27347156.26105    104576.22105      -984.23605        32.30005  27347176.94605    130146.98505      -733.93205        32.70005
E12  23647622.89405     -2739.76805       907.25505        32.40005  23647622.59405    691300.03105       678.98505        35.10005
R07  23549903.44415  55891229.91515     -3867.71115        32.90015
R16  23500622.36124   -286764.05824      2665.74324        29.40024
R17  22262823.07124 150934437.95924      3303.68824        28.20024
R15  21771456.93724  14489237.43624      -879.39424        25.90024
E25  26287764.36213    -58026.92213      1485.06313        21.90013  26287784.44824    -52245.03224      1113.72924        26.50024
E16  24766750.83813    154464.46113     -1084.76213        21.50013  24766750.53813    608812.45113      -817.45813        21.40013
R14  22909251.75823  -5471876.36523     -3834.40023        21.70023
> 2026 04 21 13 35 47.9998690  0 26                      
G10  22185073.99608    227681.10508     -2266.34608        47.80008  22185088.68605    237300.67605     -1692.37605        33.80005
G08  20468689.32406    149733.19406     -1452.50806        41.20006  20468693.82106    178449.48706     -1084.69206        38.30006
G23  24689991.67706    351457.17806     -3556.56206        39.50006  24690006.36704   1028373.62204     -2656.24404        29.30004
G32  22888291.16906   -168936.83606      1909.56306        37.80006  22888304.06004    -60067.11304      1427.09604        28.50004
G02  20669870.15006    -49647.32306       658.17006        37.50006                                                                
G14  23644402.82324   -170129.49924      1829.90624        27.50024                                                                
G27  22274121.64906    320551.75406     -3241.27406        39.70006  22274132.14206    307345.24306     -2420.55106        36.40006
R08  20518594.57507   5172989.69107      -761.43207        43.80007
R24  19463903.72306   3345298.89506       601.50006        41.40006
C33  22901788.72406     13863.26506       -23.36406        41.20006  22901821.10206     63335.45406       -17.46406        36.60006
C28  21908268.12406    210316.71806     -1356.94006        38.00006  21908268.724 5    150033.780 5     -1008.619 5        29.800 5
E33  24314195.53606    235458.64006     -1615.86206        37.80006  24314185.94204    201230.39704     -1206.85504        28.70004
C27  21671272.89306    -98222.72106      1083.25206        36.90006  21671272.29306    -12607.53606       808.92406        37.90006
C42  25895349.52505    274470.40605     -2847.35805        35.40005  25895359.71814    264579.30314     -2128.39714        25.10014
R01  20813597.24905   2283593.66305      3285.47505        34.20005
E29  26341853.51705    -64875.31505      1548.90205        34.10005  26341865.80905    303755.64105      1156.06805        34.30005
C41  23778932.29105   -253012.62005      2801.32405        34.30005  23778945.18205    -82744.36605      2091.45205        34.50005
E07  27347361.61805    105559.38405      -983.09605        32.40005  27347380.20605    130881.19805      -734.13605        32.70005
E12  23647458.90805     -3649.03505       910.11105        32.40005  23647463.40505    690621.09605       679.15805        35.10005
R07  23550640.33425  55895100.76125     -3873.07125        32.80025
R16  23500119.30924   -289438.03124      2680.59424        29.40024
R17  22262207.59724 150931129.84424      3306.76524        28.40024
R15  21771634.41424  14490115.74224      -878.02824        26.10024
E25  26287480.45913    -59515.52213      1487.06213        21.80013  26287516.134 4    -53359.618 4      1113.553 4        26.500 4
R14  22910062.09723  -5468041.25923     -3841.25723        21.40023
E16  24766959.79313    155555.07913     -1093.45513        21.30013  24766974.48313    609627.28913      -821.09413        21.40013
> 2026 04 21 13 35 48.9998673  0 26                      
G10  22185489.20808    229947.88508     -2266.90308        47.70008  22185502.99905    238993.46905     -1692.92305        33.60005
G08  20468954.04106    151186.27406     -1453.28906        41.10006  20468954.64006    179534.63106     -1085.32506        38.30006
G27  22274724.53206    323793.51306     -3241.87506        39.70006  22274732.92606    309765.99506     -2420.77906        36.40006
G23  24690652.12006    355014.05806     -3556.84306        39.50006  24690665.61104   1031029.78204     -2656.05904        29.30004
G02  20669734.64306    -50304.94906       657.50006        37.40006                                                                
G14  23644044.27224   -171957.65724      1825.33224        27.30024                                                                
G32  22887909.83306   -170845.74506      1908.70706        37.70006  22887924.22304    -61492.58704      1425.40604        28.50004
R08  20518726.78407   5173751.88607      -762.60707        43.80007
R24  19463781.40706   3344697.77406       601.00306        41.40006
C33  22901775.83306     13887.25406       -24.24706        41.20006  22901809.11006     63353.34006       -18.05506        36.50006
C28  21908508.55806    211674.27706     -1357.73106        38.00006  21908512.75505    151047.54405     -1015.43605        29.70005
E33  24314485.43506    237074.89206     -1616.28306        37.80006  24314502.82304    202437.27504     -1206.81404        28.60004
C27  21671057.64206    -99305.45106      1082.58906        37.00006  21671051.94606    -13416.05406       808.41306        37.90006
C42  25895884.05505    277318.22305     -2847.90005        35.30005  25895887.65314    266708.32314     -2130.78414        25.10014
E29  26341539.33505    -66422.86205      1547.34305        34.30005  26341554.62405    302599.99305      1155.53405        34.20005
R01  20812985.37305   2280308.97105      3284.37905        34.30005
C41  23778383.97005   -255812.96405      2800.38205        34.20005  23778398.66005    -84835.38605      2090.91405        34.50005
E07  27347535.79805    106542.83405      -983.59605        32.50005  27347552.58605    131615.55705      -734.43405        32.80005
E12  23647272.43705     -4558.12905       909.01005        32.40005  23647275.73505    689942.19805       678.88105        35.10005
R07  23551344.84625  55898971.82025     -3872.92125        32.60025
R16  23499605.46524   -292112.61924      2672.40024        29.30024
R17  22261580.13224 150927822.28424      3310.54024        28.50024
R15  21771775.31624  14490995.36324      -881.78124        26.40024
R23  22113848.10424 209807478.96124     -3117.40424        25.10024
E25  26287189.66013    -61008.26313      1496.31313        21.60013  26287213.34414    -54473.03114      1117.82714        26.40014
E16  24767189.73413    156646.76113     -1103.71613        21.20013  24767168.44913    610449.23513      -820.00113        21.30013
> 2026 04 21 13 35 49.9998657  0 25                      
G10  22185915.51308    232214.16508     -2266.03408        47.70008  22185930.50305    240685.70305     -1691.95805        33.40005
G08  20469225.05306    152639.00606     -1452.56106        41.00006  20469228.35106    180619.45006     -1084.65806        38.30006
G27  22275341.80506    327034.62806     -3240.79806        39.70006  22275346.00206    312186.33206     -2420.13406        36.40006
G23  24691329.05106    358570.25106     -3555.85506        39.40006  24691340.74304   1033685.34604     -2655.26904        29.40004
G32  22887548.58306   -172754.98406      1909.40706        37.70006  22887558.77604    -62918.32104      1425.86704        28.50004
G02  20669607.83106    -50963.15406       658.49606        37.30006                                                                
G14  23643703.40824   -173792.01124      1834.20524        27.20024                                                                
R08  20518867.08707   5174514.01107      -762.09107        43.90007
R24  19463662.98906   3344096.30306       601.64606        41.40006
C33  22901781.82906     13910.87606       -23.43906        41.20006  22901810.60906     63371.02606       -17.58706        36.40006
E33  24314792.42206    238690.46006     -1615.22906        37.80006  24314807.71204    203643.68904     -1206.18304        28.50004
C28  21908764.58106    213031.23506     -1356.66006        38.00006  21908767.57905    152060.80805     -1013.01605        29.70005
C27  21670839.09306   -100388.75106      1083.58606        37.20006  21670842.99006    -14225.07206       809.26806        37.90006
C42  25896421.58305    280165.52705     -2847.05105        35.20005  25896424.58124    268835.55124     -2130.33424        25.10024
E29  26341241.64105    -67970.98605      1548.41505        34.40005  26341257.23005    301443.94305      1156.25305        34.20005
R01  20812366.00205   2277023.95705      3285.18005        34.30005
C41  23777841.64605   -258613.66805      2800.88805        34.00005  23777862.63105    -86926.89105      2091.74905        34.50005
E07  27347720.47005    107525.78405      -982.70105        32.50005  27347734.86005    132349.57105      -733.84105        32.90005
E12  23647091.66205     -5467.94005       910.17005        32.40005  23647099.15705    689262.83605       679.59505        35.10005
R17  22260976.64924 150924513.42324      3312.51524        28.70024
R16  23499138.68824   -294788.23024      2677.37724        29.20024
R15  21771947.09824  14491873.88024      -875.21524        26.70024
R23  22114441.99324 209810596.25024     -3116.13924        26.10024
E25  26286921.34613    -62500.35313      1499.26713        21.50013  26286928.54124    -55588.19524      1122.04324        26.40024
E16  24767374.70613    157739.50813     -1103.28013        21.10013  24767372.30813    611265.16113      -821.41913        21.20013
> 2026 04 21 13 35 50.9998641  0 26                      
G10  22186361.90408    234479.91808     -2265.49208        47.60008  22186377.19405    242377.71305     -1691.89905        33.20005
G08  20469518.25006    154091.35206     -1452.15606        41.00006  20469518.55006    181703.99706     -1084.41306        38.30006
G27  22275973.46706    330275.17306     -3240.26506        39.80006  22275977.96406    314606.21806     -2419.66406        36.30006
G23  24692020.67306    362125.53306     -3554.83206        39.30006  24692030.56605   1036340.29205     -2654.64205        29.60005
G02  20669493.91006    -51621.87406       658.97906        37.20006                                                                
G14  23643367.34024   -175623.48424      1832.03424        27.00024                                                                
G32  22887199.92406   -174664.69706      1909.95306        37.70006  22887208.91804    -64344.52104      1426.43604        28.90004
R08  20519020.28107   5175276.12207      -762.10407        44.10007
R24  19463559.86106   3343494.31606       602.24606        41.40006
C33  22901795.62006     13934.26706       -23.27606        41.10006  22901830.39606     63388.44006       -17.27806        36.40006
E33  24315113.80006    240305.15306     -1614.25706        37.90006  24315129.38904    204849.48304     -1205.48604        28.40004
C28  21909031.69606    214387.48806     -1355.90206        38.00006  21909040.69005    153073.82205     -1012.89105        29.60005
C27  21670652.62206   -101472.68106      1084.24706        37.30006  21670650.82406    -15034.49706       809.63006        37.80006
C42  25896977.69805    283012.17405     -2846.32405        35.20005  25896978.89714    270962.91314     -2131.93314        25.10014
E29  26340963.43305    -69519.58805      1548.84305        34.50005  26340976.32405    300287.51105      1156.62505        34.20005
R01  20811767.01605   2273738.51305      3285.66405        34.50005
C41  23777334.09705   -261414.96105      2801.59205        33.90005  23777345.48905    -89018.80805      2092.12705        34.50005
E07  27347911.73805    108508.40205      -982.45505        32.50005  27347938.11905    133083.24605      -733.50805        32.90005
E12  23646945.06305     -6378.42905       910.83105        32.30005  23646940.86605    688582.91405       680.20205        35.00005
R17  22260372.86724 150921204.67624      3312.69624        28.70024
R16  23498623.34424   -297465.37424      2677.66424        29.00024
R15  21772121.27724  14492750.02624      -873.46224        27.00024
R23  22115023.59124 209813713.00224     -3117.75724        26.10024
R07  23552803.03725  55906709.49125     -3865.57525        31.50025
E25  26286635.94413    -63993.16113      1501.16913        21.50013  26286657.82814    -56703.76414      1120.77314        26.30014
E16  24767608.84413    158838.19013     -1103.15213        21.00013  24767592.05613    612075.13213      -807.49413        21.10013
> 2026 04 21 13 35 51.9998625  0 26                      
G10  22186790.90708    236747.32208     -2268.23308        47.50008  22186805.89705    244070.89505     -1693.77105        33.00005
G08  20469791.06106    155545.56706     -1455.15206        40.90006  20469792.56006    182789.93606     -1086.63606        38.30006
G27  22276585.04406    333517.31206     -3242.94206        39.90006  22276591.34006    317027.25106     -2421.61106        36.30006
G23  24692686.21206    365682.15506     -3557.29706        39.20006  24692705.99805   1038996.27405     -2656.50305        29.60005
G32  22886829.68006   -176572.75306      1907.23006        37.70006  22886843.77104    -65769.30104      1424.07204        29.00004
G02  20669357.50406    -52278.96406       656.27606        37.20006                                                                
G14  23643025.57724   -177452.03224      1825.34024        26.90024                                                                
R08  20519158.18507   5176040.51807      -765.54207        44.20007
R24  19463448.03806   3342894.09606       599.33706        41.40006
C33  22901797.71806     13959.52706       -26.19306        41.10006  22901831.29506     63407.28406       -19.55806        36.30006
E33  24315412.09306    241921.35106     -1616.95306        37.90006  24315412.39324    206056.85324     -1206.65924        28.30024
C28  21909289.81706    215745.57706     -1359.01006        37.90006  21909295.21315    154087.84915     -1014.53615        29.60015
C27  21670441.56806   -102554.95206      1081.44206        37.60006  21670441.56806    -15842.72506       807.63106        37.80006
C42  25897513.12805    285860.44605     -2849.08805        35.10005  25897522.12124    273089.85324     -2130.73224        25.00024
E29  26340660.64305    -71066.58205      1546.19305        34.70005  26340679.53005    299132.34605      1154.53305        34.20005
R01  20811143.74805   2270455.06905      3282.44905        34.60005
C41  23776788.77505   -264214.64505      2798.88505        33.80005  23776807.06205    -91109.43205      2089.98105        34.40005
E12  23646757.09405     -7287.33105       908.10805        32.30005  23646764.58805    687904.18505       678.13405        35.00005
E07  27348103.30505    109492.57405      -984.95005        32.40005  27348121.29205    133818.30605      -735.75405        32.90005
R17  22259766.68724 150917896.78924      3305.71224        28.90024
R16  23498122.99124   -300135.60024      2668.27224        28.90024
R23  22115599.19224 209816829.40524     -3114.98324        27.00024
R07  23553518.34125  55910579.61825     -3872.34525        30.60025
R15  21772270.87324  14493627.60024      -877.54124        27.00024
E25  26286367.32913    -65490.94813      1504.27913        21.40013  26286370.92724    -57816.77124      1118.22824        26.30024
E16  24767789.61913    159930.94213     -1104.28813        20.90013  24767792.31713    612887.15713      -813.55313        21.00013
> 2026 04 21 13 35 52.9998609  0 26                      
G10  22187235.20007    239014.10707     -2266.48007        47.40007  22187252.58805    245763.60505     -1692.47805        32.80005
G08  20470077.66306    156999.29706     -1453.48906        40.90006  20470083.95906    183875.50306     -1085.38306        38.30006
G27  22277218.20606    336758.69506     -3241.01006        39.90006  22277223.90206    319447.78406     -2420.28706        36.30006
G23  24693379.03206    369237.96506     -3555.41006        39.20006  24693396.72005   1041652.48305     -2654.82805        29.60005
G32  22886482.52106   -178481.19706      1908.64206        37.70006  22886492.71404    -67194.48004      1425.38104        29.00004
G02  20669254.97506    -52936.80706       658.22106        37.10006                                                                
G14  23642685.61224   -179281.57024      1827.53524        26.80024                                                                
R08  20519315.27707   5176804.68907      -764.05907        44.20007
R24  19463350.00606   3342293.40306       600.93106        41.40006
C33  22901821.10206     13984.30706       -24.54106        41.00006  22901850.18206     63425.78006       -18.32206        36.30006
E33  24315733.77106    243536.65206     -1614.85606        37.90006  24315754.756 4    207262.685 4     -1201.065 4        28.300 4
C27  21670247.00306   -103638.06506      1083.53706        37.80006  21670250.30106    -16651.49206       809.03806        37.70006
C28  21909570.42306    217102.81706     -1356.81806        37.90006  21909570.42325    155102.30725     -1014.67425        29.60025
C42  25898073.14005    288707.89105     -2847.03605        35.10005  25898075.83814    275215.71414     -2124.82514        24.90014
E29  26340390.83005    -72614.04905      1547.70605        34.90005  26340399.82405    297976.67005      1155.93405        34.20005
R01  20810541.46505   2267171.16705      3284.13705        34.70005
C41  23776270.73305   -267014.99805      2800.69105        33.70005  23776289.32005    -93200.59005      2091.42905        34.40005
E12  23646601.20205     -8197.20705       910.36505        32.30005  23646606.29805    687224.81505       679.69205        35.00005
E07  27348290.37505    110476.28205      -983.47805        32.40005  27348323.35305    134552.81905      -734.24005        32.80005
R17  22259147.61624 150914588.41324      3306.37624        29.00024
R16  23497650.51824   -302806.40924      2672.85424        28.70024
R23  22116201.47524 209819945.16324     -3113.44124        27.50024
R07  23554258.82925  55914450.61925     -3871.94625        30.00025
R15  21772439.95624  14494507.62524      -882.50224        27.00024
E25  26286096.91713    -66991.38413      1503.76413        21.30013  26286102.01324    -58931.26324      1112.23524        26.20024
E16  24768009.66713    161025.02013     -1101.24413        20.80013  24768014.46313    613694.92313      -805.13813        21.00013
> 2026 04 21 13 35 53.9998593  0 26                      
G10  22187646.21507    241280.67307     -2266.46007        47.40007  22187641.71815    247456.28615     -1692.66815        32.60015
G08  20470334.88506    158452.93006     -1453.58606        40.90006  20470338.78206    184960.98306     -1085.43906        38.40006
G27  22277814.49306    339999.81206     -3240.99006        40.00006  22277818.99006    321868.11906     -2420.23906        36.30006
G23  24694030.18206    372793.21706     -3554.97906        39.10006  24694054.16505   1044307.35305     -2654.70405        29.80005
G32  22886093.69006   -180389.80606      1908.69406        37.70006  22886109.27904    -68619.76804      1425.34404        29.30004
G02  20669105.97906    -53594.84606       658.13706        37.10006                                                                
G14  23642332.45724   -181111.27524      1830.79224        26.70024                                                                
R08  20519436.09307   5177569.27207      -764.79007        44.20007
R24  19463216.89806   3341692.48806       601.02706        41.30006
C33  22901799.21706     14009.06206       -24.74306        41.00006  22901832.79406     63444.33406       -18.58206        36.30006
C28  21909797.06606    218459.80106     -1356.85806        37.90006  21909807.25905    156115.57905     -1017.18105        29.60005
E33  24316017.97406    245151.53306     -1614.67306        37.90006  24316042.25704    208467.58404     -1207.43404        28.20004
C27  21670017.96206   -104721.26206      1083.24106        37.80006  21670022.15906    -17460.41706       809.00506        37.70006
E29  26340073.94905    -74161.80405      1547.90105        35.10005  26340083.54305    296820.87005      1155.86305        34.10005
C42  25898584.88605    291555.15405     -2847.17605        35.10005  25898593.28014    277341.52014     -2126.78114        24.80014
R01  20809902.30705   2263887.35805      3283.76805        34.80005
C41  23775719.11505   -269815.55405      2800.66305        33.70005  23775735.30405    -95292.00905      2091.55205        34.40005
E12  23646410.53425     -9107.20225       911.55725        32.40025  23646409.93405    686545.19405       679.74705        35.00005
E07  27348460.95705    111459.84805      -983.49705        32.30005  27348488.83805    135287.30905      -734.48005        32.80005
R17  22258512.05624 150911278.28724      3311.75724        29.10024
R16  23497093.80324   -305477.60524      2668.39424        28.60024
R23  22116777.37724 209823059.88124     -3114.95224        27.60024
R07  23554958.84425  55918321.22325     -3873.16125        29.60025
R15  21772596.74824  14495389.08124      -878.17324        27.00024
E25  26285795.62513    -68481.79613      1491.40113        21.30013  26285797.72414    -60044.20114      1116.66414        26.20014
E16  24768184.44613    162117.34013     -1094.94313        20.70013  24768198.83613    614506.66913      -807.73813        20.90013
> 2026 04 21 13 35 54.9998577  0 26                      
G10  22188073.71907    243548.13907     -2267.92007        47.30007  22188068.02305    249149.43205     -1693.38205        32.40005
G27  22278427.26906    343241.76506     -3242.37606        40.00006  22278432.66506    324289.04606     -2421.22706        36.30006
G23  24694702.61606    376348.98906     -3556.03706        39.00006  24694727.19905   1046962.79105     -2655.72605        29.80005
G32  22885729.44206   -182297.57406      1907.35006        37.70006  22885743.23304    -70044.32004      1424.18804        29.40004
G02  20668977.66706    -54252.05006       656.78706        37.10006                                                                
G14  23641988.59524   -182939.36324      1825.78224        26.60024                                                                
G08  20470609.79506    159907.67206     -1455.30006        40.90006  20470611.89306    186047.31006     -1086.75206        38.40006
R08  20519581.49207   5178335.19607      -766.59707        44.20007
R24  19463100.87906   3341092.53406       599.47406        41.30006
C33  22901805.51306     14034.98106       -26.50006        41.00006  22901834.59306     63463.67406       -19.73506        36.20006
C27  21669806.90806   -105803.82906      1082.25306        37.90006  21669812.30406    -18268.69006       807.94906        37.70006
C28  21910052.78906    219817.71106     -1358.37606        37.90006  21910058.18505    157129.63805     -1012.95405        29.60005
E33  24316325.86106    246767.11906     -1615.94206        37.90006  24316345.34704    209674.05404     -1206.75804        28.10004
C42  25899120.91505    294403.09405     -2848.28505        35.20005  25899138.30314    279466.09714     -2135.46714        24.70014
E29  26339775.65605    -75708.71105      1546.48505        35.20005  26339785.54905    295665.76405      1154.76205        34.10005
R01  20809291.03005   2260604.56005      3282.29805        34.90005
C41  23775185.78405   -272615.33805      2799.40305        33.60005  23775199.27505    -97382.61105      2090.19805        34.40005
E07  27348635.13705    112444.39505      -985.04005        32.30005  27348671.41205    136022.54005      -735.60405        32.90005
R17  22257883.99024 150907970.12724      3310.18224        29.30024
R16  23496604.54224   -308148.02324      2673.03324        28.50024
R23  22117343.98424 209826174.94524     -3115.99324        27.90024
R07  23555677.14724  55922192.18924     -3871.65224        29.30024
R15  21772760.73424  14496270.38924      -882.48524        27.00024
E25  26285509.02413    -69973.25513      1483.48413        21.60013  26285509.62324    -61157.85324      1115.51024        26.10024
E16  24768399.39713    163205.61813     -1086.75813        20.70013  24768400.89613    615318.38513      -809.20113        20.90013
E12  23646234.25605    -10016.51105       908.46605        32.40005  23646234.55505    685866.15205       678.75405        35.00005
> 2026 04 21 13 35 55.9998561  0 26                      
G10  22188531.80207    245813.94907     -2264.98607        47.30007  22188523.10805    250840.50605     -1691.54105        32.10005
G08  20470911.98506    161360.93406     -1452.52306        40.80006  20470914.98306    187132.54506     -1084.69006        38.40006
G27  22279073.02206    346482.00406     -3239.38606        40.10006  22279075.12006    326708.68906     -2419.00606        36.30006
G32  22885393.97406   -184206.72006      1909.83806        37.70006  22885407.16505    -71469.97705      1426.21105        29.50005
G02  20668880.83406    -54910.90106       661.17706        37.10006                                                                
G14  23641683.70624   -184768.23024      1826.00924        26.60024                                                                
G23  24695404.13006    379902.96706     -3553.08606        38.90006  24695427.81405   1049616.63505     -2653.05105        29.80005
R08  20519743.68007   5179100.01207      -764.26307        44.30007
R24  19463019.63506   3340491.12106       602.14306        41.30006
C33  22901835.19206     14059.42306       -23.70406        40.90006  22901866.37106     63481.91006       -17.68306        36.20006
C27  21669624.33406   -106887.85006      1084.75106        38.00006  21669633.02806    -19078.33506       810.33106        37.70006
C28  21910342.68806    221173.83806     -1355.23706        37.90006  21910345.38605    158142.40305     -1012.12005        29.80005
E33  24316656.83206    248380.83806     -1612.78706        37.90006  24316658.33124    210879.03024     -1204.23124        28.10024
C42  25899688.42205    297249.42405     -2845.52705        35.30005  25899709.70714    281592.20614     -2136.37814        24.50014
E29  26339505.54305    -77257.20305      1549.28705        35.30005  26339517.83405    294509.42705      1156.95305        34.10005
R01  20808696.24205   2257320.51705      3284.67105        35.10005
C41  23774674.33805   -275416.80105      2802.30505        33.60005  23774691.72605    -99474.64105      2092.74705        34.50005
E12  23646080.76205    -10928.05605       912.66505        32.50005  23646086.75805    685185.71405       681.13805        35.00005
E07  27348852.78605    113427.68705      -979.66605        32.20005  27348886.06305    136756.56605      -733.42405        33.00005
R17  22257288.30324 150904658.98924      3310.88224        29.40024
R23  22117952.26324 209829289.42224     -3113.18624        28.20024
R16  23496141.06324   -310817.79524      2669.45324        28.40024
R07  23556442.81724  55926062.13324     -3869.68924        29.00024
R15  21772900.43824  14497149.54824      -882.58624        26.90024
E25  26285247.90413    -71466.56113      1491.73313        22.40013  26285250.00324    -62273.24324      1116.76124        26.10024
E16  24768602.95613    164291.60213     -1082.33913        20.60013  24768634.43413    616125.97713      -801.03213        20.80013
> 2026 04 21 13 35 56.9998546  0 26                      
G10  22188938.32107    248079.26507     -2265.07207        47.30007  22188935.32305    252532.08905     -1691.33905        31.90005
G27  22279666.01106    349721.64106     -3239.34306        40.10006  22279669.30906    329127.89206     -2418.98706        36.40006
G23  24696068.77006    383456.03306     -3552.61706        38.90006  24696082.56105   1052268.86205     -2652.92305        29.80005
G32  22885013.53806   -186116.36206      1909.89406        37.70006  22885019.53405    -72896.03105      1426.25405        29.60005
G02  20668728.84006    -55570.29806       659.17006        37.10006                                                                
G14  23641318.55924   -186598.62124      1836.15724        26.60024                                                                
G08  20471171.90506    162813.76106     -1452.61306        40.80006  20471168.90806    188217.48606     -1084.79706        38.40006
R08  20519867.79407   5179864.79007      -764.76007        44.30007
R24  19462885.62806   3339889.09306       602.33606        41.30006
C33  22901815.10606     14083.56006       -23.98406        40.90006  22901849.58206     63499.99106       -18.00406        36.10006
C27  21669407.88406   -107972.60706      1085.12506        38.00006  21669404.88606    -19888.32606       810.16506        37.80006
C28  21910570.83006    222529.49506     -1355.42406        37.90006  21910580.42405    159154.66205     -1012.00705        29.80005
E33  24316940.43506    249993.80406     -1612.59206        37.80006  24316945.53224    212083.27924     -1203.88724        28.00024
E29  26339188.96205    -78806.25605      1549.33505        35.30005  26339200.05405    293352.66305      1156.98005        34.10005
C42  25900209.16105    300095.07505     -2845.31805        35.40005  25900222.95214    283715.80014     -2122.34014        24.30014
R01  20808058.28405   2254035.99705      3284.76505        35.10005
C41  23774121.52105   -278218.83305      2802.32205        33.60005  23774136.21105   -101567.08505      2092.65405        34.50005
E12  23645885.59725    -11839.53125       912.94125        32.50025  23645891.59305    684504.80705       681.14105        35.20005
E07  27349029.06425    114409.70825      -980.88825        32.20025  27349050.64905    137490.24605      -733.50805        33.00005
R17  22256645.84825 150901347.85325      3310.64025        29.60025
R23  22118501.48324 209832402.71724     -3112.21124        28.30024
R07  23557157.82224  55929931.65724     -3869.07024        28.80024
R16  23495620.32324   -313490.55724      2674.01224        28.30024
R15  21773109.99324  14498026.00024      -872.10024        26.90024
E25  26284962.20213    -72960.25213      1496.88513        23.20013  26284943.91504    -63388.64304      1116.40704        26.20004
E16  24768823.60313    165375.49413     -1081.84713        20.60013  24768820.60513    616931.66813      -803.74113        19.30013
> 2026 04 21 13 35 57.9998530  0 26                      
G10  22189367.32407    250343.97907     -2264.41707        47.20007  22189358.33025    254223.35625     -1691.11325        31.60025
G08  20471444.41706    164266.19606     -1452.24106        40.70006  20471442.31806    189302.08906     -1084.43506        38.50006
G27  22280284.18306    352960.57006     -3238.57906        40.10006  22280281.48506    331546.59006     -2418.44906        36.40006
G23  24696730.41206    387008.26906     -3551.82506        38.80006  24696756.49415   1054921.50815     -2652.36015        29.80015
G02  20668600.82806    -56230.43206       660.50406        37.10006                                                                
G14  23640966.00324   -188429.44124      1830.53724        26.50024                                                                
G32  22884640.59606   -188026.47806      1910.35606        37.80006  22884653.78705    -74322.40505      1426.53705        29.60005
R08  20520007.79707   5180629.41807      -764.55507        44.30007
R24  19462764.21206   3339286.54206       602.81406        41.30006
C33  22901817.50506     14107.33306       -23.59206        40.80006  22901851.08106     63517.71706       -17.54806        36.10006
C27  21669193.83206   -109058.05606      1085.79806        38.10006  21669194.73206    -20698.86006       810.80706        37.80006
C28  21910832.24906    223884.32706     -1354.42206        37.90006  21910837.94505    160166.55105     -1011.70505        30.20005
E33  24317248.62206    251606.06106     -1611.90506        37.80006  24317251.92004    213286.53704     -1204.26404        27.90004
E29  26338883.17406    -80355.84606      1549.86106        35.50006  26338903.26005    292195.49305      1157.37405        34.00005
C42  25900755.68305    302939.95305     -2844.49505        35.40005  25900758.38114    285838.89614     -2125.85014        24.30014
R01  20807445.50805   2250751.03805      3285.18305        35.20005
C41  23773579.19605   -281021.29305      2802.67805        33.60005  23773600.18205   -103659.89505      2092.99705        34.60005
E12  23645716.51405    -12752.08105       912.58905        32.50005  23645715.01505    683823.37505       681.69605        35.20005
E07  27349193.65005    115391.81505      -982.65105        32.10005  27349234.12205    138223.48405      -733.01805        33.10005
R17  22256046.86225 150898035.58125      3313.84525        29.80025
R07  23557875.22524  55933800.67624     -3864.27324        28.80024
R23  22119104.06624 209835515.02224     -3112.81424        28.60024
R16  23495105.58024   -316164.15124      2675.51524        28.20024
R15  21773277.57624  14498908.33224      -885.02424        26.90024
E25  26284663.90904    -74453.32504      1492.26704        23.60004  26284657.61304    -64504.69704      1115.88204        26.60004
E16  24769022.66513    166454.61913     -1075.74313        20.50013  24769026.56313    617751.94113      -831.56513        18.90013
> 2026 04 21 13 35 58.9998515  0 26                      
G10  22189806.22007    252607.63407     -2263.12807        47.10007  22189797.52625    255913.87025     -1690.14025        31.40025
G08  20471723.22406    165717.71606     -1451.06506        40.70006  20471726.82106    190385.96906     -1083.52106        38.50006
G27  22280901.15606    356198.34706     -3237.20606        40.10006  22280907.15206    333964.40006     -2417.37006        36.50006
G32  22884285.04206   -189937.54006      1911.53606        37.90006  22884299.43205    -75749.55605      1427.54005        29.80005
G02  20668484.50906    -56891.58006       661.65606        37.00006                                                                
G14  23640616.44524   -190261.68224      1829.70424        26.50024                                                                
G23  24697420.23506    390559.04606     -3550.05306        38.70006  24697440.32105   1057574.07805     -2651.03605        29.80005
R08  20520157.39407   5181393.50507      -763.81607        44.30007
R24  19462659.28406   3338683.03206       603.99006        41.30006
C33  22901830.99506     14130.23306       -22.46306        40.80006  22901863.37306     63534.80706       -16.77206        36.00006
C27  21668995.96906   -110144.59506      1087.08606        38.20006  21668996.56906    -21510.21806       811.77206        37.80006
C28  21911095.46706    225238.13406     -1353.29606        37.90006  21911103.56205    161177.47105     -1010.43705        30.40005
E33  24317553.21106    253216.76206     -1609.92606        37.80006  24317578.69304    214489.40804     -1202.18004        27.90004
E29  26338605.56606    -81906.45506      1551.12006        35.70006  26338615.45905    291037.54405      1158.34105        34.00005
C42  25901296.80806    305783.78506     -2843.31306        35.50006  25901308.50014    287963.16214     -2127.85414        24.20014
R01  20806830.63405   2247465.42705      3285.94205        35.20005
C41  23773062.65405   -283825.14105      2804.54605        33.50005  23773074.94605   -105753.61105      2094.17205        34.60005
E12  23645542.63405    -13665.88505       914.43105        32.50005  23645548.93005    683140.96905       682.89505        35.30005
E07  27349402.30605    116372.68905      -981.75905        32.10005  27349427.18805    138956.05205      -732.23505        33.10005
R17  22255420.89625 150894721.98125      3313.27025        29.90025
R07  23558602.52224  55937667.89724     -3867.82924        29.20024
R23  22119684.16424 209838625.13924     -3107.27724        28.80024
R16  23494620.21624   -318837.25924      2675.36824        28.10024
R15  21773458.05224  14499792.28624      -887.26724        26.90024
E25  26284381.20404    -75949.46304      1497.67204        23.90004  26284383.30314    -65622.44814      1115.60314        26.60014
E16  24769265.79713    167528.50813     -1070.27313        20.40013  24769237.01713    618564.20913      -817.76813        19.30013
> 2026 04 21 13 35 59.9998500  0 26                      
G10  22190226.22907    254869.93407     -2261.62707        47.10007  22190243.91705    257602.98405     -1688.41605        31.10005
G27  22281507.03706    359434.69706     -3235.64106        40.10006  22281513.33206    336381.17406     -2416.26006        36.60006
G08  20471992.43706    167168.05106     -1449.74506        40.60006  20471992.13806    191469.01306     -1082.62606        38.50006
G23  24698085.77406    394108.18506     -3548.32506        38.60006  24698102.56205   1060224.45805     -2649.78805        29.80005
G32  22883911.50106   -191849.98206      1913.13606        37.90006  22883925.29105    -77177.60205      1428.49605        29.80005
G02  20668350.50206    -57554.13806       663.26306        37.00006                                                                
G14  23640256.69424   -192092.96524      1828.80624        26.50024                                                                
R08  20520290.20207   5182156.70607      -762.76007        44.30007
R24  19462541.16606   3338078.30906       605.33106        41.30006
C33  22901821.40206     14151.98706       -21.18206        40.80006  22901857.97706     63551.09806       -15.89206        36.00006
C27  21668779.51906   -111232.53206      1088.63806        38.30006  21668778.91906    -22322.59506       812.88806        37.80006
C28  21911343.39606    226590.55306     -1351.72706        37.90006  21911349.09205    162187.40405     -1009.44105        30.40005
E33  24317854.80206    254826.14806     -1608.73006        37.80006  24317868.29324    215690.83724     -1200.71024        27.90024
E29  26338297.97906    -83458.49006      1552.75106        35.80006  26338310.57005    289878.60205      1159.44105        34.00005
C42  25901831.33806    308626.15206     -2841.63906        35.50006  25901838.23314    290085.49614     -2116.87114        24.10014
R01  20806217.25805   2244178.42705      3287.69905        35.20005
C41  23772512.83505   -286630.18605      2805.64705        33.50005  23772531.12205   -107848.34305      2095.24205        34.70005
E12  23645358.26205    -14581.23705       916.12805        32.50005  23645365.15705    682457.46805       684.04905        35.30005
E07  27349572.58805    117352.94705      -979.45105        32.00005  27349604.66605    139687.68105      -731.16105        33.20005
R17  22254790.73225 150891406.60025      3318.77525        30.00025
R07  23559313.92925  55941534.35125     -3866.82625        29.70025
R23  22120236.38224 209841734.42324     -3108.62424        29.20024
R16  23494098.87724   -321514.56724      2676.16324        28.00024
R15  21773565.97724  14500670.14624      -872.56424        26.90024
E25  26284088.00714    -77445.58514      1499.11614        24.30014  26284088.60704    -66740.16604      1117.20204        26.60004
E16  24769451.96813    168606.64713     -1065.76613        20.40013  24769433.38113    619372.97013      -808.00913        19.40013
> 2026 04 21 13 36 00.9998485  0 26                      
G10  22190663.62607    257122.88307     -2248.27607        47.00007  22190652.53405    259285.54405     -1679.28505        30.90005
G08  20472275.44206    168609.16606     -1436.50706        40.60006  20472275.14206    192545.24906     -1072.83406        38.60006
G27  22282130.90506    362661.62906     -3222.22706        40.20006  22282135.70106    338790.95506     -2406.28806        36.70006
G23  24698770.80006    397647.86706     -3534.95906        38.50006  24698782.79105   1062867.63505     -2639.58105        29.80005
G32  22883558.94506   -193771.60106      1926.20906        37.90006  22883568.23805    -78612.61105      1438.49305        29.90005
G02  20668228.78606    -58226.15406       676.74706        37.00006                                                                
G14  23639915.53024   -193934.32924      1848.90824        26.60024                                                                
R08  20520439.19807   5182911.03507      -749.89407        44.30007
R24  19462432.04206   3337464.17606       618.83806        41.30006
C33  22901832.49406     14164.65906        -8.13106        40.70006  22901868.46906     63560.54406        -6.02306        36.00006
C27  21668584.05406   -112329.73806      1101.84206        38.50006  21668578.65806    -23141.98906       822.90306        37.90006
C28  21911605.71406    227933.67206     -1338.47206        38.00006  21911612.30905    163190.34305      -999.44305        30.60005
E33  24318168.68506    256425.84706     -1594.85806        37.70006  24318182.475 4    216884.933 4     -1191.930 4        27.800 4
E29  26338011.97706    -85019.96006      1566.19106        36.00006  26338022.17005    288712.69005      1169.39905        34.00005
C42  25902376.36106    311459.14106     -2828.30406        35.50006  25902388.65214    292201.34214     -2113.60514        24.10014
R01  20805597.88705   2240882.37205      3300.58805        35.20005
C41  23771990.59605   -289444.77605      2819.36805        33.50005  23772001.68905   -109950.08505      2105.25005        34.70005
E12  23645196.07405    -15505.96105       929.41105        32.40005  23645197.87305    681766.87605       694.13905        35.30005
E07  27349768.05225    118322.76525      -964.59925        32.00025  27349798.63105    140412.32405      -721.15005        33.30005
R07  23560040.92625  55945391.01425     -3852.27325        30.30025
R17  22254177.65625 150888081.88125      3331.64325        30.20025
R23  22120835.96725 209844834.74325     -3095.34225        29.60025
R16  23493595.82524   -324198.34924      2687.02124        27.90024
R15  21773764.14024  14501543.29924      -869.80224        26.80024
E25  26283816.99504    -78952.36804      1514.11604        24.50004  26283808.60104    -67864.81604      1128.61704        26.70004
E16  24769697.49813    169661.99913     -1050.45913        20.30013  24769647.13313    620176.14213      -800.37813        19.40013
> 2026 04 21 13 36 01.9998470  0 26                      
G10  22191098.32507    259377.11207     -2254.87207        46.90007  22191092.92925    260968.59425     -1683.29825        30.60025
G27  22282753.87306    365889.81706     -3228.82206        40.20006  22282758.37006    341201.51306     -2410.95006        36.90006
G08  20472553.04906    170051.74306     -1443.31006        40.50006  20472558.14606    193622.48506     -1077.73806        38.60006
G32  22883192.29906   -195691.94306      1919.70706        38.00006  22883208.78705    -80046.55005      1433.40705        30.00005
G02  20668106.17106    -58896.71606       669.83506        37.00006                                                                
G14  23639559.97624   -195775.88824      1841.90924        26.80024                                                                
G23  24699448.33106    401188.29706     -3540.81006        38.50006  24699464.51905   1065511.40905     -2644.07605        29.90005
R08  20520586.99607   5183667.17807      -757.05207        44.30007
R24  19462323.21706   3336851.36406       612.15306        41.30006
C33  22901842.68706     14178.74806       -14.79806        40.70006  22901879.86106     63571.04806       -11.03306        35.90006
C27  21668381.09506   -113425.82806      1095.53306        38.70006  21668378.09706    -23960.54206       818.13306        37.90006
C28  21911872.82906    229277.90606     -1344.79306        38.10006  21911877.32605    164194.06405     -1004.11505        30.70005
E33  24318482.26806    258026.60206     -1601.28506        37.60006  24318490.06304    218080.18804     -1195.33704        27.90004
E29  26337722.37706    -86579.90706      1559.18706        36.20006  26337732.57005    287547.70105      1164.52905        34.00005
C42  25902919.58506    314293.28106     -2834.72006        35.50006  25902934.27514    294316.81714     -2118.29314        24.10014
R01  20804985.71105   2237587.78605      3293.85605        35.20005
C41  23771460.86305   -292258.00305      2812.54805        33.50005  23771475.55305   -112050.93805      2100.41305        34.70005
E12  23645026.99105    -16429.80105       923.39905        32.40005  23645029.39005    681077.04005       689.45905        35.40005
E07  27349960.51905    119294.79905      -973.14505        32.00005  27349991.69805    141137.96105      -726.13605        33.30005
R07  23560775.41725  55949249.29425     -3859.59525        30.70025
R17  22253566.08025 150884757.85425      3322.68725        30.30025
R23  22121411.56825 209847935.95825     -3100.41625        29.90025
R16  23493123.35224   -326879.45624      2680.77424        27.80024
R15  21773925.12824  14502415.55624      -876.80924        26.80024
E25  26283520.20014    -80456.43814      1507.71614        24.70014  26283528.89404    -68988.66004      1123.44404        26.80004
E16  24769896.26113    170704.59313     -1047.71713        20.20013  24769858.18713    620974.76513      -795.85113        19.40013
> 2026 04 21 13 36 02.9998455  0 26                      
G10  22191534.82307    261629.22707     -2251.06207        46.80007  22191527.928 5    262650.429 5     -1673.729 5        30.300 5
G27  22283379.24006    369115.72506     -3224.77206        40.40006  22283380.73906    343610.52706     -2408.24606        37.10006
G08  20472837.85206    171492.39106     -1439.68606        40.50006  20472839.65106    194698.24306     -1075.02006        38.60006
G32  22882834.34606   -197614.11806      1923.09406        38.00006  22882852.03405    -81482.04005      1436.26705        30.10005
G23  24700130.35806    404726.31806     -3536.82006        38.40006  24700148.04625   1068153.90525     -2644.86125        30.10025
G02  20667987.45306    -59569.73006       674.24106        37.00006                                                                
G14  23639232.90224   -197617.63424      1841.59224        26.80024                                                                
R08  20520740.49007   5184421.46907      -753.36607        44.30007
R24  19462220.08806   3336236.41106       616.02406        41.20006
C33  22901859.47506     14190.89506       -11.17606        40.60006  22901890.05406     63580.17306        -8.43506        35.90006
C27  21668182.63206   -114524.18006      1099.48506        38.90006  21668177.53606    -24780.68806       820.94406        37.90006
C28  21912139.94406    230619.92006     -1340.90606        38.20006  21912140.54405    165196.35405     -1001.57505        30.70005
E33  24318790.15506    259624.98406     -1597.19806        37.60006  24318807.24304    219273.85804     -1192.87904        28.40004
E29  26337433.07706    -88142.05806      1563.25506        36.30006  26337443.57005    286381.16205      1167.31505        34.10005
C42  25903468.50506    317125.17506     -2830.77406        35.50006  25903481.39614    296431.09714     -2115.68614        24.40014
R01  20804387.92505   2234291.19705      3297.59505        35.20005
C41  23770932.62905   -295073.50405      2816.64405        33.50005  23770947.91805   -114153.35005      2103.19305        34.60005
E12  23644852.51205    -17355.94205       927.29205        32.50005  23644861.80605    680385.61905       692.21405        35.40005
E07  27350161.38025    120264.29625      -965.22825        31.90025  27350184.76405    141862.11005      -723.40705        33.30005
R07  23561506.91125  55953104.83125     -3854.67125        31.10025
R17  22252949.10725 150881431.08125      3327.40025        30.50025
R23  22122017.74925 209851034.60025     -3098.61125        30.20025
R15  21774111.29924  14503286.83024      -867.03524        27.10024
R16  23492628.09524   -329565.73724      2684.87224        27.70024
E25  26283252.18604    -81963.26004      1503.20004        24.80004  26283250.68704    -70113.99004      1126.07304        26.80004
E16  24770110.61213    171750.03813     -1041.37213        20.00013  24770071.33913    621773.80613      -796.25013        19.30013
> 2026 04 21 13 36 03.9998440  0 26                      
G10  22191956.33107    263881.48707     -2252.33607        46.70007  22191944.63925    264332.94825     -1685.36425        30.10025
G27  22283984.22206    372341.73506     -3226.06706        40.50006  22283983.32206    346019.53006     -2409.00106        37.20006
G08  20473099.27106    172933.27706     -1441.00706        40.40006  20473104.36806    195774.24206     -1076.12106        38.60006
G23  24700794.39906    408264.30606     -3537.97706        38.30006  24700811.18705   1070795.50805     -2641.66005        30.10005
G02  20667844.15206    -60242.48206       672.62206        37.00006                                                                
G14  23638866.85624   -199461.19024      1845.21324        26.80024                                                                
G32  22882457.50706   -199536.20206      1922.04106        38.00006  22882476.99405    -82917.35205      1435.22405        30.10005
R08  20520871.79907   5185176.60407      -755.55807        44.30007
R24  19462091.47706   3335621.61206       614.72406        41.20006
C33  22901842.08806     14203.41506       -12.70706        40.60006  22901881.96006     63589.53406        -9.47906        35.80006
C27  21667958.68706   -115622.33806      1098.06306        39.00006  21667958.38706    -25600.81006       820.11206        37.90006
C28  21912378.27906    231962.11406     -1342.28606        38.20006  21912383.97505    166198.57805     -1002.19305        30.70005
E33  24319081.25306    261223.48306     -1598.56106        37.60006  24319101.93904    220467.47004     -1193.58604        28.50004
E29  26337127.88906    -89704.10706      1562.00106        36.40006  26337135.38305    285214.73005      1166.38105        34.10005
C42  25904000.63606    319957.07206     -2831.90306        35.50006  25904012.32814    298547.85314     -2116.99714        24.40014
R01  20803758.96005   2230995.07805      3295.89005        35.20005
C41  23770387.90605   -297888.70305      2815.05105        33.50005  23770402.89505   -116255.70805      2102.33505        34.50005
E12  23644672.63705    -18281.63805       925.47605        32.60005  23644675.63505    679694.11805       691.54205        35.40005
E07  27350327.76505    121234.27405      -971.22105        31.90005  27350359.24305    142586.39305      -724.35105        33.40005
R07  23562224.01525  55956961.00025     -3856.24025        31.30025
R17  22252311.44825 150878104.31025      3324.77525        30.60025
R23  22122580.45925 209854133.36725     -3097.83425        30.40025
R15  21774258.79724  14504158.47824      -871.08624        27.10024
R16  23492093.56524   -332257.00824      2697.27024        27.60024
E25  26282942.80004    -83470.85104      1511.97704        25.00004  26282952.99314    -71239.06314      1124.94714        26.80014
E16  24770289.58813    172784.05713     -1036.30813        19.80013  24770271.90013    622577.86613      -798.57113        19.30013
> 2026 04 21 13 36 04.9998425  0 26                      
G10  22192391.63007    266135.92607     -2255.53207        46.70007  22192382.93615    266016.13115     -1686.51715        29.80015
G27  22284604.19206    375569.82406     -3229.13406        40.60006  22284605.99106    348430.10106     -2411.35806        37.30006
G08  20473378.07806    174376.56006     -1444.48306        40.40006  20473387.37206    196851.95106     -1078.56606        38.60006
G32  22882105.25106   -201455.93106      1918.55506        38.10006  22882119.64105    -84350.86605      1432.61805        30.10005
G23  24701475.82706    411804.07106     -3540.66006        38.30006  24701494.41405   1073438.87005     -2643.74605        30.10005
G02  20667728.13206    -60913.15306       669.63106        37.00006                                                                
G14  23638517.89724   -201300.80424      1841.89624        27.00024                                                                
R08  20521019.89607   5185934.40307      -759.13207        44.40007
R24  19461986.25006   3335009.16906       611.26506        41.20006
C33  22901857.67706     14218.42206       -16.25006        40.60006  22901893.05206     63600.69806       -12.06606        35.80006
C27  21667765.02106   -116718.47906      1095.13406        39.20006  21667757.22706    -26419.28306       817.65006        38.00006
C28  21912645.69406    233306.30506     -1345.19006        38.20006  21912649.89105    167202.38305     -1004.59705        30.70005
E33  24319399.33306    262823.78106     -1601.20006        37.50006  24319404.43004    221662.45004     -1195.66604        28.50004
E29  26336840.68706    -91263.88506      1558.64606        36.50006  26336848.18205    284049.93005      1163.98505        34.10005
R01  20803163.27305   2227701.35705      3292.52605        35.40005
C42  25904539.66306    322791.15406     -2835.17806        35.50006  25904560.64914    300668.21614     -2122.17014        24.40014
C41  23769853.37605   -300701.92905      2812.24505        33.50005  23769875.56005   -118356.42505      2099.90005        34.40005
E12  23644502.95405    -19205.56805       923.04705        32.80005  23644507.15105    679004.16705       689.17605        35.40005
E07  27350527.12705    122206.53405      -973.40305        31.90005  27350552.90905    143312.36905      -726.82305        33.50005
R07  23562942.31725  55960819.03325     -3861.22125        31.60025
R17  22251700.17125 150874780.06825      3325.23325        30.70025
R23  22123162.35625 209857234.02425     -3102.60625        30.60025
R16  23491638.48024   -334939.59024      2681.99124        27.50024
R15  21774441.07124  14505032.16024      -872.20024        27.10024
E25  26282672.08804    -84975.36004      1506.47004        25.10004  26282676.28514    -72361.84414      1120.13714        26.80014
E16  24770480.25613    173826.97913     -1032.87513        19.60013  24770483.85413    623377.64913      -805.14613        19.50013
> 2026 04 21 13 36 05.9998410  0 26                      
G10  22192811.63907    268390.80507     -2255.10107        46.60007  22192801.74625    267698.46225     -1682.40825        29.50025
G27  22285206.77506    378798.30506     -3228.68206        40.60006  22285210.37306    350840.97506     -2411.02906        37.30006
G32  22881729.31106   -203375.19206      1919.03006        38.10006  22881745.50005    -85784.12905      1433.14005        30.20005
G23  24702143.46506    415344.03406     -3540.06606        38.20006  24702157.25505   1076082.35205     -2643.54705        30.10005
G02  20667583.63206    -61583.37006       669.99206        36.90006                                                                
G14  23638184.82824   -203140.48624      1837.46924        27.00024                                                                
G08  20473650.29006    175820.32506     -1444.00806        40.30006  20473651.78906    197930.16406     -1078.46606        38.70006
R08  20521147.90807   5186693.12407      -759.18207        44.40007
R24  19461862.43606   3334397.25306       611.65506        41.20006
C33  22901846.28506     14234.00606       -15.87306        40.50006  22901886.15706     63612.30606       -11.83006        35.70006
C27  21667542.87506   -117814.01306      1095.23206        39.40006  21667538.97806    -27237.49806       818.08706        38.10006
C28  21912891.82406    234651.11406     -1345.12106        38.30006  21912895.42105    168206.55405     -1004.35605        30.70005
E33  24319697.32706    264424.29606     -1600.62606        37.50006  24319708.41904    222857.66304     -1195.33104        28.50004
E29  26336528.00406    -92823.33306      1559.28506        36.60006  26336540.29505    282885.41305      1164.37805        34.10005
R01  20802537.00606   2224408.33006      3292.68506        35.60006
C42  25905071.79506    325625.62906     -2834.67706        35.50006  25905094.87914    302783.71114     -2117.56414        24.30014
C41  23769308.65305   -303514.70705      2812.55705        33.50005  23769330.53805   -120456.90805      2100.36905        34.40005
E12  23644325.77705    -20129.23205       923.53405        32.90005  23644321.58005    678314.43405       689.62605        35.40005
R07  23563649.52825  55964677.82225     -3858.42225        32.00025
E07  27350695.61005    123179.14505      -972.78705        31.90005  27350726.48905    144038.75805      -726.59705        33.70005
R17  22251061.31425 150871455.70025      3322.43725        30.80025
R23  22123739.45725 209860335.16625     -3101.13925        30.80025
R16  23491119.83924   -337619.15624      2672.06324        27.40024
R15  21774579.27524  14505908.09524      -877.31324        27.00024
E25  26282364.50104    -86479.07004      1501.81304        25.30004  26282379.79004    -73484.95904      1123.78404        26.70004
E16  24770661.93013    174861.58613     -1031.45013        19.40013  24770680.81713    624185.63613      -809.09013        19.70013
